[
  {
    "name": "강릉교동RE~0325",
    "address": "강원도 강릉시 교동광장로 135",
    "phone": "033-655-3031",
    "lat": 37.7644900316648,
    "lng": 128.87970265592,
    "region": "강원특별자치도",
    "district": "강릉시"
  },
  {
    "name": "강릉대학로RE~3/31",
    "address": "강원도 강릉시 경강로 2096",
    "phone": "033-648-2121",
    "lat": 37.754535978846,
    "lng": 128.896213339242,
    "region": "강원특별자치도",
    "district": "강릉시"
  },
  {
    "name": "강릉유천",
    "address": "강원도 강릉시 홍제동 1022-4 1층",
    "phone": "033-646-3238",
    "lat": 37.7568460319044,
    "lng": 128.870043987284,
    "region": "강원특별자치도",
    "district": "강릉시"
  },
  {
    "name": "강릉이마트",
    "address": "강원도 강릉시 경강로 2398-10 &#40;송정동&#41; 이마트 1층",
    "phone": "033-651-0121",
    "lat": 37.7705995463738,
    "lng": 128.922648702089,
    "region": "강원특별자치도",
    "district": "강릉시"
  },
  {
    "name": "강릉입암",
    "address": "강원도 강릉시 입암동 708-1, 1층 105호&#40;입암동&#41;",
    "phone": "033-652-0607",
    "lat": 37.7596126619706,
    "lng": 128.918963343266,
    "region": "강원특별자치도",
    "district": "강릉시"
  },
  {
    "name": "강릉주문진",
    "address": "강원도 강릉시 주문진읍 주문로 53 &#40;교항리&#41;",
    "phone": "033-662-2815",
    "lat": 37.888720419382,
    "lng": 128.825487819702,
    "region": "강원특별자치도",
    "district": "강릉시"
  },
  {
    "name": "강릉포남",
    "address": "강원도 강릉시 포남동 1186",
    "phone": "033-651-1618",
    "lat": 37.7701963779009,
    "lng": 128.91269628107,
    "region": "강원특별자치도",
    "district": "강릉시"
  },
  {
    "name": "동해나안",
    "address": "강원도 동해시 나안동 177-7",
    "phone": "033-521-1131",
    "lat": 37.4863023815731,
    "lng": 129.109769302522,
    "region": "강원특별자치도",
    "district": "동해시"
  },
  {
    "name": "동해천곡",
    "address": "강원도 동해시 대학로 31 101호",
    "phone": "033-532-0031",
    "lat": 37.5234425852941,
    "lng": 129.112281021465,
    "region": "강원특별자치도",
    "district": "동해시"
  },
  {
    "name": "삼척남양",
    "address": "강원도 삼척시 남양동 17-13",
    "phone": "033-572-0099",
    "lat": 37.4437826954994,
    "lng": 129.163733230634,
    "region": "강원특별자치도",
    "district": "삼척시"
  },
  {
    "name": "삼척쏠비치",
    "address": "강원도 삼척시 갈천동 225 로비 1층",
    "phone": "033-803-7975",
    "lat": 37.4703432075444,
    "lng": 129.164700130571,
    "region": "강원특별자치도",
    "district": "삼척시"
  },
  {
    "name": "속초조양",
    "address": "강원도 속초시 동해대로 4024,111&#40;조양동,1층111~112호&#41;",
    "phone": "033-636-3179",
    "lat": 38.190201777401,
    "lng": 128.594492466456,
    "region": "강원특별자치도",
    "district": "속초시"
  },
  {
    "name": "강원양구",
    "address": "강원도 양구군 양구읍 중앙길 9",
    "phone": "033-481-0700",
    "lat": 38.1070689698011,
    "lng": 127.989409386991,
    "region": "강원특별자치도",
    "district": "양구군"
  },
  {
    "name": "영월",
    "address": "강원도 영월군 영월읍 중앙로 17",
    "phone": "033-375-0300",
    "lat": 37.1838445377049,
    "lng": 128.465581830071,
    "region": "강원특별자치도",
    "district": "영월군"
  },
  {
    "name": "문막",
    "address": "강원도 원주시 문막읍 건등리 200-6 1층",
    "phone": "033-731-3122",
    "lat": 37.3204536503406,
    "lng": 127.832850572094,
    "region": "강원특별자치도",
    "district": "원주시"
  },
  {
    "name": "원주기업센텀",
    "address": "강원도 원주시 지정면 가곡리 1497-1",
    "phone": "033-744-1131",
    "lat": 37.3824256725959,
    "lng": 127.873168435988,
    "region": "강원특별자치도",
    "district": "원주시"
  },
  {
    "name": "원주기업스타",
    "address": "강원도 원주시 지정면 신지정로 211, 스타세븐상가 156호",
    "phone": "033-742-3100",
    "lat": 37.3741911732387,
    "lng": 127.872731456756,
    "region": "강원특별자치도",
    "district": "원주시"
  },
  {
    "name": "원주무실",
    "address": "강원도 원주시 무실동 1857-10 &#40;시네씨티타워 1층&#41;",
    "phone": "033-744-3132",
    "lat": 37.3347986206112,
    "lng": 127.930175357579,
    "region": "강원특별자치도",
    "district": "원주시"
  },
  {
    "name": "원주반곡",
    "address": "강원도 원주시 늘품로 187-58 &#40;단구동, 현대아카데미프라자&#41; 113호, 114호",
    "phone": "033-734-3111",
    "lat": 37.3373441542228,
    "lng": 127.964090926367,
    "region": "강원특별자치도",
    "district": "원주시"
  },
  {
    "name": "원주태장",
    "address": "강원도 원주시 북원로 2706",
    "phone": "033-731-1532",
    "lat": 37.3851113501875,
    "lng": 127.948185143,
    "region": "강원특별자치도",
    "district": "원주시"
  },
  {
    "name": "원주터미널",
    "address": "강원도 원주시 서원대로 171 원주시외버스터미널",
    "phone": "033-738-9131",
    "lat": 37.3448749381194,
    "lng": 127.93092033516,
    "region": "강원특별자치도",
    "district": "원주시"
  },
  {
    "name": "강원인제",
    "address": "강원도 인제군 인제읍 상동리 295-6",
    "phone": "033-461-3111",
    "lat": 38.0681002307513,
    "lng": 128.172395243011,
    "region": "강원특별자치도",
    "district": "인제군"
  },
  {
    "name": "철원동송",
    "address": "강원도 철원군 동송읍 이평리 680-6",
    "phone": "033-455-1555",
    "lat": 38.2080231285357,
    "lng": 127.21843303087,
    "region": "강원특별자치도",
    "district": "철원군"
  },
  {
    "name": "철원와수",
    "address": "강원도 철원군 서면 와수로146번길 1 &#40;와수리&#41;",
    "phone": "033-458-3132",
    "lat": 38.236875671776,
    "lng": 127.437124692577,
    "region": "강원특별자치도",
    "district": "철원군"
  },
  {
    "name": "강원대",
    "address": "강원도 춘천시 효자동 628-10",
    "phone": "033-252-0131",
    "lat": 37.8729556473829,
    "lng": 127.744563933579,
    "region": "강원특별자치도",
    "district": "춘천시"
  },
  {
    "name": "춘천명동",
    "address": "강원도 춘천시 중앙로 67번길 3",
    "phone": "033-251-3110",
    "lat": 37.8792296202061,
    "lng": 127.726702176711,
    "region": "강원특별자치도",
    "district": "춘천시"
  },
  {
    "name": "춘천석사",
    "address": "강원도 춘천시 지석로 75",
    "phone": "033-261-7731",
    "lat": 37.8510614532319,
    "lng": 127.744809538644,
    "region": "강원특별자치도",
    "district": "춘천시"
  },
  {
    "name": "춘천애막골",
    "address": "강원도 춘천시 석사동 729-1",
    "phone": "033-263-8480",
    "lat": 37.8673078538841,
    "lng": 127.754307948218,
    "region": "강원특별자치도",
    "district": "춘천시"
  },
  {
    "name": "춘천온의",
    "address": "강원도 춘천시 온의동 590 온의롯데캐슬스카이클래스 1층",
    "phone": "033-256-3110",
    "lat": 37.8701306834743,
    "lng": 127.716631986002,
    "region": "강원특별자치도",
    "district": "춘천시"
  },
  {
    "name": "춘천우두",
    "address": "강원도 춘천시 우두6길 5 &#40;우두동&#41;",
    "phone": "033-253-3133",
    "lat": 37.9078806589,
    "lng": 127.732688886132,
    "region": "강원특별자치도",
    "district": "춘천시"
  },
  {
    "name": "춘천이마트",
    "address": "강원도 춘천시 온의동 511번지 이마트춘천점 1층",
    "phone": "033-252-5296",
    "lat": 37.8630763066512,
    "lng": 127.718713734988,
    "region": "강원특별자치도",
    "district": "춘천시"
  },
  {
    "name": "춘천장학",
    "address": "강원도 춘천시 동면 장학리 1007-5",
    "phone": "033-242-3233",
    "lat": 37.8929583381489,
    "lng": 127.755562994,
    "region": "강원특별자치도",
    "district": "춘천시"
  },
  {
    "name": "춘천한숲시티",
    "address": "강원도 춘천시 퇴계동 1240",
    "phone": "033-912-9931",
    "lat": 37.8548837651382,
    "lng": 127.728607709795,
    "region": "강원특별자치도",
    "district": "춘천시"
  },
  {
    "name": "춘천후평",
    "address": "강원도 춘천시 후석로 296",
    "phone": "033-255-3110",
    "lat": 37.8778379125674,
    "lng": 127.751773811243,
    "region": "강원특별자치도",
    "district": "춘천시"
  },
  {
    "name": "강원태백",
    "address": "강원도 태백시 황지로 172 &#40;황지동&#41;",
    "phone": "033-552-5618",
    "lat": 37.1737256143,
    "lng": 128.9911404574,
    "region": "강원특별자치도",
    "district": "태백시"
  },
  {
    "name": "강원횡계",
    "address": "강원도 평창군 대관령면 대관령마루길 7 &#40;횡계리&#41;",
    "phone": "033-335-2453",
    "lat": 37.668423,
    "lng": 128.710766,
    "region": "강원특별자치도",
    "district": "평창군"
  },
  {
    "name": "평창알펜시아",
    "address": "강원도 평창군 대관령면 솔봉로 325 알펜시아 콘도 101동 R05호",
    "phone": "033-339-3131",
    "lat": 37.6646459700895,
    "lng": 128.691543597851,
    "region": "강원특별자치도",
    "district": "평창군"
  },
  {
    "name": "비발디파크",
    "address": "강원도 홍천군 서면 한치골길 262 &#40;팔봉리&#41;",
    "phone": "033-435-6331",
    "lat": 37.652336805,
    "lng": 127.6873328729,
    "region": "강원특별자치도",
    "district": "홍천군"
  },
  {
    "name": "홍천중앙로",
    "address": "강원도 홍천군 홍천읍 꽃뫼로 99-2",
    "phone": "033-434-3159",
    "lat": 37.6919617333649,
    "lng": 127.884597113019,
    "region": "강원특별자치도",
    "district": "홍천군"
  },
  {
    "name": "강원화천",
    "address": "강원도 화천군 화천읍 중앙로 11",
    "phone": "033-441-3121",
    "lat": 38.1048476582097,
    "lng": 127.705615718864,
    "region": "강원특별자치도",
    "district": "화천군"
  },
  {
    "name": "강릉내곡",
    "address": "강원특별자치도 강릉시 범일로 626 1층",
    "phone": "033-646-4376",
    "lat": 37.7428970716035,
    "lng": 128.881761475684,
    "region": "강원특별자치도",
    "district": "강릉시"
  },
  {
    "name": "고성간성",
    "address": "강원특별자치도 고성군 간성읍 간성로 34",
    "phone": "033-681-9110",
    "lat": 38.3792336547623,
    "lng": 128.471293901106,
    "region": "강원특별자치도",
    "district": "고성군"
  },
  {
    "name": "속초중앙",
    "address": "강원특별자치도 속초시 중앙로 133-1",
    "phone": "033-631-5031",
    "lat": 38.2029762195296,
    "lng": 128.590557890874,
    "region": "강원특별자치도",
    "district": "속초시"
  },
  {
    "name": "강원양양",
    "address": "강원특별자치도 양양군 양양읍 양양로 68 1층",
    "phone": "033-671-3179",
    "lat": 38.075327579813,
    "lng": 128.621745287594,
    "region": "강원특별자치도",
    "district": "양양군"
  },
  {
    "name": "원주구곡",
    "address": "강원특별자치도 원주시 서원대로 392 스타프라자 1층 105호, 106호",
    "phone": "033-747-2334",
    "lat": 37.3310190155411,
    "lng": 127.948401297225,
    "region": "강원특별자치도",
    "district": "원주시"
  },
  {
    "name": "원주단계",
    "address": "강원특별자치도 원주시 백간길 25 1층",
    "phone": "033-732-0310",
    "lat": 37.3520835008391,
    "lng": 127.926301363813,
    "region": "강원특별자치도",
    "district": "원주시"
  },
  {
    "name": "원주단관",
    "address": "강원특별자치도 원주시 단구로 369 1층 101호",
    "phone": "033-766-3123",
    "lat": 37.3232264048342,
    "lng": 127.957390438938,
    "region": "강원특별자치도",
    "district": "원주시"
  },
  {
    "name": "원주중앙",
    "address": "강원특별자치도 원주시 원일로 122-2 1,2층",
    "phone": "033-745-1211",
    "lat": 37.3504865488265,
    "lng": 127.948317614668,
    "region": "강원특별자치도",
    "district": "원주시"
  },
  {
    "name": "원주혁신도시",
    "address": "강원특별자치도 원주시 혁신로 53 혁신빌딩 1층",
    "phone": "033-731-3009",
    "lat": 37.323498978735,
    "lng": 127.979991799634,
    "region": "강원특별자치도",
    "district": "원주시"
  },
  {
    "name": "정선고한",
    "address": "강원특별자치도 정선군 고한읍 고한로 45 1층 104호",
    "phone": "",
    "lat": 37.2075590390182,
    "lng": 128.844202951961,
    "region": "강원특별자치도",
    "district": "정선군"
  },
  {
    "name": "춘천거두리하나로",
    "address": "강원특별자치도 춘천시 동내면 공지로 80 춘천거두리하나로마트 1층",
    "phone": "033-262-7172",
    "lat": 37.8544280643227,
    "lng": 127.750866067282,
    "region": "강원특별자치도",
    "district": "춘천시"
  },
  {
    "name": "휘닉스파크",
    "address": "강원특별자치도 평창군 봉평면 태기로 174 1층",
    "phone": "0507-1411-3130",
    "lat": 37.5825421416807,
    "lng": 128.326740667555,
    "region": "강원특별자치도",
    "district": "평창군"
  },
  {
    "name": "강원횡성",
    "address": "강원특별자치도 횡성군 횡성읍 문정로 21 1층",
    "phone": "033-343-9809",
    "lat": 37.4898683190271,
    "lng": 127.986019972548,
    "region": "강원특별자치도",
    "district": "횡성군"
  },
  {
    "name": "가평",
    "address": "경기도 가평군 가평읍 가화로 124&#40;1층1호&#41;",
    "phone": "031-581-8858",
    "lat": 37.8307555205511,
    "lng": 127.513550252926,
    "region": "경기도",
    "district": "가평군"
  },
  {
    "name": "가평설악",
    "address": "경기 가평군 설악면 신천중앙로 128 1층",
    "phone": "031-585-0593",
    "lat": 37.678216272424,
    "lng": 127.489748626049,
    "region": "경기도",
    "district": "가평군"
  },
  {
    "name": "가평현리",
    "address": "경기도 가평군 조종면 조종희망로 14 &#40;현리, 엄마손해장국&#41;",
    "phone": "031-585-3136",
    "lat": 37.8181849523177,
    "lng": 127.350160122918,
    "region": "경기도",
    "district": "가평군"
  },
  {
    "name": "청평",
    "address": "경기도 가평군 청평면 청평중앙로 70 &#40;청평리&#41;",
    "phone": "031-584-7502",
    "lat": 37.73912,
    "lng": 127.421698,
    "region": "경기도",
    "district": "가평군"
  },
  {
    "name": "고양",
    "address": "경기도 고양시 덕양구 혜음로 23",
    "phone": "031-962-5223",
    "lat": 37.7026627418894,
    "lng": 126.901650961718,
    "region": "경기도",
    "district": "고양시"
  },
  {
    "name": "고양관산",
    "address": "경기도 고양시 덕양구 통일로 770 &#40;관산동&#41;",
    "phone": "031-963-3130",
    "lat": 37.6878910134389,
    "lng": 126.864993900965,
    "region": "경기도",
    "district": "고양시"
  },
  {
    "name": "고양덕은",
    "address": "경기도 고양시 덕양구 으뜸로 124 &#40;덕은동, 드림코어&#41;",
    "phone": "02-3159-1007",
    "lat": 37.5791147507252,
    "lng": 126.869746197258,
    "region": "경기도",
    "district": "고양시"
  },
  {
    "name": "고양삼송",
    "address": "경기도 고양시 덕양구 삼송동 326-2",
    "phone": "02-371-1141",
    "lat": 37.6508227616734,
    "lng": 126.884359066057,
    "region": "경기도",
    "district": "고양시"
  },
  {
    "name": "고양스타필드",
    "address": "경기도 고양시 덕양구 동산동 370 스타필드고양 1층 1267호",
    "phone": "031-5173-1474",
    "lat": 37.6469763081527,
    "lng": 126.894778406189,
    "region": "경기도",
    "district": "고양시"
  },
  {
    "name": "고양신원마을",
    "address": "경기도 고양시 덕양구 신원동 628-2",
    "phone": "02-371-3199",
    "lat": 37.663713349,
    "lng": 126.891245857,
    "region": "경기도",
    "district": "고양시"
  },
  {
    "name": "고양원흥",
    "address": "경기도 고양시 덕양구 도내동 957",
    "phone": "031-962-3112",
    "lat": 37.6350784294522,
    "lng": 126.871471131132,
    "region": "경기도",
    "district": "고양시"
  },
  {
    "name": "고양원흥역",
    "address": "경기도 고양시 덕양구 권율대로 672 &#40;원흥동, 3호선 원흥역 봄오피스텔&#41;",
    "phone": "070-4369-0894",
    "lat": 37.6498654956373,
    "lng": 126.874174197672,
    "region": "경기도",
    "district": "고양시"
  },
  {
    "name": "고양지축역",
    "address": "경기도 고양시 덕양구 지축로 62 &#40;지축동, 아인시티&#41;",
    "phone": "02-371-3133",
    "lat": 37.6495557414737,
    "lng": 126.915019005307,
    "region": "경기도",
    "district": "고양시"
  },
  {
    "name": "고양터미널홈플러스",
    "address": "경기도 고양시 일산동구 중앙로 1036번지 홈플러스 지하 2층",
    "phone": "031-936-7679",
    "lat": 37.6431777370694,
    "lng": 126.789662796925,
    "region": "경기도",
    "district": "고양시"
  },
  {
    "name": "고양트레이더스",
    "address": "경기도 고양시 덕양구 동산동 370, 지하 2층&#40;일부&#41;층",
    "phone": "070-4225-2292",
    "lat": 37.6469763081527,
    "lng": 126.894778406189,
    "region": "경기도",
    "district": "고양시"
  },
  {
    "name": "고양풍동",
    "address": "경기도 고양시 일산동구 숲속마을 1로 71 113호",
    "phone": "031-908-3107",
    "lat": 37.665857955583,
    "lng": 126.796236036982,
    "region": "경기도",
    "district": "고양시"
  },
  {
    "name": "고양행신역",
    "address": "경기도 고양시 덕양구 충장로 18",
    "phone": "031-978-2056",
    "lat": 37.6143725248322,
    "lng": 126.8344667672,
    "region": "경기도",
    "district": "고양시"
  },
  {
    "name": "고양행신햇빛",
    "address": "경기도 고양시 덕양구 중앙로558번길 16-6 &#40;행신동, 신일빌딩&#41; 1층",
    "phone": "031-978-3153",
    "lat": 37.6240266889227,
    "lng": 126.836144518663,
    "region": "경기도",
    "district": "고양시"
  },
  {
    "name": "고양향동",
    "address": "경기도 고양시 덕양구 향동동 530",
    "phone": "02-3159-3031",
    "lat": 37.5989344545529,
    "lng": 126.892413721709,
    "region": "경기도",
    "district": "고양시"
  },
  {
    "name": "고양화정역",
    "address": "경기도 고양시 덕양구 화중로 60 &#40;화정동, 화정빌딩&#41;105호",
    "phone": "031-979-0331",
    "lat": 37.6324163357496,
    "lng": 126.830803175626,
    "region": "경기도",
    "district": "고양시"
  },
  {
    "name": "대화역",
    "address": "경기도 고양시 일산서구 중앙로 1568",
    "phone": "031-812-1230",
    "lat": 37.6765399900276,
    "lng": 126.747780799091,
    "region": "경기도",
    "district": "고양시"
  },
  {
    "name": "덕양구청",
    "address": "경기도 고양시 덕양구 화중로 126 &#40;화정동, 찬우물상가&#41;",
    "phone": "031-966-6277",
    "lat": 37.6383440494772,
    "lng": 126.831844546474,
    "region": "경기도",
    "district": "고양시"
  },
  {
    "name": "일산가좌",
    "address": "경기도 고양시 일산서구 가좌3로 27, 103호&#40;가좌동&#41;",
    "phone": "031-915-1312",
    "lat": 37.6871827344517,
    "lng": 126.719256414784,
    "region": "경기도",
    "district": "고양시"
  },
  {
    "name": "일산대화마을",
    "address": "경기도 고양시 일산서구 대화로 124 &#40;대화동, 명성프라자&#41;",
    "phone": "031-923-7731",
    "lat": 37.669936779279,
    "lng": 126.734503500189,
    "region": "경기도",
    "district": "고양시"
  },
  {
    "name": "일산덕이",
    "address": "경기도 고양시 일산서구 하이파크3로78번길 1 &#40;덕이동&#41; 1층 104호, 105호",
    "phone": "031-813-7731",
    "lat": 37.6987343086551,
    "lng": 126.753215273443,
    "region": "경기도",
    "district": "고양시"
  },
  {
    "name": "일산라페스타",
    "address": "경기도 고양시 일산동구 무궁화로 31-1 텐폴드프라자 105호",
    "phone": "031-912-3132",
    "lat": 37.6627324356515,
    "lng": 126.767479947671,
    "region": "경기도",
    "district": "고양시"
  },
  {
    "name": "일산마두역",
    "address": "경기도 고양시 일산동구 중앙로 1199 &#40;장항동&#41;",
    "phone": "031-901-7114",
    "lat": 37.653593121712,
    "lng": 126.77631084165,
    "region": "경기도",
    "district": "고양시"
  },
  {
    "name": "일산백마",
    "address": "경기도 고양시 일산동구 일산로 196 &#40;마두동, 대길프라자&#41;",
    "phone": "031-905-3120",
    "lat": 37.6539654937946,
    "lng": 126.790744065331,
    "region": "경기도",
    "district": "고양시"
  },
  {
    "name": "일산백석역",
    "address": "경기도 고양시 일산동구 일산로 46 남정프라자 106호",
    "phone": "031-905-6966",
    "lat": 37.6424000082861,
    "lng": 126.788051527385,
    "region": "경기도",
    "district": "고양시"
  },
  {
    "name": "일산원당",
    "address": "경기도 고양시 덕양구 호국로 792",
    "phone": "031-967-3100",
    "lat": 37.6566769135475,
    "lng": 126.836741421187,
    "region": "경기도",
    "district": "고양시"
  },
  {
    "name": "일산장항호수",
    "address": "경기도 고양시 일산동구 중앙로1261번길 57 &#40;장항동, 대명레이크프라자 1&#41; 1층 104호",
    "phone": "031-906-3177",
    "lat": 37.6572869218154,
    "lng": 126.770984132251,
    "region": "경기도",
    "district": "고양시"
  },
  {
    "name": "일산주엽",
    "address": "경기도 고양시 일산서구 중앙로 1444 &#40;주엽동&#41;, 102호",
    "phone": "031-914-4064",
    "lat": 37.6710879505548,
    "lng": 126.76019957593,
    "region": "경기도",
    "district": "고양시"
  },
  {
    "name": "일산중산",
    "address": "경기도 고양시 일산동구 고양대로 739 주은프라자 101호",
    "phone": "031-975-0310",
    "lat": 37.6828635653729,
    "lng": 126.778549707102,
    "region": "경기도",
    "district": "고양시"
  },
  {
    "name": "일산탄현",
    "address": "경기도 고양시 일산서구 일현로 42 탄현프라자 101호",
    "phone": "031-913-9695",
    "lat": 37.6909420849294,
    "lng": 126.762981462713,
    "region": "경기도",
    "district": "고양시"
  },
  {
    "name": "일산후곡",
    "address": "경기도 고양시 일산서구 일산로 530",
    "phone": "031-911-8231",
    "lat": 37.6773316444207,
    "lng": 126.769191442494,
    "region": "경기도",
    "district": "고양시"
  },
  {
    "name": "풍산이마트",
    "address": "경기도 고양시 일산동구 중산동 1809번지 이마트 풍산점 1층",
    "phone": "031-975-5587",
    "lat": 37.6739038006959,
    "lng": 126.787114071651,
    "region": "경기도",
    "district": "고양시"
  },
  {
    "name": "행신서정",
    "address": "경기도 고양시 덕양구 중앙로 438 &#40;행신동, 아름터프라자&#41;",
    "phone": "031-970-9033",
    "lat": 37.6180020438,
    "lng": 126.8467256447,
    "region": "경기도",
    "district": "고양시"
  },
  {
    "name": "후곡사거리",
    "address": "경기도 고양시 일산서구 후곡로 22 101호",
    "phone": "031-913-0031",
    "lat": 37.6795551882663,
    "lng": 126.763697862833,
    "region": "경기도",
    "district": "고양시"
  },
  {
    "name": "고양능곡",
    "address": "경기 고양시 덕양구 지도로 100 104호, 105호",
    "phone": "031-979-8956",
    "lat": 37.6260883105179,
    "lng": 126.824057521925,
    "region": "경기도",
    "district": "고양시 덕양구"
  },
  {
    "name": "일산식사",
    "address": "경기 고양시 일산동구 위시티로 67",
    "phone": "031-966-3338",
    "lat": 37.6781215640642,
    "lng": 126.810859515227,
    "region": "경기도",
    "district": "고양시 일산동구"
  },
  {
    "name": "일산트레이더스",
    "address": "경기 고양시 일산서구 킨텍스로 171 지하2층",
    "phone": "031-913-3653",
    "lat": 37.6615831401235,
    "lng": 126.744065435785,
    "region": "경기도",
    "district": "고양시 일산서구"
  },
  {
    "name": "킨텍스역",
    "address": "경기 고양시 일산서구 킨텍스로 240 181,182호",
    "phone": "031-917-2800",
    "lat": 37.6658756486743,
    "lng": 126.751042108317,
    "region": "경기도",
    "district": "고양시 일산서구"
  },
  {
    "name": "과천역",
    "address": "경기도 과천시 별양로 164 &#40;부림동, 과천센트럴파크푸르지오써밋&#41;",
    "phone": "02-507-0077",
    "lat": 37.4327957855187,
    "lng": 126.998858477825,
    "region": "경기도",
    "district": "과천시"
  },
  {
    "name": "과천위버필드",
    "address": "경기도 과천시 모템말길 7, 상가12-2동 101, 102호 &#40;갈현동&#41;",
    "phone": "02-3679-6811",
    "lat": 37.42124040305,
    "lng": 126.988471076144,
    "region": "경기도",
    "district": "과천시"
  },
  {
    "name": "과천정부청사역",
    "address": "경기도 과천시 별양상가1로 35 &#40;별양동, 상아빌딩&#41;",
    "phone": "02-507-3243",
    "lat": 37.4285447090875,
    "lng": 126.993565107497,
    "region": "경기도",
    "district": "과천시"
  },
  {
    "name": "과천지식정보타운",
    "address": "경기 과천시 과천대로6가길 52 어반프라자 101호",
    "phone": "02-504-0906",
    "lat": 37.4119445671654,
    "lng": 126.983035988212,
    "region": "경기도",
    "district": "과천시"
  },
  {
    "name": "광명7동",
    "address": "경기도 광명시 도덕로 39 &#40;광명동&#41;",
    "phone": "02-2060-3133",
    "lat": 37.4687729894907,
    "lng": 126.852185813664,
    "region": "경기도",
    "district": "광명시"
  },
  {
    "name": "광명사거리",
    "address": "경기도 광명시 광명로 899",
    "phone": "02-2686-9995",
    "lat": 37.4792846552358,
    "lng": 126.854030346643,
    "region": "경기도",
    "district": "광명시"
  },
  {
    "name": "광명소하사거리",
    "address": "경기도 광명시 오리로 379 &#40;소하동&#41;, 1층",
    "phone": "02-6348-3131",
    "lat": 37.4362537593294,
    "lng": 126.879255025431,
    "region": "경기도",
    "district": "광명시"
  },
  {
    "name": "광명소하이마트",
    "address": "경기 광명시 소하로 97 이마트 3층",
    "phone": "02-898-3149",
    "lat": 37.446594050365,
    "lng": 126.884553002261,
    "region": "경기도",
    "district": "광명시"
  },
  {
    "name": "광명신촌",
    "address": "경기 광명시 하안로 112 &#40;소하동 1364&#41;",
    "phone": "070-7804-7213",
    "lat": 37.4483798030861,
    "lng": 126.891630335255,
    "region": "경기도",
    "district": "광명시"
  },
  {
    "name": "광명역",
    "address": "경기 광명시 신기로 21 1층 111호",
    "phone": "02-6402-6500",
    "lat": 37.4201707739718,
    "lng": 126.883729474793,
    "region": "경기도",
    "district": "광명시"
  },
  {
    "name": "광명철산로데오",
    "address": "경기도 광명시 오리로 856번길 25",
    "phone": "02-2625-3137",
    "lat": 37.4757166914988,
    "lng": 126.869457706558,
    "region": "경기도",
    "district": "광명시"
  },
  {
    "name": "광명하안",
    "address": "경기도 광명시 범안로 1059, 유창빌딩 101호",
    "phone": "02-803-0310",
    "lat": 37.4625734196696,
    "lng": 126.880297833222,
    "region": "경기도",
    "district": "광명시"
  },
  {
    "name": "광명하안6단지",
    "address": "경기도 광명시 하안동 37 신영빌딩 103호",
    "phone": "02-897-3101",
    "lat": 37.4613772014875,
    "lng": 126.878848417434,
    "region": "경기도",
    "district": "광명시"
  },
  {
    "name": "철산헤리티지",
    "address": "경기 광명시 시청로 105 1층 101, 102호",
    "phone": "02-2625-3138",
    "lat": 37.4856486904163,
    "lng": 126.86576108426,
    "region": "경기도",
    "district": "광명시"
  },
  {
    "name": "곤지암리조트",
    "address": "경기 광주시 도척면 도척윗로 278",
    "phone": "031-8026-5637",
    "lat": 37.3375588747099,
    "lng": 127.296189047378,
    "region": "경기도",
    "district": "광주시"
  },
  {
    "name": "광주경안",
    "address": "경기도 광주시 중앙로 118-1 &#40;경안동&#41;",
    "phone": "031-764-4949",
    "lat": 37.4103040372,
    "lng": 127.2581960203,
    "region": "경기도",
    "district": "광주시"
  },
  {
    "name": "광주곤지암",
    "address": "경기도 광주시 곤지암읍 곤지암로 55 &#40;곤지암리&#41;",
    "phone": "031-797-1652",
    "lat": 37.3495128952819,
    "lng": 127.340547048848,
    "region": "경기도",
    "district": "광주시"
  },
  {
    "name": "광주능평",
    "address": "경기도 광주시 경기 광주시 오포로 113 -",
    "phone": "031-797-8910",
    "lat": 37.3438965793055,
    "lng": 127.178726406568,
    "region": "경기도",
    "district": "광주시"
  },
  {
    "name": "광주신현",
    "address": "경기도 광주시 오포읍 신현리 697-4",
    "phone": "031-726-9851",
    "lat": 37.3603843404058,
    "lng": 127.15465880546,
    "region": "경기도",
    "district": "광주시"
  },
  {
    "name": "광주쌍령",
    "address": "경기 광주시 경충대로1481번길 4",
    "phone": "031-798-3332",
    "lat": 37.4017199645885,
    "lng": 127.270795903239,
    "region": "경기도",
    "district": "광주시"
  },
  {
    "name": "광주양벌",
    "address": "경기 광주시 양벌로 327",
    "phone": "031-762-9109",
    "lat": 37.3701493482786,
    "lng": 127.246363753005,
    "region": "경기도",
    "district": "광주시"
  },
  {
    "name": "광주초월역",
    "address": "경기 광주시 초월읍 경충대로 1087",
    "phone": "031-766-4933",
    "lat": 37.3741050698526,
    "lng": 127.297341107422,
    "region": "경기도",
    "district": "광주시"
  },
  {
    "name": "광주탄벌",
    "address": "경기도 광주시 파발로 185, 103&#40;탄벌동, KJ빌딩&#41;",
    "phone": "031-797-9119",
    "lat": 37.415459783333,
    "lng": 127.250600072342,
    "region": "경기도",
    "district": "광주시"
  },
  {
    "name": "광주태전",
    "address": "경기도 광주시 중대동 16-77",
    "phone": "031-761-5720",
    "lat": 37.3934001650175,
    "lng": 127.232507662341,
    "region": "경기도",
    "district": "광주시"
  },
  {
    "name": "광주퇴촌",
    "address": "경기 광주시 퇴촌면 광동로 68 130호",
    "phone": "031-767-0310",
    "lat": 37.470246946448,
    "lng": 127.310172668264,
    "region": "경기도",
    "district": "광주시"
  },
  {
    "name": "광주회덕",
    "address": "경기 광주시 이배재로 119",
    "phone": "031-762-3132",
    "lat": 37.4271891804098,
    "lng": 127.241831714872,
    "region": "경기도",
    "district": "광주시"
  },
  {
    "name": "태전힐스테이트",
    "address": "경기도 광주시 태봉로 145-1, 세진상가 1층 101호, 102호 &#40;태전동&#41;",
    "phone": "031-761-7331",
    "lat": 37.3807981024732,
    "lng": 127.231137200919,
    "region": "경기도",
    "district": "광주시"
  },
  {
    "name": "구리갈매",
    "address": "경기도 구리시 갈매중앙로 79 &#40;갈매동&#41;",
    "phone": "031-528-3255",
    "lat": 37.6316413407,
    "lng": 127.1169321518,
    "region": "경기도",
    "district": "구리시"
  },
  {
    "name": "구리검배사거리",
    "address": "경기도 구리시 벌말로 185 &#40;수택동, 구리태영데시앙&#41;",
    "phone": "031-562-0071",
    "lat": 37.5932334872521,
    "lng": 127.149484558777,
    "region": "경기도",
    "district": "구리시"
  },
  {
    "name": "구리돌다리",
    "address": "경기 구리시 경춘로 214",
    "phone": "031-556-9645",
    "lat": 37.6002476215533,
    "lng": 127.139081996072,
    "region": "경기도",
    "district": "구리시"
  },
  {
    "name": "구리등기소",
    "address": "경기 구리시 건원대로 36 화성골드프라자 108호",
    "phone": "031-568-0808",
    "lat": 37.6044311428955,
    "lng": 127.140488843483,
    "region": "경기도",
    "district": "구리시"
  },
  {
    "name": "구리수택",
    "address": "경기 구리시 이문안로 71 나동 106호",
    "phone": "031-553-3133",
    "lat": 37.5924344927838,
    "lng": 127.139546527554,
    "region": "경기도",
    "district": "구리시"
  },
  {
    "name": "구리인창",
    "address": "경기도 구리시 동구릉로 91",
    "phone": "031-558-6665",
    "lat": 37.6082855636728,
    "lng": 127.13422786329,
    "region": "경기도",
    "district": "구리시"
  },
  {
    "name": "구리토평",
    "address": "경기도 구리시 수택동 874-11",
    "phone": "031-555-5580",
    "lat": 37.5871917282769,
    "lng": 127.138768646049,
    "region": "경기도",
    "district": "구리시"
  },
  {
    "name": "군포당동",
    "address": "경기 군포시 고산로250번길 1",
    "phone": "031-396-3131",
    "lat": 37.346373880723,
    "lng": 126.944552806792,
    "region": "경기도",
    "district": "군포시"
  },
  {
    "name": "군포당정",
    "address": "경기도 군포시 고산로151번길 6 &#40;당정동, R&amp;K프라자&#41;",
    "phone": "031-427-3101",
    "lat": 37.3480913361424,
    "lng": 126.954955669293,
    "region": "경기도",
    "district": "군포시"
  },
  {
    "name": "군포송정",
    "address": "경기도 군포시 송부로34번길 2 &#40;도마교동, 엔젤리움플라자&#41; 1층 106호, 107호",
    "phone": "031-408-4556",
    "lat": 37.3153538991862,
    "lng": 126.918050584019,
    "region": "경기도",
    "district": "군포시"
  },
  {
    "name": "군포신환사거리",
    "address": "경기도 군포시 금정동 723-11",
    "phone": "031-477-3697",
    "lat": 37.3629038575051,
    "lng": 126.941706931233,
    "region": "경기도",
    "district": "군포시"
  },
  {
    "name": "군포트레이더스",
    "address": "경기도 군포시 삼성로 74 &#40;부곡동, 트레이더스 군포점&#41;",
    "phone": "031-393-7858",
    "lat": 37.3401223445686,
    "lng": 126.934649447895,
    "region": "경기도",
    "district": "군포시"
  },
  {
    "name": "산본9단지",
    "address": "경기도 군포시 산본동 1147, 1층 120호",
    "phone": "031-393-3101",
    "lat": 37.3602438286273,
    "lng": 126.922523979276,
    "region": "경기도",
    "district": "군포시"
  },
  {
    "name": "산본금정",
    "address": "경기도 군포시 군포로 747-1",
    "phone": "031-395-2323",
    "lat": 37.3719416712692,
    "lng": 126.942772460987,
    "region": "경기도",
    "district": "군포시"
  },
  {
    "name": "산본사거리",
    "address": "경기도 군포시 고산로 683 &#40;산본동, 현대아카데미센타&#41;",
    "phone": "031-393-3117",
    "lat": 37.371392994094,
    "lng": 126.934363573795,
    "region": "경기도",
    "district": "군포시"
  },
  {
    "name": "산본이마트",
    "address": "경기 군포시 산본로 347 3층",
    "phone": "031-396-3155",
    "lat": 37.3610881761218,
    "lng": 126.931418119741,
    "region": "경기도",
    "district": "군포시"
  },
  {
    "name": "산본중심가",
    "address": "경기 군포시 산본로323번길 22",
    "phone": "031-391-3001",
    "lat": 37.358796610099,
    "lng": 126.93160284056,
    "region": "경기도",
    "district": "군포시"
  },
  {
    "name": "김포걸포북변",
    "address": "경기 김포시 걸포2로 23 1층 101,102호",
    "phone": "010-6799-7958",
    "lat": 37.6327848495639,
    "lng": 126.704344653796,
    "region": "경기도",
    "district": "김포시"
  },
  {
    "name": "김포고촌",
    "address": "경기도 김포시 고촌읍 김포대로 340 &#40;신곡리, 김포뉴시티&#41;",
    "phone": "031-997-5313",
    "lat": 37.6013693331852,
    "lng": 126.77081467599,
    "region": "경기도",
    "district": "김포시"
  },
  {
    "name": "김포구래역",
    "address": "경기도 김포시 김포한강4로 487 &#40;구래동, 한강신도시 반도유보라 4차&#41;",
    "phone": "031-989-3130",
    "lat": 37.6463840708869,
    "lng": 126.629590905459,
    "region": "경기도",
    "district": "김포시"
  },
  {
    "name": "김포마산",
    "address": "경기도 김포시 마산동 646-3 다빈치프라자 107호",
    "phone": "031-981-4616",
    "lat": 37.6369719896836,
    "lng": 126.644080649348,
    "region": "경기도",
    "district": "김포시"
  },
  {
    "name": "김포사우",
    "address": "경기도 김포시 사우중로 45",
    "phone": "031-981-8041",
    "lat": 37.6190452865177,
    "lng": 126.718525112785,
    "region": "경기도",
    "district": "김포시"
  },
  {
    "name": "김포신곡",
    "address": "경기도 김포시 고촌읍 수기로 109 &#40;신곡리&#41;",
    "phone": "031-998-8757",
    "lat": 37.5938460657144,
    "lng": 126.763953856888,
    "region": "경기도",
    "district": "김포시"
  },
  {
    "name": "김포양곡",
    "address": "경기 김포시 양촌읍 양곡2로30번길 7-7",
    "phone": "031-983-5208",
    "lat": 37.6544145810723,
    "lng": 126.627502368381,
    "region": "경기도",
    "district": "김포시"
  },
  {
    "name": "김포운양",
    "address": "경기 김포시 김포한강11로 288-27 104호",
    "phone": "031-989-9097",
    "lat": 37.6547815389752,
    "lng": 126.683359691697,
    "region": "경기도",
    "district": "김포시"
  },
  {
    "name": "김포장기",
    "address": "경기도 김포시 김포한강1로78번길 6-6 &#40;장기동, 연경프라자&#41;",
    "phone": "031-987-4990",
    "lat": 37.6444269092693,
    "lng": 126.669743494253,
    "region": "경기도",
    "district": "김포시"
  },
  {
    "name": "김포장기자이",
    "address": "경기도 김포시 태장로 804 &#40;장기동&#41; 자이타워",
    "phone": "031-982-4616",
    "lat": 37.6378266401,
    "lng": 126.6781383888,
    "region": "경기도",
    "district": "김포시"
  },
  {
    "name": "김포카페거리",
    "address": "경기 김포시 김포한강11로 141 106호",
    "phone": "031-981-9391",
    "lat": 37.6458997854983,
    "lng": 126.680823562376,
    "region": "경기도",
    "district": "김포시"
  },
  {
    "name": "김포통진",
    "address": "경기 김포시 통진읍 김포대로 2229 1층 107호, 108호",
    "phone": "031-989-8231",
    "lat": 37.689315317954,
    "lng": 126.59833359224,
    "region": "경기도",
    "district": "김포시"
  },
  {
    "name": "김포트레이더스",
    "address": "경기도 김포시 김포대로 715 &#40;풍무동, 트레이더스 김포점&#41;",
    "phone": "031-982-3178",
    "lat": 37.6125377744644,
    "lng": 126.730900361826,
    "region": "경기도",
    "district": "김포시"
  },
  {
    "name": "김포풍무",
    "address": "경기도 김포시 풍무동 803",
    "phone": "031-982-1525",
    "lat": 37.6024284762071,
    "lng": 126.721980526077,
    "region": "경기도",
    "district": "김포시"
  },
  {
    "name": "김포풍무역",
    "address": "경기 김포시 풍무1로 61 1층 104호",
    "phone": "031-987-8870",
    "lat": 37.6108626358147,
    "lng": 126.731879161699,
    "region": "경기도",
    "district": "김포시"
  },
  {
    "name": "김포한강",
    "address": "경기도 김포시 구래동 6885-2",
    "phone": "031-997-2588",
    "lat": 37.6435564230142,
    "lng": 126.626613660768,
    "region": "경기도",
    "district": "김포시"
  },
  {
    "name": "김포향산",
    "address": "경기 김포시 고촌읍 상미4로 19-56",
    "phone": "070-7670-1006",
    "lat": 37.6187845872757,
    "lng": 126.747874880592,
    "region": "경기도",
    "district": "김포시"
  },
  {
    "name": "김포홈플러스",
    "address": "경기도 김포시 중봉로 14 &#40;감정동&#41;",
    "phone": "031-999-8228",
    "lat": 37.6238474484456,
    "lng": 126.698608499582,
    "region": "경기도",
    "district": "김포시"
  },
  {
    "name": "남양주금곡",
    "address": "경기 남양주시 경춘로 997",
    "phone": "031-592-1131",
    "lat": 37.6352207815086,
    "lng": 127.212405840041,
    "region": "경기도",
    "district": "남양주시"
  },
  {
    "name": "남양주덕소",
    "address": "경기도 남양주시 와부읍 덕소리 473-2",
    "phone": "031-576-0310",
    "lat": 37.5862034504205,
    "lng": 127.212056231325,
    "region": "경기도",
    "district": "남양주시"
  },
  {
    "name": "남양주도심역",
    "address": "경기 남양주시 와부읍 덕소로 214",
    "phone": "031-576-5300",
    "lat": 37.579267861244,
    "lng": 127.219802597431,
    "region": "경기도",
    "district": "남양주시"
  },
  {
    "name": "남양주마석",
    "address": "경기도 남양주시 화도읍 비룡로 58",
    "phone": "031-559-9831",
    "lat": 37.6571059116256,
    "lng": 127.30206271981,
    "region": "경기도",
    "district": "남양주시"
  },
  {
    "name": "남양주부평",
    "address": "경기도 남양주시 진접읍 부평로48번길 140 &#40;부평리, 더샵 남양주퍼스트시티&#41; 108호",
    "phone": "031-528-3131",
    "lat": 37.7375731954969,
    "lng": 127.197960907992,
    "region": "경기도",
    "district": "남양주시"
  },
  {
    "name": "남양주오남",
    "address": "경기도 남양주시 오남읍 양지리 96, 양지빌딩 1층",
    "phone": "031-572-3134",
    "lat": 37.698150181522,
    "lng": 127.203058584214,
    "region": "경기도",
    "district": "남양주시"
  },
  {
    "name": "남양주오남한신",
    "address": "경기도 남양주시 오남읍 진건오남로 545-5 &#40;오남리&#41;",
    "phone": "031-575-1031",
    "lat": 37.6820338652176,
    "lng": 127.209866551691,
    "region": "경기도",
    "district": "남양주시"
  },
  {
    "name": "남양주이마트",
    "address": "경기 남양주시 늘을2로 27 이마트 남양주점 1층",
    "phone": "031-593-3036",
    "lat": 37.6550474690268,
    "lng": 127.243052906438,
    "region": "경기도",
    "district": "남양주시"
  },
  {
    "name": "남양주장현",
    "address": "경기도 남양주시 진접읍 봉현로 32 &#40;장현리&#41;",
    "phone": "031-528-0031",
    "lat": 37.7163425666929,
    "lng": 127.17978958931,
    "region": "경기도",
    "district": "남양주시"
  },
  {
    "name": "남양주진건",
    "address": "경기 남양주시 진건읍 진건오남로 91 1층",
    "phone": "031-527-3121",
    "lat": 37.6588098395167,
    "lng": 127.178057340436,
    "region": "경기도",
    "district": "남양주시"
  },
  {
    "name": "남양주진접",
    "address": "경기 남양주시 진접읍 해밀예당3로 61 1층 104호",
    "phone": "031-575-3156",
    "lat": 37.7151247725058,
    "lng": 127.197818826099,
    "region": "경기도",
    "district": "남양주시"
  },
  {
    "name": "남양주진접역",
    "address": "경기도 남양주시 진접읍 해밀예당1로 221 &#40;금곡리&#41; 지안빌딩 1층",
    "phone": "031-575-7735",
    "lat": 37.7206501139138,
    "lng": 127.202725384062,
    "region": "경기도",
    "district": "남양주시"
  },
  {
    "name": "남양주진접해밀",
    "address": "경기도 남양주시 진접읍 해밀예당1로 30-9 &#40;금곡리&#41; 107,108호",
    "phone": "031-575-3103",
    "lat": 37.7116338569202,
    "lng": 127.18677596952,
    "region": "경기도",
    "district": "남양주시"
  },
  {
    "name": "남양주창현",
    "address": "경기도 남양주시 화도읍 창현리 555",
    "phone": "031-591-4240",
    "lat": 37.6463384011366,
    "lng": 127.305140592837,
    "region": "경기도",
    "district": "남양주시"
  },
  {
    "name": "남양주청학",
    "address": "경기도 남양주시 별내면 청학로중앙길 9 &#40;청학리, 청화빌딩&#41;",
    "phone": "031-848-0031",
    "lat": 37.708698841,
    "lng": 127.1184185274,
    "region": "경기도",
    "district": "남양주시"
  },
  {
    "name": "남양주퇴계원",
    "address": "경기도 남양주시 퇴계원면 퇴계원리 281-1",
    "phone": "031-572-0058",
    "lat": 37.6514429337,
    "lng": 127.1417936095,
    "region": "경기도",
    "district": "남양주시"
  },
  {
    "name": "남양주평내",
    "address": "경기도 남양주시 경춘로1256번길 6 &#40;평내동, 다모아프라자&#41;",
    "phone": "031-592-3330",
    "lat": 37.6459253490689,
    "lng": 127.234439248043,
    "region": "경기도",
    "district": "남양주시"
  },
  {
    "name": "남양주호평",
    "address": "경기도 남양주시 늘을2로 20",
    "phone": "031-593-3136",
    "lat": 37.6549155657154,
    "lng": 127.244100042562,
    "region": "경기도",
    "district": "남양주시"
  },
  {
    "name": "남양주호평중흥",
    "address": "경기도 남양주시 늘을3로 65-12 &#40;호평동, 금강프라자&#41; 1층",
    "phone": "031-592-3130",
    "lat": 37.6602475900972,
    "lng": 127.247889868565,
    "region": "경기도",
    "district": "남양주시"
  },
  {
    "name": "다산법조타운",
    "address": "경기도 남양주시 다산동 3198-21",
    "phone": "031-554-3131",
    "lat": 37.6114062473311,
    "lng": 127.164405403936,
    "region": "경기도",
    "district": "남양주시"
  },
  {
    "name": "다산역",
    "address": "경기 남양주시 다산중앙로145번길 11 지앤지 메트로타워 2, 107호, 108호",
    "phone": "031-554-2007",
    "lat": 37.6254967797977,
    "lng": 127.151133470441,
    "region": "경기도",
    "district": "남양주시"
  },
  {
    "name": "다산이마트",
    "address": "경기도 남양주시 도농로 24 &#40;도농동, 부영애시앙&#41; 이마트 다산점 지하1층",
    "phone": "031-556-7882",
    "lat": 37.6080175525495,
    "lng": 127.157863255469,
    "region": "경기도",
    "district": "남양주시"
  },
  {
    "name": "다산이편한세상",
    "address": "경기도 남양주시 다산동 6130",
    "phone": "031-567-5557",
    "lat": 37.6202807165014,
    "lng": 127.157728902393,
    "region": "경기도",
    "district": "남양주시"
  },
  {
    "name": "다산지금",
    "address": "경기도 남양주시 다산지금로 136 &#40;다산동&#41; 푸리마타워 112,113호",
    "phone": "031-555-1231",
    "lat": 37.6228112683561,
    "lng": 127.146369904316,
    "region": "경기도",
    "district": "남양주시"
  },
  {
    "name": "별내로데오",
    "address": "경기도 남양주시 별내중앙로 63 &#40;별내동&#41;",
    "phone": "031-527-1026",
    "lat": 37.6478631541612,
    "lng": 127.122917522707,
    "region": "경기도",
    "district": "남양주시"
  },
  {
    "name": "별내북부",
    "address": "경기도 남양주시 별내3로 328 &#40;별내동&#41; 1층 104호",
    "phone": "031-528-2338",
    "lat": 37.6666922412984,
    "lng": 127.117329411662,
    "region": "경기도",
    "district": "남양주시"
  },
  {
    "name": "별내신안",
    "address": "경기도 남양주시 별내5로5번길 11 &#40;별내동, 성산 메디컬 타워&#41;",
    "phone": "031-528-5961",
    "lat": 37.6502706409,
    "lng": 127.1126598397,
    "region": "경기도",
    "district": "남양주시"
  },
  {
    "name": "별내카페거리",
    "address": "경기 남양주시 두물로11번길 42 e드림타워 101,102호",
    "phone": "031-575-7775",
    "lat": 37.6582306577176,
    "lng": 127.125068260334,
    "region": "경기도",
    "district": "남양주시"
  },
  {
    "name": "진접홈플러스",
    "address": "경기도 남양주시 진접읍 금강로 1447",
    "phone": "031-571-7131",
    "lat": 37.7217248323206,
    "lng": 127.189092162987,
    "region": "경기도",
    "district": "남양주시"
  },
  {
    "name": "동두천생연",
    "address": "경기도 동두천시 생연동 397-1",
    "phone": "031-857-5577",
    "lat": 37.8996047743,
    "lng": 127.062147485133,
    "region": "경기도",
    "district": "동두천시"
  },
  {
    "name": "동두천지행",
    "address": "경기도 동두천시 지행로 50",
    "phone": "031-861-0031",
    "lat": 37.8921459441571,
    "lng": 127.052716578017,
    "region": "경기도",
    "district": "동두천시"
  },
  {
    "name": "부천고강",
    "address": "경기도 부천시 오정구 역곡로 481",
    "phone": "032-684-0045",
    "lat": 37.5275701431042,
    "lng": 126.815811127871,
    "region": "경기도",
    "district": "부천시"
  },
  {
    "name": "부천도당",
    "address": "경기도 부천시 원미구 삼작로 298",
    "phone": "032-675-1402",
    "lat": 37.5199944236095,
    "lng": 126.794970493334,
    "region": "경기도",
    "district": "부천시"
  },
  {
    "name": "부천범박",
    "address": "경기도 부천시 소사구 범안로 81",
    "phone": "032-346-3131",
    "lat": 37.4749584897989,
    "lng": 126.808885892063,
    "region": "경기도",
    "district": "부천시"
  },
  {
    "name": "부천소사",
    "address": "경기도 부천시 소사구 소사본동 139-22 대양프라자 1층",
    "phone": "032-345-0031",
    "lat": 37.4777513464344,
    "lng": 126.795798211252,
    "region": "경기도",
    "district": "부천시"
  },
  {
    "name": "부천소사홈플러스",
    "address": "경기도 부천시 소사구 경인로 532",
    "phone": "032-341-8045",
    "lat": 37.4848778887388,
    "lng": 126.814095614013,
    "region": "경기도",
    "district": "부천시"
  },
  {
    "name": "부천소풍뉴코아",
    "address": "경기도 부천시 원미구 송내대로 239",
    "phone": "032-624-8212",
    "lat": 37.5041454213916,
    "lng": 126.756787514016,
    "region": "경기도",
    "district": "부천시"
  },
  {
    "name": "부천시청",
    "address": "경기도 부천시 석천로 171 &#40;중동, 중동프라자&#41;",
    "phone": "032-327-3155",
    "lat": 37.502992718722,
    "lng": 126.762520362737,
    "region": "경기도",
    "district": "부천시"
  },
  {
    "name": "부천신흥시장",
    "address": "경기도 부천시 원미구 중동로 391 &#40;약대동 93-1&#41;",
    "phone": "032-676-4266",
    "lat": 37.5148035168595,
    "lng": 126.769896510564,
    "region": "경기도",
    "district": "부천시"
  },
  {
    "name": "부천여월홈플러스",
    "address": "경기도 부천시 소사로 663 &#40;여월동, 홈플러스 부천여월점&#41;",
    "phone": "032-679-1084",
    "lat": 37.5158442051041,
    "lng": 126.802410566976,
    "region": "경기도",
    "district": "부천시"
  },
  {
    "name": "부천역남부",
    "address": "경기도 부천시 경인로 202 &#40;심곡본동, 부천메디컬타워&#41; 1층 2호",
    "phone": "032-613-3331",
    "lat": 37.4833243378189,
    "lng": 126.777864052985,
    "region": "경기도",
    "district": "부천시"
  },
  {
    "name": "부천역북부",
    "address": "경기도 부천시 원미구 부일로 459",
    "phone": "032-611-7277",
    "lat": 37.4863081894316,
    "lng": 126.781189050761,
    "region": "경기도",
    "district": "부천시"
  },
  {
    "name": "부천옥길",
    "address": "경기 부천시 옥길로 123 센타프라자 1층",
    "phone": "032-344-5577",
    "lat": 37.4679949950293,
    "lng": 126.822489594783,
    "region": "경기도",
    "district": "부천시"
  },
  {
    "name": "부천옥길트레이더스",
    "address": "경기도 부천시 옥길동 768",
    "phone": "02-6386-1449",
    "lat": 37.4614756956083,
    "lng": 126.813913375415,
    "region": "경기도",
    "district": "부천시"
  },
  {
    "name": "부천원미",
    "address": "경기도 부천시 원미동 76-3",
    "phone": "032-655-0310",
    "lat": 37.4943584054804,
    "lng": 126.791501161943,
    "region": "경기도",
    "district": "부천시"
  },
  {
    "name": "부천원종",
    "address": "경기도 부천시 오정구 원종로 47",
    "phone": "032-678-3171",
    "lat": 37.5242824232222,
    "lng": 126.805162732022,
    "region": "경기도",
    "district": "부천시"
  },
  {
    "name": "부천중흥마을",
    "address": "경기도 부천시 길주로 249 &#40;중동, 대일빌딩&#41;",
    "phone": "032-323-3133",
    "lat": 37.5043339603754,
    "lng": 126.77022337467,
    "region": "경기도",
    "district": "부천시"
  },
  {
    "name": "상동남부",
    "address": "경기도 부천시 상동로 79 &#40;상동, 수석프라자&#41;",
    "phone": "032-325-1132",
    "lat": 37.5042695722,
    "lng": 126.7523605421,
    "region": "경기도",
    "district": "부천시"
  },
  {
    "name": "상동북부",
    "address": "경기도 부천시 원미구 송내대로265번길 85",
    "phone": "032-324-3367",
    "lat": 37.5074103264151,
    "lng": 126.754017269059,
    "region": "경기도",
    "district": "부천시"
  },
  {
    "name": "송내남부역사",
    "address": "경기도 부천시 소사구 송내동 272-1 송내역 역사상가 210호",
    "phone": "032-668-3331",
    "lat": 37.4874140177207,
    "lng": 126.752569968486,
    "region": "경기도",
    "district": "부천시"
  },
  {
    "name": "역곡남부",
    "address": "경기도 부천시 소사구 경인로 517",
    "phone": "032-344-0031",
    "lat": 37.4850378370968,
    "lng": 126.81268188134,
    "region": "경기도",
    "district": "부천시"
  },
  {
    "name": "역곡북부",
    "address": "경기도 부천시 원미구 역곡로 2",
    "phone": "032-348-3100",
    "lat": 37.4856314758689,
    "lng": 126.812035912722,
    "region": "경기도",
    "district": "부천시"
  },
  {
    "name": "중동역북부",
    "address": "경기도 부천시 원미구 중동 1289-1 팰리스카운티아이파크상가12호",
    "phone": "032-666-8831",
    "lat": 37.4903020765568,
    "lng": 126.768286877282,
    "region": "경기도",
    "district": "부천시"
  },
  {
    "name": "중동위브",
    "address": "경기도 부천시 중동 1111, 제상가6종 111호",
    "phone": "032-662-3200",
    "lat": 37.4987426679412,
    "lng": 126.778610566169,
    "region": "경기도",
    "district": "부천시"
  },
  {
    "name": "부천역지하",
    "address": "경기 부천시 소사구 부천로 1 부천역사 쇼핑몰 지하 172",
    "phone": "032-613-0310",
    "lat": 37.4840382748897,
    "lng": 126.782648899659,
    "region": "경기도",
    "district": "부천시 소사구"
  },
  {
    "name": "부천중동",
    "address": "경기 부천시 원미구 소향로 248",
    "phone": "032-325-0041",
    "lat": 37.500289159035,
    "lng": 126.775558455469,
    "region": "경기도",
    "district": "부천시 원미구"
  },
  {
    "name": "송내로데오",
    "address": "경기 부천시 원미구 부일로205번길 25 1층",
    "phone": "032-325-0031",
    "lat": 37.4897208506378,
    "lng": 126.752822542587,
    "region": "경기도",
    "district": "부천시 원미구"
  },
  {
    "name": "가천대역",
    "address": "경기도 성남시 수정구 태평로 2 &#40;태평동&#41;",
    "phone": "031-722-3031",
    "lat": 37.4478043223572,
    "lng": 127.127263812026,
    "region": "경기도",
    "district": "성남시"
  },
  {
    "name": "남위례역",
    "address": "경기도 성남시 수정구 위례광장로 25 &#40;창곡동, 성산타워&#41; 104호",
    "phone": "031-758-3165",
    "lat": 37.4665739488195,
    "lng": 127.1400763957,
    "region": "경기도",
    "district": "성남시"
  },
  {
    "name": "남한산성역",
    "address": "경기도 성남시 중원구 금광동 4840 1층",
    "phone": "031-736-3131",
    "lat": 37.4536671763,
    "lng": 127.161184297868,
    "region": "경기도",
    "district": "성남시"
  },
  {
    "name": "분당구미",
    "address": "경기도 성남시 분당구 구미로 60",
    "phone": "031-718-1031",
    "lat": 37.3377770669723,
    "lng": 127.115633221345,
    "region": "경기도",
    "district": "성남시"
  },
  {
    "name": "분당미금",
    "address": "경기도 성남시 분당구 돌마로 85 동양플라자 1층 109호",
    "phone": "031-711-3182",
    "lat": 37.3503595346134,
    "lng": 127.111363657191,
    "region": "경기도",
    "district": "성남시"
  },
  {
    "name": "분당수내역",
    "address": "경기도 성남시 분당구 수내동 19-6",
    "phone": "031-711-3194",
    "lat": 37.3767478591154,
    "lng": 127.112357830487,
    "region": "경기도",
    "district": "성남시"
  },
  {
    "name": "분당아름마을",
    "address": "경기도 성남시 분당구 판교로 445",
    "phone": "031-705-8487",
    "lat": 37.4052482477597,
    "lng": 127.122197396923,
    "region": "경기도",
    "district": "성남시"
  },
  {
    "name": "분당아울렛",
    "address": "경기도 성남시 분당구 미금일로154번길 20 &#40;구미동&#41;",
    "phone": "031-786-2888",
    "lat": 37.3490834079801,
    "lng": 127.107466650924,
    "region": "경기도",
    "district": "성남시"
  },
  {
    "name": "분당야탑",
    "address": "경기도 성남시 분당구 야탑로81번길 10",
    "phone": "031-622-0023",
    "lat": 37.4105972729335,
    "lng": 127.128208288628,
    "region": "경기도",
    "district": "성남시"
  },
  {
    "name": "분당장안타운0312",
    "address": "경기도 성남시 분당구 불정로 380",
    "phone": "031-701-1012",
    "lat": 37.374912198212,
    "lng": 127.137367287017,
    "region": "경기도",
    "district": "성남시"
  },
  {
    "name": "분당정자",
    "address": "경기도 성남시 분당구 내정로 58",
    "phone": "031-717-3819",
    "lat": 37.3653580860086,
    "lng": 127.115077230372,
    "region": "경기도",
    "district": "성남시"
  },
  {
    "name": "분당정자파라곤",
    "address": "경기도 성남시 분당구 정자일로 230 &#40;정자동, 동양정자파라곤&#41; 106, 107호",
    "phone": "031-718-1933",
    "lat": 37.3703245532635,
    "lng": 127.106502566676,
    "region": "경기도",
    "district": "성남시"
  },
  {
    "name": "분당파크타운",
    "address": "경기도 성남시 분당구 내정로 166번길 43 금산상가 112호",
    "phone": "031-711-3394",
    "lat": 37.3710431310007,
    "lng": 127.12439980815,
    "region": "경기도",
    "district": "성남시"
  },
  {
    "name": "성남고등",
    "address": "경기도 성남시 수정구 청계산로 686 &#40;고등동&#41; 140호",
    "phone": "031-759-0797",
    "lat": 37.4272753301869,
    "lng": 127.093936648225,
    "region": "경기도",
    "district": "성남시"
  },
  {
    "name": "성남도촌",
    "address": "경기도 성남시 중원구 도촌동 508",
    "phone": "031-756-9876",
    "lat": 37.4130157261832,
    "lng": 127.159441177795,
    "region": "경기도",
    "district": "성남시"
  },
  {
    "name": "성남모란역",
    "address": "경기도 성남시 중원구 성남동 3498",
    "phone": "031-608-1246",
    "lat": 37.4316476910946,
    "lng": 127.129909831086,
    "region": "경기도",
    "district": "성남시"
  },
  {
    "name": "성남산성",
    "address": "경기도 성남시 수정구 산성동 1456",
    "phone": "031-732-0031",
    "lat": 37.4544459230218,
    "lng": 127.150028547043,
    "region": "경기도",
    "district": "성남시"
  },
  {
    "name": "성남신흥역",
    "address": "경기도 성남시 수정구 신흥동 4210-2",
    "phone": "031-702-8107",
    "lat": 37.4400832657248,
    "lng": 127.144650481906,
    "region": "경기도",
    "district": "성남시"
  },
  {
    "name": "성남태평역",
    "address": "경기도 성남시 수정구 수정로 71",
    "phone": "031-723-7474",
    "lat": 37.4401109464647,
    "lng": 127.128491628212,
    "region": "경기도",
    "district": "성남시"
  },
  {
    "name": "성남태평이마트",
    "address": "경기도 성남시 수정구 태평동 7336 이마트 2층",
    "phone": "031-756-1011",
    "lat": 37.4442715124,
    "lng": 127.1413972029,
    "region": "경기도",
    "district": "성남시"
  },
  {
    "name": "신구대사거리",
    "address": "경기도 성남시 중원구 광명로 369 &#40;금광동&#41;",
    "phone": "031-733-2131",
    "lat": 37.4468076977498,
    "lng": 127.166753826156,
    "region": "경기도",
    "district": "성남시"
  },
  {
    "name": "야탑홈플러스",
    "address": "경기도 성남시 분당구 야탑동 341 테마폴리스 3층",
    "phone": "031-705-3130",
    "lat": 37.4130898626282,
    "lng": 127.127281078932,
    "region": "경기도",
    "district": "성남시"
  },
  {
    "name": "위례창곡",
    "address": "경기도 성남시 수정구 위례동로 141 &#40;창곡동, 우성메디피아&#41;",
    "phone": "031-759-0070",
    "lat": 37.472642687,
    "lng": 127.1500694326,
    "region": "경기도",
    "district": "성남시"
  },
  {
    "name": "판교대장",
    "address": "경기도 성남시 분당구 판교대장로 92 &#40;대장동&#41; 푸리마타워 101호, 102호",
    "phone": "031-714-3120",
    "lat": 37.3670274579345,
    "lng": 127.068454075925,
    "region": "경기도",
    "district": "성남시"
  },
  {
    "name": "판교백현",
    "address": "경기도 성남시 분당구 동판교로 61 &#40;백현동, 자유퍼스트프라자2&#41; 104호, 105호",
    "phone": "031-702-1213",
    "lat": 37.3884747500877,
    "lng": 127.115374419485,
    "region": "경기도",
    "district": "성남시"
  },
  {
    "name": "분당시범",
    "address": "경기 성남시 분당구 돌마로 481",
    "phone": "031-706-0310",
    "lat": 37.3777537592365,
    "lng": 127.132871482333,
    "region": "경기도",
    "district": "성남시 분당구"
  },
  {
    "name": "분당중탑",
    "address": "경기 성남시 분당구 벌말로 45 1층 102호",
    "phone": "031-698-3391",
    "lat": 37.411969760348,
    "lng": 127.13815751418,
    "region": "경기도",
    "district": "성남시 분당구"
  },
  {
    "name": "서현로데오",
    "address": "경기 성남시 분당구 서현로210번길 2 1층 10호",
    "phone": "031-703-8889",
    "lat": 37.386838920821,
    "lng": 127.125482826153,
    "region": "경기도",
    "district": "성남시 분당구"
  },
  {
    "name": "서현역",
    "address": "경기 성남시 분당구 분당로53번길 21 1층 119,120호",
    "phone": "031-707-3031",
    "lat": 37.3846842975832,
    "lng": 127.122394366718,
    "region": "경기도",
    "district": "성남시 분당구"
  },
  {
    "name": "판교운중",
    "address": "경기 성남시 분당구 운중로 120 101호",
    "phone": "031-707-8831",
    "lat": 37.3913986700149,
    "lng": 127.076346399754,
    "region": "경기도",
    "district": "성남시 분당구"
  },
  {
    "name": "판교원마을",
    "address": "경기 성남시 분당구 운중로 242 리버스토리 109",
    "phone": "031-8016-2246",
    "lat": 37.3892122390199,
    "lng": 127.089706356889,
    "region": "경기도",
    "district": "성남시 분당구"
  },
  {
    "name": "판교카카오",
    "address": "경기 성남시 분당구 판교역로 166 카카오 판교아지크 1층 4호",
    "phone": "031-601-7226",
    "lat": 37.3952969470752,
    "lng": 127.110449292622,
    "region": "경기도",
    "district": "성남시 분당구"
  },
  {
    "name": "단대오거리",
    "address": "경기 성남시 중원구 산성대로372번길 3",
    "phone": "031-733-5511",
    "lat": 37.4452292645937,
    "lng": 127.157520475207,
    "region": "경기도",
    "district": "성남시 중원구"
  },
  {
    "name": "성남하대원",
    "address": "경기 성남시 중원구 둔촌대로 283-1 삼일빌딩 1층",
    "phone": "031-721-9924",
    "lat": 37.4297993890578,
    "lng": 127.149611810356,
    "region": "경기도",
    "district": "성남시 중원구"
  },
  {
    "name": "광교경기도청",
    "address": "경기도 수원시 영통구 도청로18번길 26 &#40;이의동, 힐스테이트광교중앙역&#41;",
    "phone": "031-216-5100",
    "lat": 37.2876402080675,
    "lng": 127.056868624932,
    "region": "경기도",
    "district": "수원시"
  },
  {
    "name": "광교아브뉴프랑",
    "address": "경기도 수원시 영통구 센트럴타운로 85 &#40;이의동, 밋플레이스 광교&#41; 203동 1층 B127-2호",
    "phone": "031-211-8464",
    "lat": 37.2903067623627,
    "lng": 127.050461177531,
    "region": "경기도",
    "district": "수원시"
  },
  {
    "name": "광교앨리웨이",
    "address": "경기도 수원시 영통구 광교호수공원로 80 &#40;원천동, 광교아이파크&#41;",
    "phone": "031-214-5200",
    "lat": 37.2730876685805,
    "lng": 127.061262679777,
    "region": "경기도",
    "district": "수원시"
  },
  {
    "name": "광교호수마을",
    "address": "경기도 수원시 영통구 법조로149번길 110 &#40;하동&#41;",
    "phone": "031-213-3130",
    "lat": 37.293429315792,
    "lng": 127.068704695865,
    "region": "경기도",
    "district": "수원시"
  },
  {
    "name": "동수원사거리",
    "address": "경기도 수원시 팔달구 중부대로143번길 19 &#40;우만동&#41;",
    "phone": "031-212-1631",
    "lat": 37.2791413650091,
    "lng": 127.032095987925,
    "region": "경기도",
    "district": "수원시"
  },
  {
    "name": "동수원홈플러스",
    "address": "경기도 수원시 팔달구 효원로 257",
    "phone": "031-236-7731",
    "lat": 37.2627463599621,
    "lng": 127.030122499114,
    "region": "경기도",
    "district": "수원시"
  },
  {
    "name": "망포아이파크",
    "address": "경기도 수원시 영통구 망포동 760, 영통아이파크캐슬2단지B동 1층 106",
    "phone": "031-202-3991",
    "lat": 37.2418297050205,
    "lng": 127.041456576727,
    "region": "경기도",
    "district": "수원시"
  },
  {
    "name": "북수원홈플러스",
    "address": "경기도 수원시 장안구 조원동 898-1",
    "phone": "031-253-9851",
    "lat": 37.3021378663524,
    "lng": 127.009230952594,
    "region": "경기도",
    "district": "수원시"
  },
  {
    "name": "서수원홈플러스",
    "address": "경기도 수원시 권선구 금곡로 236 &#40;금곡동, 홈플러스&#41; 홈플러스 서수원점 1층",
    "phone": "031-295-3005",
    "lat": 37.274406866,
    "lng": 126.9559142466,
    "region": "경기도",
    "district": "수원시"
  },
  {
    "name": "수원경희대",
    "address": "경기도 수원시 영통구 영통동 1024-1",
    "phone": "031-202-9991",
    "lat": 37.2479793050839,
    "lng": 127.076030935189,
    "region": "경기도",
    "district": "수원시"
  },
  {
    "name": "수원권선",
    "address": "경기도 수원시 권선구 동수원로 242번길 6",
    "phone": "031-239-7811",
    "lat": 37.2501576097662,
    "lng": 127.034434476994,
    "region": "경기도",
    "district": "수원시"
  },
  {
    "name": "수원권선자이",
    "address": "경기도 수원시 권선구 권광로 55 &#40;권선동, 권선자이 이편한세상&#41; 상가A동 108호",
    "phone": "031-252-3131",
    "lat": 37.2550192258352,
    "lng": 127.025799336801,
    "region": "경기도",
    "district": "수원시"
  },
  {
    "name": "수원금곡",
    "address": "경기도 수원시 권선구 금곡동 1138",
    "phone": "031-295-5309",
    "lat": 37.271050753442,
    "lng": 126.95916329629,
    "region": "경기도",
    "district": "수원시"
  },
  {
    "name": "수원남문",
    "address": "경기도 수원시 팔달구 행궁로 70",
    "phone": "031-258-7000",
    "lat": 37.2763998216905,
    "lng": 127.016473397729,
    "region": "경기도",
    "district": "수원시"
  },
  {
    "name": "수원능실마을",
    "address": "경기도 수원시 권선구 호매실동 1400-2",
    "phone": "031-293-8258",
    "lat": 37.2588319681247,
    "lng": 126.962632899607,
    "region": "경기도",
    "district": "수원시"
  },
  {
    "name": "수원망포",
    "address": "경기도 수원시 영통구 태장로 84, 107호",
    "phone": "031-202-3106",
    "lat": 37.2389676288071,
    "lng": 127.055526540582,
    "region": "경기도",
    "district": "수원시"
  },
  {
    "name": "수원매탄",
    "address": "경기도 수원시 영통구 효원로 383",
    "phone": "031-213-2077",
    "lat": 37.2592822791501,
    "lng": 127.043276563124,
    "region": "경기도",
    "district": "수원시"
  },
  {
    "name": "수원성대",
    "address": "경기도 수원시 장안구 서부로 2119 &#40;율전동, 농협&#41;",
    "phone": "031-278-5050",
    "lat": 37.2978622630281,
    "lng": 126.970776508304,
    "region": "경기도",
    "district": "수원시"
  },
  {
    "name": "수원송죽",
    "address": "경기도 수원시 장안구 송죽동 495-17",
    "phone": "031-247-7819",
    "lat": 37.3033995333203,
    "lng": 127.005833734655,
    "region": "경기도",
    "district": "수원시"
  },
  {
    "name": "수원영통",
    "address": "경기도 수원시 영통구 덕영대로 1555번길 16",
    "phone": "031-202-7328",
    "lat": 37.2467229711167,
    "lng": 127.060931040058,
    "region": "경기도",
    "district": "수원시"
  },
  {
    "name": "수원영통역",
    "address": "경기도 수원시 영통구 봉영로 1606 미네시티",
    "phone": "031-273-3631",
    "lat": 37.2535627927864,
    "lng": 127.075060388833,
    "region": "경기도",
    "district": "수원시"
  },
  {
    "name": "수원오목천RE~3/1",
    "address": "경기도 수원시 권선구 오목천동 372-2",
    "phone": "031-214-3132",
    "lat": 37.2445668992028,
    "lng": 126.963464957632,
    "region": "경기도",
    "district": "수원시"
  },
  {
    "name": "수원원천",
    "address": "경기도 수원시 영통구 중부대로448번길 106 &#40;원천동&#41;, 선우빌딩 101호",
    "phone": "031-214-2022",
    "lat": 37.2667171095499,
    "lng": 127.058810613819,
    "region": "경기도",
    "district": "수원시"
  },
  {
    "name": "수원율전",
    "address": "경기도 수원시 장안구 율전동 99-10",
    "phone": "031-271-3132",
    "lat": 37.3031040197511,
    "lng": 126.972560123794,
    "region": "경기도",
    "district": "수원시"
  },
  {
    "name": "수원이마트",
    "address": "경기도 수원시 권선구 경수대로 270",
    "phone": "031-207-1264",
    "lat": 37.2498001798858,
    "lng": 127.021866635178,
    "region": "경기도",
    "district": "수원시"
  },
  {
    "name": "수원인계",
    "address": "경기도 수원시 팔달구 권광로276번길 4",
    "phone": "031-211-5331",
    "lat": 37.2720435601648,
    "lng": 127.035695942102,
    "region": "경기도",
    "district": "수원시"
  },
  {
    "name": "수원인계로데오",
    "address": "경기도 수원시 팔달구 인계로166번길 48-21 &#40;인계동, 인계샤르망오피스텔&#41; 1층 116호",
    "phone": "031-222-6066",
    "lat": 37.2646070270567,
    "lng": 127.033424170002,
    "region": "경기도",
    "district": "수원시"
  },
  {
    "name": "수원정자",
    "address": "경기도 수원시 장안구 정자천로173번길 17 &#40;정자동, 투대일타운&#41;",
    "phone": "031-271-1231",
    "lat": 37.2962056541544,
    "lng": 126.994123963084,
    "region": "경기도",
    "district": "수원시"
  },
  {
    "name": "수원정자시장",
    "address": "경기도 수원시 장안구 수성로258번길 3 &#40;영화동, 메가플러스&#41;",
    "phone": "031-244-3331",
    "lat": 37.2895741575267,
    "lng": 127.001037520054,
    "region": "경기도",
    "district": "수원시"
  },
  {
    "name": "수원천천",
    "address": "경기도 수원시 장안구 만석로19번길 25-3",
    "phone": "031-252-7731",
    "lat": 37.2963199544773,
    "lng": 126.983298947021,
    "region": "경기도",
    "district": "수원시"
  },
  {
    "name": "수원탑동",
    "address": "경기도 수원시 권선구 금호로 232 &#40;탑동&#41;",
    "phone": "031-296-3199",
    "lat": 37.2752639254329,
    "lng": 126.975464815769,
    "region": "경기도",
    "district": "수원시"
  },
  {
    "name": "수원파장",
    "address": "경기도 수원시 장안구 정자동 434",
    "phone": "031-253-3133",
    "lat": 37.3058015733532,
    "lng": 126.992070290204,
    "region": "경기도",
    "district": "수원시"
  },
  {
    "name": "수원하나로",
    "address": "경기도 수원시 권선구 서부로 1937",
    "phone": "031-295-7737",
    "lat": 37.2822442491918,
    "lng": 126.967479156721,
    "region": "경기도",
    "district": "수원시"
  },
  {
    "name": "수원호매실",
    "address": "경기도 수원시 권선구 금곡로 100 &#40;금곡동&#41;",
    "phone": "031-297-5868",
    "lat": 37.2738747593376,
    "lng": 126.941289578813,
    "region": "경기도",
    "district": "수원시"
  },
  {
    "name": "수원화서",
    "address": "경기도 수원시 팔달구 일월로22번길 14 &#40;화서동, 한샘빌딩&#41;",
    "phone": "031-294-2268",
    "lat": 37.2855269646987,
    "lng": 126.980942228519,
    "region": "경기도",
    "district": "수원시"
  },
  {
    "name": "수원황골마을",
    "address": "경기도 수원시 영통구 중부대로 604 &#40;영통동, 수원영통리슈빌스카이오피스텔 128호&#41;",
    "phone": "031-306-0031",
    "lat": 37.2672940997,
    "lng": 127.0813942572,
    "region": "경기도",
    "district": "수원시"
  },
  {
    "name": "아주대",
    "address": "경기도 수원시 팔달구 아주로 3",
    "phone": "031-212-8168",
    "lat": 37.2750953654266,
    "lng": 127.043804274087,
    "region": "경기도",
    "district": "수원시"
  },
  {
    "name": "수원화서사거리",
    "address": "경기도 수원시  팔달구 동말로 65 &#40;화서동&#41; 1층",
    "phone": "031-246-8889",
    "lat": 37.278941893,
    "lng": 127.0013711379,
    "region": "경기도",
    "district": "수원시 "
  },
  {
    "name": "수원곡반정",
    "address": "경기 수원시 권선구 곡선로 36",
    "phone": "031-224-2525",
    "lat": 37.2390330864291,
    "lng": 127.028481185118,
    "region": "경기도",
    "district": "수원시 권선구"
  },
  {
    "name": "수원매교힐스테이트",
    "address": "경기 수원시 권선구 효원로 88 1층",
    "phone": "070-4234-3131",
    "lat": 37.266425984685,
    "lng": 127.01140110904,
    "region": "경기도",
    "district": "수원시 권선구"
  },
  {
    "name": "수원세류",
    "address": "경기 수원시 권선구 세지로94번길 6 1층",
    "phone": "031-222-2298",
    "lat": 37.2599462165474,
    "lng": 127.018610100435,
    "region": "경기도",
    "district": "수원시 권선구"
  },
  {
    "name": "광교이마트",
    "address": "경기 수원시 영통구 광교로 191 1층",
    "phone": "031-216-7771",
    "lat": 37.2963500230486,
    "lng": 127.046954360227,
    "region": "경기도",
    "district": "수원시 영통구"
  },
  {
    "name": "수원신매탄",
    "address": "경기 수원시 영통구 동수원로 398-1 1층",
    "phone": "031-214-3100",
    "lat": 37.264538808776,
    "lng": 127.040391259924,
    "region": "경기도",
    "district": "수원시 영통구"
  },
  {
    "name": "영통홈플러스",
    "address": "경기 수원시 영통구 봉영로 1576",
    "phone": "031-201-8289",
    "lat": 37.2518163005629,
    "lng": 127.072602539897,
    "region": "경기도",
    "district": "수원시 영통구"
  },
  {
    "name": "수원연무",
    "address": "경기 수원시 장안구 창룡대로 175 YM메디컬스퀘어 1층",
    "phone": "031-255-3498",
    "lat": 37.292274187311,
    "lng": 127.029312341933,
    "region": "경기도",
    "district": "수원시 장안구"
  },
  {
    "name": "수원화서트레이더스",
    "address": "경기 수원시 장안구 수성로 175 B2층",
    "phone": "031-271-3130",
    "lat": 37.2874453391147,
    "lng": 126.991574559571,
    "region": "경기도",
    "district": "수원시 장안구"
  },
  {
    "name": "시화MTV",
    "address": "경기 시흥시 거북섬중앙로 1 164,165호",
    "phone": "031-433-8231",
    "lat": 37.3255261143148,
    "lng": 126.683059397771,
    "region": "경기도",
    "district": "시흥시"
  },
  {
    "name": "시화성담스퀘어",
    "address": "경기도 시흥시 정왕대로 210 &#40;정왕동, E MART시화점&#41; 1층",
    "phone": "031-499-6599",
    "lat": 37.3459420647674,
    "lng": 126.736871434482,
    "region": "경기도",
    "district": "시흥시"
  },
  {
    "name": "시화세종",
    "address": "경기도 시흥시 함송로 16 &#40;정왕동&#41;",
    "phone": "031-319-3132",
    "lat": 37.3637543839321,
    "lng": 126.729574369764,
    "region": "경기도",
    "district": "시흥시"
  },
  {
    "name": "시화정왕",
    "address": "경기 시흥시 옥구상가2길 4",
    "phone": "031-319-7222",
    "lat": 37.3539136679396,
    "lng": 126.7239995971,
    "region": "경기도",
    "district": "시흥시"
  },
  {
    "name": "시화홈플러스",
    "address": "경기도 시흥시 정왕동 2166-4 시화홈플러스 1층",
    "phone": "031-431-3143",
    "lat": 37.3452810601,
    "lng": 126.7250982579,
    "region": "경기도",
    "district": "시흥시"
  },
  {
    "name": "시흥거모",
    "address": "경기도 시흥시 군자로 526 도일그랜드프라자",
    "phone": "031-494-8001",
    "lat": 37.3436235274214,
    "lng": 126.785121973095,
    "region": "경기도",
    "district": "시흥시"
  },
  {
    "name": "시흥능곡",
    "address": "경기도 시흥시 능곡로 188 &#40;능곡동, 효창프라자&#41;, 110호",
    "phone": "031-435-3191",
    "lat": 37.3683818389758,
    "lng": 126.810358854304,
    "region": "경기도",
    "district": "시흥시"
  },
  {
    "name": "시흥대야",
    "address": "경기도 시흥시 대야동 543-1",
    "phone": "031-313-3105",
    "lat": 37.443015045209,
    "lng": 126.792745836313,
    "region": "경기도",
    "district": "시흥시"
  },
  {
    "name": "시흥목감",
    "address": "경기도 시흥시 목감우회로 51, 103호 &#40;목감동, 동한메디컬프라자&#41;",
    "phone": "031-414-3370",
    "lat": 37.3822457106,
    "lng": 126.8619260545,
    "region": "경기도",
    "district": "시흥시"
  },
  {
    "name": "시흥배곧",
    "address": "경기도 시흥시 배곧3로 96 &#40;정왕동, M플러스&#41; 115호",
    "phone": "031-431-0034",
    "lat": 37.3698081614,
    "lng": 126.7303147865,
    "region": "경기도",
    "district": "시흥시"
  },
  {
    "name": "시흥배곧롯데마트",
    "address": "경기 시흥시 서울대학로278번길 67",
    "phone": "031-434-4668",
    "lat": 37.3688951442115,
    "lng": 126.731339729058,
    "region": "경기도",
    "district": "시흥시"
  },
  {
    "name": "시흥배곧한라",
    "address": "경기 시흥시 서울대학로 172-20 105호,106호&#40;배곧동,한라비발디캠퍼스 3차&#41;",
    "phone": "031-507-9508",
    "lat": 37.3622658073564,
    "lng": 126.718379533859,
    "region": "경기도",
    "district": "시흥시"
  },
  {
    "name": "시흥산현",
    "address": "경기도 시흥시 조남동 664-1 물왕프라자 1층",
    "phone": "031-414-3111",
    "lat": 37.3748170893037,
    "lng": 126.847937312341,
    "region": "경기도",
    "district": "시흥시"
  },
  {
    "name": "시흥삼미",
    "address": "경기도 시흥시 신천동 712-7",
    "phone": "031-313-3121",
    "lat": 37.4412716842106,
    "lng": 126.783896679158,
    "region": "경기도",
    "district": "시흥시"
  },
  {
    "name": "시흥시청",
    "address": "경기도 시흥시 장현동 538-3 1층",
    "phone": "031-312-9945",
    "lat": 37.3809052045232,
    "lng": 126.799667907496,
    "region": "경기도",
    "district": "시흥시"
  },
  {
    "name": "시흥월곶",
    "address": "경기도 시흥시 월곶동 1014-1",
    "phone": "031-435-8712",
    "lat": 37.3887735198869,
    "lng": 126.738059263728,
    "region": "경기도",
    "district": "시흥시"
  },
  {
    "name": "시흥은계",
    "address": "경기도 시흥시 은행동 646-4",
    "phone": "031-388-3388",
    "lat": 37.4375150988434,
    "lng": 126.80163294672,
    "region": "경기도",
    "district": "시흥시"
  },
  {
    "name": "시흥은계대야역",
    "address": "경기도 시흥시 은계로 341 &#40;대야동&#41; 대야역전프라자 101호,102호",
    "phone": "031-503-2060",
    "lat": 37.449752652565,
    "lng": 126.795443195758,
    "region": "경기도",
    "district": "시흥시"
  },
  {
    "name": "시흥은행",
    "address": "경기도 시흥시 대은로 83, 루비프라자 105호",
    "phone": "031-311-3105",
    "lat": 37.4449179685837,
    "lng": 126.797571275104,
    "region": "경기도",
    "district": "시흥시"
  },
  {
    "name": "시흥장곡",
    "address": "경기도 시흥시 장곡동 817-1",
    "phone": "031-313-8231",
    "lat": 37.3780996353888,
    "lng": 126.783974191312,
    "region": "경기도",
    "district": "시흥시"
  },
  {
    "name": "시흥장현",
    "address": "경기도 시흥시 장현동 432",
    "phone": "031-317-3131",
    "lat": 37.373053160041,
    "lng": 126.795621393349,
    "region": "경기도",
    "district": "시흥시"
  },
  {
    "name": "시흥정왕역",
    "address": "경기도 시흥시 마유로 416 &#40;정왕동, 월드프라자&#41;",
    "phone": "031-431-5520",
    "lat": 37.3515617120931,
    "lng": 126.74129875283,
    "region": "경기도",
    "district": "시흥시"
  },
  {
    "name": "고잔롯데캐슬",
    "address": "경기도 안산시 단원구 고잔동 585-4, 상가동 101호, 102호",
    "phone": "031-411-3179",
    "lat": 37.3216149653425,
    "lng": 126.827197722672,
    "region": "경기도",
    "district": "안산시"
  },
  {
    "name": "안산고잔",
    "address": "경기도 안산시 단원구 광덕3로 178, 화승타운 120호",
    "phone": "031-405-3170",
    "lat": 37.3120803347577,
    "lng": 126.832277831572,
    "region": "경기도",
    "district": "안산시"
  },
  {
    "name": "안산단원광장",
    "address": "경기도 안산시 단원구 광덕2로 163, 110&#40;고잔동, 삼영프라자&#41;",
    "phone": "031-410-3132",
    "lat": 37.310092486858,
    "lng": 126.828390494719,
    "region": "경기도",
    "district": "안산시"
  },
  {
    "name": "안산롯데마트",
    "address": "경기도 안산시 상록구 항가울로 422 &#40;성포동, 롯데마트 안산점&#41; 1층",
    "phone": "031-439-5080",
    "lat": 37.3180953154,
    "lng": 126.8466553269,
    "region": "경기도",
    "district": "안산시"
  },
  {
    "name": "안산반월",
    "address": "경기도 안산시 상록구 건건동 635-13",
    "phone": "031-409-0310",
    "lat": 37.3044906843062,
    "lng": 126.901856047976,
    "region": "경기도",
    "district": "안산시"
  },
  {
    "name": "안산본오",
    "address": "경기도 안산시 상록구 본오동 882-7",
    "phone": "031-502-0031",
    "lat": 37.2934035762969,
    "lng": 126.861450254827,
    "region": "경기도",
    "district": "안산시"
  },
  {
    "name": "안산부곡",
    "address": "경기도 안산시 상록구 부곡로 114 &#40;부곡동&#41;, 1층",
    "phone": "031-437-0076",
    "lat": 37.3319455486264,
    "lng": 126.863050624021,
    "region": "경기도",
    "district": "안산시"
  },
  {
    "name": "안산사동",
    "address": "경기도 안산시 상록구 항가울로 33 &#40;사동&#41;",
    "phone": "031-501-3101",
    "lat": 37.2849072418445,
    "lng": 126.847174325244,
    "region": "경기도",
    "district": "안산시"
  },
  {
    "name": "안산상록수",
    "address": "경기도 안산시 상록구 용신로 394 서해프라자",
    "phone": "031-415-3132",
    "lat": 37.301319880352,
    "lng": 126.865969947473,
    "region": "경기도",
    "district": "안산시"
  },
  {
    "name": "안산선부",
    "address": "경기도 안산시 단원구 달미로 10, 산호상가 115호",
    "phone": "031-402-4670",
    "lat": 37.336596107266,
    "lng": 126.813355813325,
    "region": "경기도",
    "district": "안산시"
  },
  {
    "name": "안산선부수정한양",
    "address": "경기도 안산시 단원구 선부로 199 &#40;선부동, 동진프라자&#41;",
    "phone": "031-401-7060",
    "lat": 37.3418325288727,
    "lng": 126.817105223024,
    "region": "경기도",
    "district": "안산시"
  },
  {
    "name": "안산원곡",
    "address": "경기도 안산시 단원구 라성로 36, 반월종합상가 B동 1호",
    "phone": "031-486-8712",
    "lat": 37.3270600665729,
    "lng": 126.800392699368,
    "region": "경기도",
    "district": "안산시"
  },
  {
    "name": "안산월드",
    "address": "경기도 안산시 단원구 고잔1길 49, 운암프라자111호",
    "phone": "031-483-4241",
    "lat": 37.3183699554097,
    "lng": 126.839059941088,
    "region": "경기도",
    "district": "안산시"
  },
  {
    "name": "안산월피",
    "address": "경기도 안산시 상록구 월피동 445-18 로얄프라자",
    "phone": "031-401-5588",
    "lat": 37.3293657995994,
    "lng": 126.846943844004,
    "region": "경기도",
    "district": "안산시"
  },
  {
    "name": "안산중앙역",
    "address": "경기도 안산시 단원구 예술대학로 17 &#40;고잔동, 안산중앙노블레스&#41;",
    "phone": "031-413-8831",
    "lat": 37.3186908436,
    "lng": 126.8365186116,
    "region": "경기도",
    "district": "안산시"
  },
  {
    "name": "안산초지",
    "address": "경기도 안산시 단원구 초지로 114 &#40;초지동, 주공프라자&#41; 113, 114호",
    "phone": "031-475-1012",
    "lat": 37.3087213921796,
    "lng": 126.81540441874,
    "region": "경기도",
    "district": "안산시"
  },
  {
    "name": "안산트레이더스",
    "address": "경기도 안산시 단원구 중앙대로 397, 2층 &#40;신길동, 이마트트레이더스 신길점&#41;",
    "phone": "031-491-3311",
    "lat": 37.3311794671705,
    "lng": 126.785003511853,
    "region": "경기도",
    "district": "안산시"
  },
  {
    "name": "안산한대",
    "address": "경기도 안산시 상록구 광덕1로 370 코러스프라자",
    "phone": "031-501-4343",
    "lat": 37.3076632054553,
    "lng": 126.850933617652,
    "region": "경기도",
    "district": "안산시"
  },
  {
    "name": "안산고잔이마트",
    "address": "경기 안산시 단원구 원포공원1로 46 1층",
    "phone": "031-414-3130",
    "lat": 37.3031149487989,
    "lng": 126.812920187596,
    "region": "경기도",
    "district": "안산시 단원구"
  },
  {
    "name": "안산그랑시티",
    "address": "경기 안산시 상록구 해양4로 31 110호&#40;사동, 그랑시티자이 PORT AVENUE&#41;",
    "phone": "031-407-9790",
    "lat": 37.2809028032773,
    "lng": 126.828775903546,
    "region": "경기도",
    "district": "안산시 상록구"
  },
  {
    "name": "안산일동",
    "address": "경기 안산시 상록구 안산대학로 94",
    "phone": "031-407-2924",
    "lat": 37.3088657168881,
    "lng": 126.868645769438,
    "region": "경기도",
    "district": "안산시 상록구"
  },
  {
    "name": "안성공도",
    "address": "경기도 안성시 공도읍 공도2로 14",
    "phone": "031-653-0506",
    "lat": 36.9996538115695,
    "lng": 127.169707242591,
    "region": "경기도",
    "district": "안성시"
  },
  {
    "name": "안성스타필드",
    "address": "경기도 안성시 공도읍 서동대로 3930-39 2층 2146호 &#40;진사리, 스타필드 안성&#41;",
    "phone": "031-8092-1672",
    "lat": 36.9946334108693,
    "lng": 127.147249620616,
    "region": "경기도",
    "district": "안성시"
  },
  {
    "name": "안성아양",
    "address": "경기 안성시 아양1로 61",
    "phone": "031-676-3132",
    "lat": 37.0076057700123,
    "lng": 127.259380342436,
    "region": "경기도",
    "district": "안성시"
  },
  {
    "name": "안성중앙",
    "address": "경기 안성시 중앙로 401",
    "phone": "031-677-8599",
    "lat": 37.0072884995717,
    "lng": 127.271468684716,
    "region": "경기도",
    "district": "안성시"
  },
  {
    "name": "안양관악역",
    "address": "경기도 안양시 만안구 석수동 103-5",
    "phone": "031-472-5989",
    "lat": 37.4198459876834,
    "lng": 126.909172952017,
    "region": "경기도",
    "district": "안양시"
  },
  {
    "name": "안양관양",
    "address": "경기도 안양시 동안구 관평로 296",
    "phone": "031-388-0031",
    "lat": 37.4026907089915,
    "lng": 126.95726228712,
    "region": "경기도",
    "district": "안양시"
  },
  {
    "name": "안양덕천래미안",
    "address": "경기도 안양시 만안구 안양동 1393",
    "phone": "031-360-3113",
    "lat": 37.3939721278838,
    "lng": 126.93653778428,
    "region": "경기도",
    "district": "안양시"
  },
  {
    "name": "안양만안",
    "address": "경기도 안양시 만안구 안양동 695-208 1층 101호",
    "phone": "031-468-3113",
    "lat": 37.4017581114885,
    "lng": 126.91857313465,
    "region": "경기도",
    "district": "안양시"
  },
  {
    "name": "안양만안구청",
    "address": "경기도 안양시 만안구 안양로 119, 1층 &#40;안양동, 계양빌딩&#41;",
    "phone": "031-466-3310",
    "lat": 37.385330147164,
    "lng": 126.932155188339,
    "region": "경기도",
    "district": "안양시"
  },
  {
    "name": "안양박달",
    "address": "경기도 안양시 만안구 양화로 115 &#40;박달동&#41;",
    "phone": "031-444-8484",
    "lat": 37.402954331145,
    "lng": 126.910029126641,
    "region": "경기도",
    "district": "안양시"
  },
  {
    "name": "안양비산",
    "address": "경기도 안양시 동안구 관악대로 129",
    "phone": "031-465-8373",
    "lat": 37.3991774634538,
    "lng": 126.938493997675,
    "region": "경기도",
    "district": "안양시"
  },
  {
    "name": "안양역지하상가",
    "address": "경기도 안양시 만안구 만안로 230 안양민자역사",
    "phone": "031-463-9131",
    "lat": 37.4010807823191,
    "lng": 126.922963084822,
    "region": "경기도",
    "district": "안양시"
  },
  {
    "name": "안양임곡",
    "address": "경기도 안양시 동안구 임곡로 40 &#40;비산동&#41; 1층",
    "phone": "031-447-0031",
    "lat": 37.4030328506903,
    "lng": 126.932560059277,
    "region": "경기도",
    "district": "안양시"
  },
  {
    "name": "안양충훈부",
    "address": "경기도 안양시 만안구 충훈로 100",
    "phone": "031-472-7272",
    "lat": 37.4075608316475,
    "lng": 126.897350573778,
    "region": "경기도",
    "district": "안양시"
  },
  {
    "name": "안양평촌역",
    "address": "경기도 안양시 동안구 관평로170번길 43",
    "phone": "031-383-2323",
    "lat": 37.3933131045209,
    "lng": 126.963309320737,
    "region": "경기도",
    "district": "안양시"
  },
  {
    "name": "안양평촌홈플러스",
    "address": "경기도 안양시 동안구 동안로 162 홈플러스 평촌점 1층",
    "phone": "031-384-3131",
    "lat": 37.3932687614,
    "lng": 126.9504286524,
    "region": "경기도",
    "district": "안양시"
  },
  {
    "name": "안양호계",
    "address": "경기도 안양시 동안구 경수대로 572",
    "phone": "031-459-3311",
    "lat": 37.3738347456858,
    "lng": 126.957829615366,
    "region": "경기도",
    "district": "안양시"
  },
  {
    "name": "인덕원역",
    "address": "경기도 안양시 동안구 관양동 1502-4",
    "phone": "031-424-9702",
    "lat": 37.4003894512203,
    "lng": 126.97633911943,
    "region": "경기도",
    "district": "안양시"
  },
  {
    "name": "평촌범계",
    "address": "경기도 안양시 동안구 평촌대로223번길 64 &#40;호계동, 제일빌딩&#41;",
    "phone": "031-388-0310",
    "lat": 37.3905208529589,
    "lng": 126.95225374802,
    "region": "경기도",
    "district": "안양시"
  },
  {
    "name": "평촌범계2",
    "address": "경기도 안양시 동안구 호계동 1050",
    "phone": "031-385-3130",
    "lat": 37.3899740797681,
    "lng": 126.953529121118,
    "region": "경기도",
    "district": "안양시"
  },
  {
    "name": "평촌새중앙",
    "address": "경기도 안양시 동안구 귀인로 289 &#40;평촌동&#41;",
    "phone": "031-421-0806",
    "lat": 37.3886838949656,
    "lng": 126.970640227475,
    "region": "경기도",
    "district": "안양시"
  },
  {
    "name": "평촌학원가",
    "address": "경기도 안양시 동안구 평촌대로 141, 103, 104호",
    "phone": "031-386-2731",
    "lat": 37.3845446838163,
    "lng": 126.958853412067,
    "region": "경기도",
    "district": "안양시"
  },
  {
    "name": "안양동편마을",
    "address": "경기 안양시 동안구 동편로 140 1층 102호",
    "phone": "031-425-7264",
    "lat": 37.409725568617,
    "lng": 126.96699050107,
    "region": "경기도",
    "district": "안양시 동안구"
  },
  {
    "name": "안양일번가",
    "address": "경기 안양시 만안구 장내로139번길 25 1층",
    "phone": "070-7628-2883",
    "lat": 37.3987699958885,
    "lng": 126.922232938797,
    "region": "경기도",
    "district": "안양시 만안구"
  },
  {
    "name": "양주고읍",
    "address": "경기도 양주시 고읍남로 18",
    "phone": "031-848-0069",
    "lat": 37.7949901195133,
    "lng": 127.079499146537,
    "region": "경기도",
    "district": "양주시"
  },
  {
    "name": "양주광적",
    "address": "경기 양주시 광적면 가래비길 118",
    "phone": "031-826-0103",
    "lat": 37.8253770092151,
    "lng": 126.984150898716,
    "region": "경기도",
    "district": "양주시"
  },
  {
    "name": "양주덕계",
    "address": "경기도 양주시 평화로 1437",
    "phone": "031-865-1020",
    "lat": 37.8193247569107,
    "lng": 127.046225041145,
    "region": "경기도",
    "district": "양주시"
  },
  {
    "name": "양주덕정",
    "address": "경기도 양주시 회정로 134",
    "phone": "031-859-0039",
    "lat": 37.8372339168759,
    "lng": 127.068502300893,
    "region": "경기도",
    "district": "양주시"
  },
  {
    "name": "양주백석",
    "address": "경기도 양주시 백석읍 호명로 72 &#40;복지리&#41;",
    "phone": "031-877-2595",
    "lat": 37.7871168602966,
    "lng": 126.992029244805,
    "region": "경기도",
    "district": "양주시"
  },
  {
    "name": "양주옥정",
    "address": "경기도 양주시 옥정동 963-14",
    "phone": "031-858-3103",
    "lat": 37.8185571462,
    "lng": 127.0922128838,
    "region": "경기도",
    "district": "양주시"
  },
  {
    "name": "양주이마트",
    "address": "경기 양주시 평화로 1713 1층",
    "phone": "031-864-1051",
    "lat": 37.8417501721146,
    "lng": 127.053849955483,
    "region": "경기도",
    "district": "양주시"
  },
  {
    "name": "양주자이",
    "address": "경기 양주시 삼숭로38번길 80 양주자이프라자 1층 2112호",
    "phone": "031-844-4122",
    "lat": 37.7960689083438,
    "lng": 127.105867782769,
    "region": "경기도",
    "district": "양주시"
  },
  {
    "name": "양주회천",
    "address": "경기 양주시 덕계로 138-32 근린생활시설동 제 1층, 제 119호, 제 120호",
    "phone": "031-862-3111",
    "lat": 37.8192468553631,
    "lng": 127.055729281933,
    "region": "경기도",
    "district": "양주시"
  },
  {
    "name": "옥정북부",
    "address": "경기 양주시 옥정서로 227 에이플러스모닝프라자107호",
    "phone": "031-858-0600",
    "lat": 37.833407927,
    "lng": 127.088261618393,
    "region": "경기도",
    "district": "양주시"
  },
  {
    "name": "옥정제이드웰",
    "address": "경기 양주시 옥정동로4길 3 1층",
    "phone": "031-859-3388",
    "lat": 37.8148673064003,
    "lng": 127.099269281726,
    "region": "경기도",
    "district": "양주시"
  },
  {
    "name": "양평시장",
    "address": "경기도 양평군 양평읍 양평시장길 2",
    "phone": "031-775-3179",
    "lat": 37.4899267275355,
    "lng": 127.492381032877,
    "region": "경기도",
    "district": "양평군"
  },
  {
    "name": "양평용문",
    "address": "경기도 양평군 용문면 다문리 729-11",
    "phone": "031-771-4040",
    "lat": 37.4845400302822,
    "lng": 127.594006924586,
    "region": "경기도",
    "district": "양평군"
  },
  {
    "name": "여주교동",
    "address": "경기 여주시 세종로 206",
    "phone": "031-882-8801",
    "lat": 37.2798076466845,
    "lng": 127.636597858204,
    "region": "경기도",
    "district": "여주시"
  },
  {
    "name": "여주오학",
    "address": "경기도 여주시 오학동 286-4",
    "phone": "031-881-0853",
    "lat": 37.3082187825327,
    "lng": 127.643146888537,
    "region": "경기도",
    "district": "여주시"
  },
  {
    "name": "여주중앙로",
    "address": "경기도 여주시 세종로 14번지길 18",
    "phone": "031-886-2261",
    "lat": 37.2974120619652,
    "lng": 127.63511488894,
    "region": "경기도",
    "district": "여주시"
  },
  {
    "name": "경기연천",
    "address": "경기도 연천군 전곡읍 전곡로 162",
    "phone": "031-832-3133",
    "lat": 38.0265305137305,
    "lng": 127.06826815987,
    "region": "경기도",
    "district": "연천군"
  },
  {
    "name": "오산갈곶",
    "address": "경기도 오산시 원동 807-8 101호, 102호",
    "phone": "031-376-3135",
    "lat": 37.133058117983,
    "lng": 127.069823496392,
    "region": "경기도",
    "district": "오산시"
  },
  {
    "name": "오산궐동",
    "address": "경기 오산시 궐리사로 8",
    "phone": "031-378-3312",
    "lat": 37.1598950450694,
    "lng": 127.053486665418,
    "region": "경기도",
    "district": "오산시"
  },
  {
    "name": "오산누읍",
    "address": "경기도 오산시 발안로 1348 &#40;누읍동&#41;",
    "phone": "031-374-3310",
    "lat": 37.1409964049533,
    "lng": 127.046663339441,
    "region": "경기도",
    "district": "오산시"
  },
  {
    "name": "오산세교",
    "address": "경기도 오산시 수청로 188",
    "phone": "031-373-6131",
    "lat": 37.1749500418854,
    "lng": 127.050919223224,
    "region": "경기도",
    "district": "오산시"
  },
  {
    "name": "오산세교홈플러스",
    "address": "경기도 오산시 청학로 238 &#40;수청동, 홈플러스&#41;, 1층",
    "phone": "031-375-3151",
    "lat": 37.1700575405,
    "lng": 127.061797223,
    "region": "경기도",
    "district": "오산시"
  },
  {
    "name": "오산수청",
    "address": "경기도 오산시 오산대역로 214 &#40;수청동&#41; G플레이스 112호, 113호&#40;일부&#41;",
    "phone": "031-374-5035",
    "lat": 37.1708556423358,
    "lng": 127.06558564382,
    "region": "경기도",
    "district": "오산시"
  },
  {
    "name": "오산시티자이",
    "address": "경기도 오산시 부산중앙로 12 &#40;부산동, 오산시티자이 2단지&#41;",
    "phone": "031-375-9131",
    "lat": 37.150161753246,
    "lng": 127.09156883682,
    "region": "경기도",
    "district": "오산시"
  },
  {
    "name": "오산운암",
    "address": "경기도 오산시 성호대로 124 &#40;원동, 신협빌딩&#41; 103호",
    "phone": "070-4114-3131",
    "lat": 37.1484863938641,
    "lng": 127.075202818358,
    "region": "경기도",
    "district": "오산시"
  },
  {
    "name": "오산운천",
    "address": "경기 오산시 운암로 113 108, 109호 일부",
    "phone": "031-376-1820",
    "lat": 37.1563752722095,
    "lng": 127.077965472354,
    "region": "경기도",
    "district": "오산시"
  },
  {
    "name": "오산이마트",
    "address": "경기도 오산시 경기대로 181",
    "phone": "031-377-5131",
    "lat": 37.1406985614589,
    "lng": 127.072551362523,
    "region": "경기도",
    "district": "오산시"
  },
  {
    "name": "광교상현역",
    "address": "경기도 용인시 수지구 상현동 502-10 광교스타 천 1층",
    "phone": "031-215-9572",
    "lat": 37.2986228288566,
    "lng": 127.069279672529,
    "region": "경기도",
    "district": "용인시"
  },
  {
    "name": "수지롯데몰",
    "address": "경기도 용인시 수지구 성복동 23 2층 배스킨라빈스 수지롯데몰",
    "phone": "031-5174-2651",
    "lat": 37.3112634912374,
    "lng": 127.083214949082,
    "region": "경기도",
    "district": "용인시"
  },
  {
    "name": "용인1호",
    "address": "경기도 용인시 처인구 금령로 99번길 &#40;김량장동 130-6번지&#41;",
    "phone": "031-321-0131",
    "lat": 37.2357579050961,
    "lng": 127.207457720086,
    "region": "경기도",
    "district": "용인시"
  },
  {
    "name": "용인경찰대",
    "address": "경기도 용인시 기흥구 구성로 94",
    "phone": "031-283-8609",
    "lat": 37.2941632356994,
    "lng": 127.119457367166,
    "region": "경기도",
    "district": "용인시"
  },
  {
    "name": "용인기흥역",
    "address": "경기도 용인시 기흥구 구갈동 227-34, 기흥역지웰푸르지오상가동 1층",
    "phone": "031-286-3153",
    "lat": 37.273612605328,
    "lng": 127.11482547638,
    "region": "경기도",
    "district": "용인시"
  },
  {
    "name": "용인동백1호",
    "address": "경기도 용인시 기흥구 동백중앙로 352, 104호",
    "phone": "031-285-9031",
    "lat": 37.2820962493802,
    "lng": 127.159469040246,
    "region": "경기도",
    "district": "용인시"
  },
  {
    "name": "용인동백중동",
    "address": "경기도 용인시 기흥구 동백중앙로 273 &#40;중동, 동백 훼미리프라자Ⅱ&#41; 103호",
    "phone": "031-8005-5900",
    "lat": 37.2770153454241,
    "lng": 127.153428293102,
    "region": "경기도",
    "district": "용인시"
  },
  {
    "name": "용인동천",
    "address": "경기도 용인시 수지구 문인로54번길 2 &#40;동천동, 수지하우비&#41;",
    "phone": "031-898-3181",
    "lat": 37.3335141453069,
    "lng": 127.097267358754,
    "region": "경기도",
    "district": "용인시"
  },
  {
    "name": "용인둔전",
    "address": "경기도 용인시 처인구 포곡읍 포곡로 121",
    "phone": "031-334-0331",
    "lat": 37.2700814960927,
    "lng": 127.218375338902,
    "region": "경기도",
    "district": "용인시"
  },
  {
    "name": "용인명지",
    "address": "경기도 용인시 처인구 역북동 750-1 삼가프라자 103호, 104호",
    "phone": "031-338-1990",
    "lat": 37.2327857965818,
    "lng": 127.187753775471,
    "region": "경기도",
    "district": "용인시"
  },
  {
    "name": "용인모현",
    "address": "경기도 용인시 처인구 모현면 백옥대로 2386 &#40;왕산리, 경희한의원&#41;",
    "phone": "031-332-0085",
    "lat": 37.336517519,
    "lng": 127.2497733518,
    "region": "경기도",
    "district": "용인시"
  },
  {
    "name": "용인보라",
    "address": "경기도 용인시 기흥구 한보라1로 8",
    "phone": "031-693-8200",
    "lat": 37.2514042997031,
    "lng": 127.119525088253,
    "region": "경기도",
    "district": "용인시"
  },
  {
    "name": "용인상갈",
    "address": "경기도 용인시 기흥구 금화로 103 &#40;상갈동, 정진프라자&#41;",
    "phone": "031-286-8600",
    "lat": 37.2662117602651,
    "lng": 127.106599397293,
    "region": "경기도",
    "district": "용인시"
  },
  {
    "name": "용인상현",
    "address": "경기도 용인시 수지구 만현로 100 거묵프라자 134호",
    "phone": "031-264-3191",
    "lat": 37.3078529358055,
    "lng": 127.084679861761,
    "region": "경기도",
    "district": "용인시"
  },
  {
    "name": "용인새터",
    "address": "경기도 용인시 수지구 현암로 128 센타프라자",
    "phone": "031-889-2003",
    "lat": 37.3323921167842,
    "lng": 127.112296251167,
    "region": "경기도",
    "district": "용인시"
  },
  {
    "name": "용인성복",
    "address": "경기도 용인시 수지구 성복2로 100 &#40;성복동, 예반 아이엔 프라자&#41;",
    "phone": "031-272-4040",
    "lat": 37.315471231,
    "lng": 127.0752775825,
    "region": "경기도",
    "district": "용인시"
  },
  {
    "name": "용인수지",
    "address": "경기도 용인시 수지구 문정로 22 &#40;풍덕천동&#41;",
    "phone": "031-264-1878",
    "lat": 37.3229147134007,
    "lng": 127.09611756175,
    "region": "경기도",
    "district": "용인시"
  },
  {
    "name": "용인신봉",
    "address": "경기도 용인시 수지구 신봉2로 2 센트럴 쇼핑몰 124,125호",
    "phone": "031-262-2131",
    "lat": 37.3232293718468,
    "lng": 127.07769073155,
    "region": "경기도",
    "district": "용인시"
  },
  {
    "name": "용인양지",
    "address": "경기도 용인시 처인구 양지면 남평로 2 &#40;남곡리&#41;",
    "phone": "031-338-5334",
    "lat": 37.2328915547347,
    "lng": 127.285827990385,
    "region": "경기도",
    "district": "용인시"
  },
  {
    "name": "용인어정역",
    "address": "경기도 용인시 기흥구 중동 673, 라비스타A동 103호, 104호",
    "phone": "031-283-1090",
    "lat": 37.2758720680387,
    "lng": 127.144950752749,
    "region": "경기도",
    "district": "용인시"
  },
  {
    "name": "용인연원마을",
    "address": "경기도 용인시 기흥구 용구대로 2398 &#40;마북동, 연원마을벽산아파트&#41;",
    "phone": "031-286-3031",
    "lat": 37.3003041075341,
    "lng": 127.107284192734,
    "region": "경기도",
    "district": "용인시"
  },
  {
    "name": "용인유림",
    "address": "경기도 용인시 처인구 백옥대로1392번길 2 &#40;유방동&#41;",
    "phone": "031-335-1131",
    "lat": 37.2590170271826,
    "lng": 127.212963781244,
    "region": "경기도",
    "district": "용인시"
  },
  {
    "name": "용인청덕",
    "address": "경기도 용인시 기흥구 구성3로28번길 16 &#40;청덕동, 우성프라자&#41;",
    "phone": "031-283-7774",
    "lat": 37.2949954360119,
    "lng": 127.152126419014,
    "region": "경기도",
    "district": "용인시"
  },
  {
    "name": "용인흥덕",
    "address": "경기도 용인시 기흥구 흥덕중앙로 41",
    "phone": "070-7450-5252",
    "lat": 37.2765144989227,
    "lng": 127.071553958691,
    "region": "경기도",
    "district": "용인시"
  },
  {
    "name": "죽전꽃메마을",
    "address": "경기도 용인시 기흥구 죽전로 57 엘림프라자 1층 108호,109호 &#40;보정동, 호암빌딩&#41;",
    "phone": "031-261-3135",
    "lat": 37.3207684937291,
    "lng": 127.115148317135,
    "region": "경기도",
    "district": "용인시"
  },
  {
    "name": "죽전꽃메마을",
    "address": "경기도 용인시 기흥구 죽전로 57 엘림프라자 1층 108호",
    "phone": "031-261-3135",
    "lat": 37.320540795672,
    "lng": 127.115155528699,
    "region": "경기도",
    "district": "용인시"
  },
  {
    "name": "구성트레이더스",
    "address": "경기 용인시 기흥구 용구대로 2457 트레이더스 홀세일클럽 구성점",
    "phone": "031-284-9433",
    "lat": 37.3039753941182,
    "lng": 127.104650221848,
    "region": "경기도",
    "district": "용인시 기흥구"
  },
  {
    "name": "기흥구청",
    "address": "경기 용인시 기흥구 구갈로 74",
    "phone": "031-282-1626",
    "lat": 37.2811344297076,
    "lng": 127.11177588506,
    "region": "경기도",
    "district": "용인시 기흥구"
  },
  {
    "name": "용인강남대",
    "address": "경기 용인시 기흥구 강남동로 6 그랜드프라자 110호",
    "phone": "031-275-3103",
    "lat": 37.271398838861,
    "lng": 127.127754052312,
    "region": "경기도",
    "district": "용인시 기흥구"
  },
  {
    "name": "용인상하",
    "address": "경기 용인시 기흥구 중부대로788번길 3",
    "phone": "031-284-0310",
    "lat": 37.2579767101234,
    "lng": 127.142546038651,
    "region": "경기도",
    "district": "용인시 기흥구"
  },
  {
    "name": "용인서천",
    "address": "경기 용인시 기흥구 서천로 121 107,108호",
    "phone": "031-205-3165",
    "lat": 37.2371615417499,
    "lng": 127.072722478556,
    "region": "경기도",
    "district": "용인시 기흥구"
  },
  {
    "name": "수지이마트",
    "address": "경기 용인시 수지구 수지로 203",
    "phone": "031-265-4177",
    "lat": 37.3197392590297,
    "lng": 127.083327747719,
    "region": "경기도",
    "district": "용인시 수지구"
  },
  {
    "name": "용인동천2",
    "address": "경기 용인시 수지구 동천로 36 1층",
    "phone": "0507-2087-1318",
    "lat": 37.3407367034381,
    "lng": 127.099021564501,
    "region": "경기도",
    "district": "용인시 수지구"
  },
  {
    "name": "죽전스타필드마켓",
    "address": "경기 용인시 수지구 포은대로 552 스타필드마켓 죽전점 2층",
    "phone": "031-262-2008",
    "lat": 37.3253339926033,
    "lng": 127.10997425459,
    "region": "경기도",
    "district": "용인시 수지구"
  },
  {
    "name": "용인고림",
    "address": "경기 용인시 처인구 고림로 92",
    "phone": "031-339-0131",
    "lat": 37.241357887412,
    "lng": 127.215386314054,
    "region": "경기도",
    "district": "용인시 처인구"
  },
  {
    "name": "용인시청",
    "address": "경기 용인시 처인구 중부대로 1131",
    "phone": "031-333-3933",
    "lat": 37.240754593262,
    "lng": 127.171507855807,
    "region": "경기도",
    "district": "용인시 처인구"
  },
  {
    "name": "용인천리",
    "address": "경기 용인시 처인구 이동읍 백옥대로 636",
    "phone": "031-322-2273",
    "lat": 37.1935311891349,
    "lng": 127.207250561714,
    "region": "경기도",
    "district": "용인시 처인구"
  },
  {
    "name": "용인한숲시티",
    "address": "경기 용인시 처인구 남사읍 한숲로 84 6단지 상가 104호, 105호",
    "phone": "031-333-3135",
    "lat": 37.1561090694356,
    "lng": 127.173656345397,
    "region": "경기도",
    "district": "용인시 처인구"
  },
  {
    "name": "의왕내손",
    "address": "경기도 의왕시 갈미2로 40",
    "phone": "031-425-8211",
    "lat": 37.3794936438239,
    "lng": 126.971422878568,
    "region": "경기도",
    "district": "의왕시"
  },
  {
    "name": "의왕롯데아울렛",
    "address": "경기 의왕시 바라산로 1 1층",
    "phone": "0503-5260-7147",
    "lat": 37.3758168645238,
    "lng": 127.010277326166,
    "region": "경기도",
    "district": "의왕시"
  },
  {
    "name": "의왕서해그랑블",
    "address": "경기도 의왕시 오전동 887-1",
    "phone": "031-343-4539",
    "lat": 37.3499584920145,
    "lng": 126.973598811949,
    "region": "경기도",
    "district": "의왕시"
  },
  {
    "name": "의왕역",
    "address": "경기도 의왕시 부곡중앙북3길 1",
    "phone": "031-461-3372",
    "lat": 37.3212173227944,
    "lng": 126.95079868364,
    "region": "경기도",
    "district": "의왕시"
  },
  {
    "name": "의왕오전",
    "address": "경기도 의왕시 원골로 14",
    "phone": "031-427-8181",
    "lat": 37.3584898362259,
    "lng": 126.967954234085,
    "region": "경기도",
    "district": "의왕시"
  },
  {
    "name": "의왕포일",
    "address": "경기도 의왕시 안양판교로 99 &#40;포일동, 스마일타워&#41;",
    "phone": "031-426-1480",
    "lat": 37.3955992522,
    "lng": 126.9851471075,
    "region": "경기도",
    "district": "의왕시"
  },
  {
    "name": "의정부가능역",
    "address": "경기도 의정부시 평화로 626 &#40;의정부동, 성원빌딩&#41;",
    "phone": "031-821-4510",
    "lat": 37.7477047545523,
    "lng": 127.045657835041,
    "region": "경기도",
    "district": "의정부시"
  },
  {
    "name": "의정부고산",
    "address": "경기도 의정부시 세석로 30 &#40;산곡동&#41; 지상 1층, 현대본타워 105호",
    "phone": "031-848-2603",
    "lat": 37.729402507407,
    "lng": 127.110095453846,
    "region": "경기도",
    "district": "의정부시"
  },
  {
    "name": "의정부금오",
    "address": "경기도 의정부시 청사로47번길 15 &#40;금오동, 골드피아&#41; 112호",
    "phone": "031-853-3140",
    "lat": 37.7521619168927,
    "lng": 127.069023724096,
    "region": "경기도",
    "district": "의정부시"
  },
  {
    "name": "의정부낙양",
    "address": "경기도 의정부시 용민로 407 &#40;낙양동, 한덕프라자&#41;",
    "phone": "031-851-6598",
    "lat": 37.7556225071,
    "lng": 127.1135955886,
    "region": "경기도",
    "district": "의정부시"
  },
  {
    "name": "의정부녹양",
    "address": "경기도 의정부시 체육로 306-24",
    "phone": "031-878-0331",
    "lat": 37.7604425295136,
    "lng": 127.032343211363,
    "region": "경기도",
    "district": "의정부시"
  },
  {
    "name": "의정부망월사역",
    "address": "경기도 의정부시 호원동 464",
    "phone": "031-878-8387",
    "lat": 37.7084873162259,
    "lng": 127.047845855469,
    "region": "경기도",
    "district": "의정부시"
  },
  {
    "name": "의정부민락",
    "address": "경기 의정부시 용민로 133",
    "phone": "031-851-6301",
    "lat": 37.7409503718481,
    "lng": 127.090682340309,
    "region": "경기도",
    "district": "의정부시"
  },
  {
    "name": "의정부범골",
    "address": "경기도 의정부시 호동로 67 &#40;호원동, 화성프라자&#41;",
    "phone": "010-7737-6054",
    "lat": 37.7279310712492,
    "lng": 127.043302572756,
    "region": "경기도",
    "district": "의정부시"
  },
  {
    "name": "의정부송산",
    "address": "경기 의정부시 오목로 207",
    "phone": "031-851-6616",
    "lat": 37.7449160359869,
    "lng": 127.098586801378,
    "region": "경기도",
    "district": "의정부시"
  },
  {
    "name": "의정부신곡",
    "address": "경기도 의정부시 추동로 9 휴먼시티",
    "phone": "031-848-1008",
    "lat": 37.743179628382,
    "lng": 127.057058323284,
    "region": "경기도",
    "district": "의정부시"
  },
  {
    "name": "의정부역서부",
    "address": "경기도 의정부시 의정부동 494 센트럴타워 1층 A107호",
    "phone": "031-836-5799",
    "lat": 37.7379768684042,
    "lng": 127.044093275039,
    "region": "경기도",
    "district": "의정부시"
  },
  {
    "name": "의정부용현",
    "address": "경기도 의정부시 용현동 264-11 105호",
    "phone": "031-853-8397",
    "lat": 37.73489505712,
    "lng": 127.081410507151,
    "region": "경기도",
    "district": "의정부시"
  },
  {
    "name": "의정부장암",
    "address": "경기도 의정부시 동일로 456 &#40;신곡동, 박사빌딩&#41; 1층",
    "phone": "070-8810-5944",
    "lat": 37.728994505945,
    "lng": 127.059750753426,
    "region": "경기도",
    "district": "의정부시"
  },
  {
    "name": "의정부중앙로",
    "address": "경기도 의정부시 행복로 1",
    "phone": "031-846-1831",
    "lat": 37.739093306164,
    "lng": 127.047899582698,
    "region": "경기도",
    "district": "의정부시"
  },
  {
    "name": "의정부홈플러스",
    "address": "경기 의정부시 청사로 38",
    "phone": "031-853-8183",
    "lat": 37.7521637153577,
    "lng": 127.071001320782,
    "region": "경기도",
    "district": "의정부시"
  },
  {
    "name": "의정부회룡역",
    "address": "경기도 의정부시 평화로 363-8",
    "phone": "031-873-1131",
    "lat": 37.724515675255,
    "lng": 127.047720048066,
    "region": "경기도",
    "district": "의정부시"
  },
  {
    "name": "이천마장",
    "address": "경기도 이천시 마장면 오천로 42 &#40;오천리&#41; 1층",
    "phone": "031-636-4439",
    "lat": 37.2531185687216,
    "lng": 127.352374830046,
    "region": "경기도",
    "district": "이천시"
  },
  {
    "name": "이천중앙로",
    "address": "경기도 이천시 어재연로37번길 12",
    "phone": "031-631-8031",
    "lat": 37.2802858770971,
    "lng": 127.445028923289,
    "region": "경기도",
    "district": "이천시"
  },
  {
    "name": "이천증포",
    "address": "경기도 이천시 이섭대천로1439번길 4 &#40;증포동&#41;",
    "phone": "031-633-3464",
    "lat": 37.2963493877068,
    "lng": 127.457058923618,
    "region": "경기도",
    "district": "이천시"
  },
  {
    "name": "이천창전",
    "address": "경기도 이천시 창전동 157-17",
    "phone": "031-635-7777",
    "lat": 37.2810282910563,
    "lng": 127.442153397565,
    "region": "경기도",
    "district": "이천시"
  },
  {
    "name": "이천터미널",
    "address": "경기도 이천시 이섭대천로 1200 종합버스터미널 상가 148호",
    "phone": "031-633-4321",
    "lat": 37.2776025205579,
    "lng": 127.446963789126,
    "region": "경기도",
    "district": "이천시"
  },
  {
    "name": "이천하이닉스",
    "address": "경기 이천시 부발읍 경충대로2050번길 15-90",
    "phone": "0316336183",
    "lat": 37.2523439666817,
    "lng": 127.492227689935,
    "region": "경기도",
    "district": "이천시"
  },
  {
    "name": "장호원",
    "address": "경기도 이천시 장호원읍 장터로 45-13 &#40;장호원리&#41;",
    "phone": "031-641-9988",
    "lat": 37.1165555718,
    "lng": 127.6294784788,
    "region": "경기도",
    "district": "이천시"
  },
  {
    "name": "운정가람마을",
    "address": "경기도 파주시 가람로116번길 45 &#40;와동동&#41; 퍼스트삼융 101호, 102호",
    "phone": "031-957-3110",
    "lat": 37.7353546352524,
    "lng": 126.764269035446,
    "region": "경기도",
    "district": "파주시"
  },
  {
    "name": "운정산내마을",
    "address": "경기도 파주시 심학산로423번길 7-33 &#40;목동동&#41;",
    "phone": "031-948-2337",
    "lat": 37.7194339542524,
    "lng": 126.737244165231,
    "region": "경기도",
    "district": "파주시"
  },
  {
    "name": "운정야당역",
    "address": "경기도 파주시 야당동 1070",
    "phone": "031-941-3107",
    "lat": 37.7138153543294,
    "lng": 126.759993892336,
    "region": "경기도",
    "district": "파주시"
  },
  {
    "name": "운정초롱꽃마을",
    "address": "경기 파주시 초롱꽃로 133-3 106호",
    "phone": "031-945-6462",
    "lat": 37.7125179786956,
    "lng": 126.718794195657,
    "region": "경기도",
    "district": "파주시"
  },
  {
    "name": "운정해솔가람마을",
    "address": "경기도 파주시 미래로602번길 3 윤정프라자 1층",
    "phone": "031-945-3133",
    "lat": 37.7312733238695,
    "lng": 126.751667768179,
    "region": "경기도",
    "district": "파주시"
  },
  {
    "name": "운정해오름마을",
    "address": "경기도 파주시 청암로 75 &#40;다율동&#41; 상상메디컬프라자",
    "phone": "031-942-3641",
    "lat": 37.7348272511912,
    "lng": 126.733021445275,
    "region": "경기도",
    "district": "파주시"
  },
  {
    "name": "파주교하",
    "address": "경기 파주시 청석로 260 트리플메디칼타워 107호",
    "phone": "031-941-3137",
    "lat": 37.7251029959277,
    "lng": 126.717738448876,
    "region": "경기도",
    "district": "파주시"
  },
  {
    "name": "파주금능",
    "address": "경기 파주시 금빛로 22",
    "phone": "031-957-3188",
    "lat": 37.7516589858332,
    "lng": 126.76694335458,
    "region": "경기도",
    "district": "파주시"
  },
  {
    "name": "파주금촌역",
    "address": "경기도 파주시 중앙로 328 &#40;금촌동&#41; MH타워 1층",
    "phone": "031-948-7331",
    "lat": 37.7648793577996,
    "lng": 126.774526348385,
    "region": "경기도",
    "district": "파주시"
  },
  {
    "name": "파주문산",
    "address": "경기도 파주시 문산읍 문향로 71 &#40;문산리&#41;",
    "phone": "031-953-3031",
    "lat": 37.858356411959,
    "lng": 126.785229925816,
    "region": "경기도",
    "district": "파주시"
  },
  {
    "name": "파주문산홈플러스",
    "address": "경기도 파주시 문산읍 당동리 880",
    "phone": "031-954-3331",
    "lat": 37.8697332208759,
    "lng": 126.785025859747,
    "region": "경기도",
    "district": "파주시"
  },
  {
    "name": "파주봉일천",
    "address": "경기도 파주시 조리읍 봉천로 35",
    "phone": "031-948-7748",
    "lat": 37.7434825619959,
    "lng": 126.807704013868,
    "region": "경기도",
    "district": "파주시"
  },
  {
    "name": "파주운정이마트",
    "address": "경기도 파주시 한울로 123",
    "phone": "031-949-4531",
    "lat": 37.7103928699353,
    "lng": 126.745114418999,
    "region": "경기도",
    "district": "파주시"
  },
  {
    "name": "파주운정홈플러스",
    "address": "경기도 파주시 목동동 927 홈플러스 파주운정점 지하1층",
    "phone": "031-948-3111",
    "lat": 37.7295687815196,
    "lng": 126.736760961992,
    "region": "경기도",
    "district": "파주시"
  },
  {
    "name": "송탄서정",
    "address": "경기도 평택시 서정동 817-5",
    "phone": "031-667-0177",
    "lat": 37.0670588598215,
    "lng": 127.063022970423,
    "region": "경기도",
    "district": "평택시"
  },
  {
    "name": "송탄신장",
    "address": "경기도 평택시 신장동 314-6",
    "phone": "031-611-1688",
    "lat": 37.0809236539729,
    "lng": 127.052031520329,
    "region": "경기도",
    "district": "평택시"
  },
  {
    "name": "평택고덕로데오",
    "address": "경기 평택시 고덕갈평6길 27 로자벨고덕2차 117, 119호",
    "phone": "031-665-8886",
    "lat": 37.0573043707507,
    "lng": 127.047819192059,
    "region": "경기도",
    "district": "평택시"
  },
  {
    "name": "평택고덕에듀타운",
    "address": "경기 평택시 고덕로 250 에듀스카이 111호, 112호",
    "phone": "031-663-0310",
    "lat": 37.0363056605908,
    "lng": 127.028330660423,
    "region": "경기도",
    "district": "평택시"
  },
  {
    "name": "평택고덕파밀리에",
    "address": "경기도 평택시 고덕면 고덕중앙로 200-4 &#40;여염리, 우성고덕타워&#41; 117호",
    "phone": "070-8691-0000",
    "lat": 37.047773305463,
    "lng": 127.044209743925,
    "region": "경기도",
    "district": "평택시"
  },
  {
    "name": "평택독곡",
    "address": "경기 평택시 지산로 81 &#40;독곡동&#41;",
    "phone": "031-666-3521",
    "lat": 37.0805059323866,
    "lng": 127.063810659859,
    "region": "경기도",
    "district": "평택시"
  },
  {
    "name": "평택동삭",
    "address": "경기도 평택시 동삭동 산 104-3, 센트럴자이 4단지상 129,130",
    "phone": "031-8094-3131",
    "lat": 37.0185823664621,
    "lng": 127.101467558926,
    "region": "경기도",
    "district": "평택시"
  },
  {
    "name": "평택법원",
    "address": "경기 평택시 비전2로 15",
    "phone": "070-8800-5949",
    "lat": 37.0083951928539,
    "lng": 127.09651479736,
    "region": "경기도",
    "district": "평택시"
  },
  {
    "name": "평택비전",
    "address": "경기도 평택시 경기대로 269",
    "phone": "031-657-3132",
    "lat": 36.9947385167335,
    "lng": 127.112831340282,
    "region": "경기도",
    "district": "평택시"
  },
  {
    "name": "평택세교",
    "address": "경기도 평택시 세교4로 7 &#40;세교동&#41; 1층",
    "phone": "031-654-3130",
    "lat": 37.0051892714143,
    "lng": 127.085292355887,
    "region": "경기도",
    "district": "평택시"
  },
  {
    "name": "평택소사벌",
    "address": "경기 평택시 평남로 933 태성빌딩 107호",
    "phone": "031-652-4131",
    "lat": 37.0040608676251,
    "lng": 127.104842260327,
    "region": "경기도",
    "district": "평택시"
  },