[
  {
    "name": "뽕족 강남역본점",
    "address": "서울특별시 강남구 테헤란로4길 15 메가시티오피스텔 1층",
    "phone": "02-556-9279",
    "lat": 37.4974176,
    "lng": 127.0301911,
    "region": "서울특별시",
    "district": "강남구"
  },
  {
    "name": "뽕나무쟁이 선릉본점",
    "address": "서울특별시 강남구 역삼로65길 31",
    "phone": "02-558-9279",
    "lat": 37.5032108,
    "lng": 127.0520516,
    "region": "서울특별시",
    "district": "강남구"
  },
  {
    "name": "뽕족 잠실방이점",
    "address": "서울특별시 송파구 올림픽로32길 21-10 1층",
    "phone": "02-423-9279",
    "lat": 37.5141449,
    "lng": 127.1100738,
    "region": "서울특별시",
    "district": "송파구"
  },
  {
    "name": "왕산골 뽕나무쟁이",
    "address": "서울특별시 강남구 테헤란로4길 15",
    "phone": null,
    "lat": 37.4973371,
    "lng": 127.0302506,
    "region": "서울특별시",
    "district": "강남구"
  },
  {
    "name": "뽕나무쟁이",
    "address": "충청남도 천안시 서북구 성거읍 모전리",
    "phone": null,
    "lat": 36.911068,
    "lng": 127.196706,
    "region": "충청남도",
    "district": "천안시"
  }
]