[
  {
    "name": "종로구청점",
    "address": "서울특별시 종로구 삼봉로 57",
    "phone": "02-722-0238",
    "lat": 37.5725602553,
    "lng": 126.9804753935,
    "region": "서울",
    "district": "종로구"
  },
  {
    "name": "서대문역점",
    "address": "서울특별시 중구 통일로 86",
    "phone": "070-7462-6847",
    "lat": 37.563112,
    "lng": 126.9694401,
    "region": "서울",
    "district": "중구"
  },
  {
    "name": "회현역점",
    "address": "서울특별시 중구 퇴계로 52",
    "phone": "070-7462-6807",
    "lat": 37.5583361,
    "lng": 126.9784215,
    "region": "서울",
    "district": "중구"
  },
  {
    "name": "종로점",
    "address": "서울특별시 종로구 종로 94",
    "phone": "02-2285-4838",
    "lat": 37.5699587,
    "lng": 126.9881077,
    "region": "서울",
    "district": "종로구"
  },
  {
    "name": "서울역점",
    "address": "서울특별시 용산구 청파로 378",
    "phone": "02-392-2895",
    "lat": 37.55483771349384,
    "lng": 126.9718120082412,
    "region": "서울",
    "district": "용산구"
  },
  {
    "name": "충무로역점",
    "address": "서울특별시 중구 퇴계로 216",
    "phone": "02-2285-0337",
    "lat": 37.5613353869,
    "lng": 126.9958122562,
    "region": "서울",
    "district": "중구"
  },
  {
    "name": "혜화역점",
    "address": "서울특별시 종로구 동숭길 148",
    "phone": "070-7462-6726",
    "lat": 37.58352514754791,
    "lng": 127.00215110115805,
    "region": "서울",
    "district": "종로구"
  },
  {
    "name": "공덕역점",
    "address": "서울특별시 마포구 마포대로 144",
    "phone": "02-701-8355",
    "lat": 37.5470005411,
    "lng": 126.9537580588,
    "region": "서울",
    "district": "마포구"
  },
  {
    "name": "약수역점",
    "address": "서울특별시 중구 다산로 142",
    "phone": "070-7438-8605",
    "lat": 37.5562748764,
    "lng": 127.0117520515,
    "region": "서울",
    "district": "중구"
  },
  {
    "name": "신당역점",
    "address": "서울특별시 중구 다산로 258",
    "phone": "02-2253-0332",
    "lat": 37.5657960248,
    "lng": 127.0166252022,
    "region": "서울",
    "district": "중구"
  },
  {
    "name": "신촌1점",
    "address": "서울특별시 서대문구 신촌로 121",
    "phone": "070-7438-6531",
    "lat": 37.5562107,
    "lng": 126.9393157,
    "region": "서울",
    "district": "서대문구"
  },
  {
    "name": "연세로점",
    "address": "서울특별시 서대문구 연세로 25",
    "phone": "02-322-3669",
    "lat": 37.557894703029945,
    "lng": 126.9366978099806,
    "region": "서울",
    "district": "서대문구"
  },
  {
    "name": "홍제역점",
    "address": "서울특별시 서대문구 통일로 464",
    "phone": "02-391-0332",
    "lat": 37.589962619,
    "lng": 126.9432196281,
    "region": "서울",
    "district": "서대문구"
  },
  {
    "name": "신설동역점",
    "address": "서울특별시 동대문구 보문로 6",
    "phone": "070-7462-6775",
    "lat": 37.5761346723325,
    "lng": 127.02352845643172,
    "region": "서울",
    "district": "동대문구"
  },
  {
    "name": "연희점",
    "address": "서울특별시 서대문구 연희로 97",
    "phone": "02-3144-6633",
    "lat": 37.5668038826,
    "lng": 126.9305145968,
    "region": "서울",
    "district": "서대문구"
  },
  {
    "name": "용산이마트점",
    "address": "서울특별시 용산구 한강대로23길 55",
    "phone": "02-793-0331",
    "lat": 37.5297736038,
    "lng": 126.9647427471,
    "region": "서울",
    "district": "용산구"
  },
  {
    "name": "국제점",
    "address": "서울특별시 용산구 한강대로 92",
    "phone": "02-794-8211",
    "lat": 37.5281742219,
    "lng": 126.9675220252,
    "region": "서울",
    "district": "용산구"
  },
  {
    "name": "왕십리센트라스점",
    "address": "서울특별시 성동구 왕십리로 410",
    "phone": "070-7438-8625",
    "lat": 37.564669126,
    "lng": 127.0292611826,
    "region": "서울",
    "district": "성동구"
  },
  {
    "name": "성신여대입구역점",
    "address": "서울특별시 성북구 동소문로 120",
    "phone": "070-7462-8547",
    "lat": 37.5935068,
    "lng": 127.0184118,
    "region": "서울",
    "district": "성북구"
  },
  {
    "name": "안암오거리점",
    "address": "서울특별시 성북구 안암로 73",
    "phone": "02-922-0332",
    "lat": 37.583038642,
    "lng": 127.0291234555,
    "region": "서울",
    "district": "성북구"
  },
  {
    "name": "동대문구청점",
    "address": "서울특별시 동대문구 고산자로 406",
    "phone": "070-7459-7090",
    "lat": 37.5758074,
    "lng": 127.0385901,
    "region": "서울",
    "district": "동대문구"
  },
  {
    "name": "서교동사거리점",
    "address": "서울특별시 마포구 양화로 100",
    "phone": "02-322-3199",
    "lat": 37.5527047388,
    "lng": 126.9186856652,
    "region": "서울",
    "district": "마포구"
  },
  {
    "name": "녹번대성GS점",
    "address": "서울특별시 은평구 통일로 642",
    "phone": "070-7462-6801",
    "lat": 37.6040784,
    "lng": 126.9352716,
    "region": "서울",
    "district": "은평구"
  },
  {
    "name": "가재울뉴타운점",
    "address": "서울특별시 서대문구 수색로 56",
    "phone": "02-303-0392",
    "lat": 37.5708141022,
    "lng": 126.9127073134,
    "region": "서울",
    "district": "서대문구"
  },
  {
    "name": "종암점",
    "address": "서울특별시 성북구 종암로 123",
    "phone": "070-7462-6709",
    "lat": 37.6010031,
    "lng": 127.033173,
    "region": "서울",
    "district": "성북구"
  },
  {
    "name": "마포구청역점",
    "address": "서울특별시 마포구 월드컵로 155",
    "phone": "070-7462-8524",
    "lat": 37.5613848,
    "lng": 126.9049244,
    "region": "서울",
    "district": "마포구"
  },
  {
    "name": "노량진역점",
    "address": "서울특별시 동작구 노량진로 154-1",
    "phone": "070-7459-7809",
    "lat": 37.51355019817314,
    "lng": 126.94303209401971,
    "region": "서울",
    "district": "동작구"
  },
  {
    "name": "동대문중학교사거리점",
    "address": "서울특별시 동대문구 답십리로41길 33",
    "phone": "070-7461-4716",
    "lat": 37.5734071,
    "lng": 127.0534648,
    "region": "서울",
    "district": "동대문구"
  },
  {
    "name": "불광점",
    "address": "서울특별시 은평구 통일로 750",
    "phone": "070-7462-8633",
    "lat": 37.6123464,
    "lng": 126.9286789,
    "region": "서울",
    "district": "은평구"
  },
  {
    "name": "강남NC점",
    "address": "서울특별시 서초구 잠원로 69",
    "phone": "02-595-9042",
    "lat": 37.5098628752,
    "lng": 127.0071934462,
    "region": "서울",
    "district": "서초구"
  },
  {
    "name": "미아사거리역점",
    "address": "서울특별시 강북구 도봉로 52",
    "phone": "070-7459-6909",
    "lat": 37.61367372822246,
    "lng": 127.03037507327524,
    "region": "서울",
    "district": "강북구"
  },
  {
    "name": "경희대점",
    "address": "서울특별시 동대문구 경희대로 1-1",
    "phone": "070-7462-8543",
    "lat": 37.5918385,
    "lng": 127.0521165,
    "region": "서울",
    "district": "동대문구"
  },
  {
    "name": "반포고속터미널점",
    "address": "서울특별시 서초구 신반포로 194",
    "phone": "02-534-0332",
    "lat": 37.5064354739,
    "lng": 127.0068357234,
    "region": "서울",
    "district": "서초구"
  },
  {
    "name": "청담점",
    "address": "서울특별시 강남구 선릉로 812",
    "phone": "02-3446-7816",
    "lat": 37.5243049057,
    "lng": 127.0397254302,
    "region": "서울",
    "district": "강남구"
  },
  {
    "name": "장안SK점",
    "address": "서울특별시 동대문구 한천로 100",
    "phone": "070-7438-8236",
    "lat": 37.5702088,
    "lng": 127.0650477,
    "region": "서울",
    "district": "동대문구"
  },
  {
    "name": "방배카페골목점",
    "address": "서울특별시 서초구 방배중앙로 200",
    "phone": "02-599-9940",
    "lat": 37.4970246929,
    "lng": 126.9856336645,
    "region": "서울",
    "district": "서초구"
  },
  {
    "name": "영등포KT점",
    "address": "서울특별시 영등포구 영중로 119",
    "phone": "02-2675-0332",
    "lat": 37.5268467809,
    "lng": 126.9051743303,
    "region": "서울",
    "district": "영등포구"
  },
  {
    "name": "장한평역점",
    "address": "서울특별시 동대문구 장한로 26",
    "phone": "070-7459-7370",
    "lat": 37.5635272,
    "lng": 127.066368,
    "region": "서울",
    "district": "동대문구"
  },
  {
    "name": "미아역점",
    "address": "서울특별시 강북구 도봉로 188",
    "phone": "02-988-0332",
    "lat": 37.6256397,
    "lng": 127.0268143,
    "region": "서울",
    "district": "강북구"
  },
  {
    "name": "상암DMC점",
    "address": "서울특별시 마포구 월드컵북로54길 25",
    "phone": "070-7459-7805",
    "lat": 37.58193343672698,
    "lng": 126.88971291367426,
    "region": "서울",
    "district": "마포구"
  },
  {
    "name": "신논현역점",
    "address": "서울특별시 강남구 봉은사로 105",
    "phone": "070-7438-6564",
    "lat": 37.5049634,
    "lng": 127.0250571,
    "region": "서울",
    "district": "강남구"
  },
  {
    "name": "신길점",
    "address": "서울특별시 영등포구 도신로 237",
    "phone": "070-7462-8523",
    "lat": 37.5126727,
    "lng": 126.9171424,
    "region": "서울",
    "district": "영등포구"
  },
  {
    "name": "차병원사거리점",
    "address": "서울특별시 강남구 봉은사로 179",
    "phone": "02-540-0332",
    "lat": 37.5074617005,
    "lng": 127.0333964264,
    "region": "서울",
    "district": "강남구"
  },
  {
    "name": "고양향동점",
    "address": "경기도 고양시 덕양구 향기로 101",
    "phone": "070-7459-7298",
    "lat": 37.5992292,
    "lng": 126.8927452,
    "region": "경기도",
    "district": "고양시"
  },
  {
    "name": "박석고개SK점",
    "address": "서울특별시 은평구 통일로 945",
    "phone": "070-7462-6723",
    "lat": 37.6272857513,
    "lng": 126.9193974605,
    "region": "서울",
    "district": "은평구"
  },
  {
    "name": "건대입구역점",
    "address": "서울특별시 광진구 아차산로 229",
    "phone": "070-7462-6823",
    "lat": 37.5408305,
    "lng": 127.0690816,
    "region": "서울",
    "district": "광진구"
  },
  {
    "name": "신대방삼거리역점",
    "address": "서울특별시 동작구 상도로 83",
    "phone": "070-7462-6791",
    "lat": 37.4999121,
    "lng": 126.9299862,
    "region": "서울",
    "district": "동작구"
  },
  {
    "name": "석관점",
    "address": "서울특별시 성북구 돌곶이로 50",
    "phone": "070-5138-3074",
    "lat": 37.6085901042,
    "lng": 127.0596213448,
    "region": "서울",
    "district": "성북구"
  },
  {
    "name": "교대역점",
    "address": "서울특별시 서초구 서초대로 283",
    "phone": "02-596-0332",
    "lat": 37.4936767428,
    "lng": 127.0126966321,
    "region": "서울",
    "district": "서초구"
  },
  {
    "name": "강남대로점",
    "address": "서울특별시 강남구 강남대로 406",
    "phone": "02-566-0332",
    "lat": 37.4990209,
    "lng": 127.0276559,
    "region": "서울",
    "district": "강남구"
  },
  {
    "name": "수유역점",
    "address": "서울특별시 강북구 도봉로 314",
    "phone": "070-7462-6837",
    "lat": 37.6361131,
    "lng": 127.024184,
    "region": "서울",
    "district": "강북구"
  },
  {
    "name": "군자능동점",
    "address": "서울특별시 광진구 능동로 245",
    "phone": "070-7462-6703",
    "lat": 37.5522322045,
    "lng": 127.076538112,
    "region": "서울",
    "district": "광진구"
  },
  {
    "name": "양평점",
    "address": "서울특별시 영등포구 선유로 130",
    "phone": "070-7462-6840",
    "lat": 37.5254958,
    "lng": 126.8913574,
    "region": "서울",
    "district": "영등포구"
  },
  {
    "name": "건대스타시티점",
    "address": "서울특별시 광진구 아차산로 272 스타시티몰 시티존",
    "phone": "070-7459-7379",
    "lat": 37.5385583,
    "lng": 127.0729962,
    "region": "서울",
    "district": "광진구"
  },
  {
    "name": "삼성중앙역점",
    "address": "서울특별시 강남구 봉은사로 502",
    "phone": "070-7438-6574",
    "lat": 37.5128872,
    "lng": 127.0538726,
    "region": "서울",
    "district": "강남구"
  },
  {
    "name": "중랑역점",
    "address": "서울특별시 중랑구 망우로30길 3",
    "phone": "070-7459-7323",
    "lat": 37.5930848,
    "lng": 127.074771,
    "region": "서울",
    "district": "중랑구"
  },
  {
    "name": "방배점",
    "address": "서울특별시 서초구 방배로 127",
    "phone": "070-7462-6795",
    "lat": 37.4852681,
    "lng": 126.994873,
    "region": "서울",
    "district": "서초구"
  },
  {
    "name": "군자역점",
    "address": "서울특별시 광진구 천호대로 575",
    "phone": "070-7459-7294",
    "lat": 37.5564985,
    "lng": 127.0821439,
    "region": "서울",
    "district": "광진구"
  },
  {
    "name": "염창역점",
    "address": "서울특별시 양천구 공항대로 630",
    "phone": "070-7462-6819",
    "lat": 37.5465353,
    "lng": 126.8747144,
    "region": "서울",
    "district": "양천구"
  },
  {
    "name": "선릉역점",
    "address": "서울특별시 강남구 선릉로 429",
    "phone": "02-3452-0377",
    "lat": 37.5032033832,
    "lng": 127.0493137037,
    "region": "서울",
    "district": "강남구"
  },
  {
    "name": "당곡역점",
    "address": "서울특별시 관악구 보라매로 13",
    "phone": "070-7459-7342",
    "lat": 37.4906059,
    "lng": 126.9270994,
    "region": "서울",
    "district": "관악구"
  },
  {
    "name": "사당역점",
    "address": "서울특별시 동작구 동작대로 21",
    "phone": "02-583-0332",
    "lat": 37.4784813521,
    "lng": 126.9813636536,
    "region": "서울",
    "district": "동작구"
  },
  {
    "name": "서울대입구역점",
    "address": "서울특별시 관악구 남부순환로 1796",
    "phone": "070-7462-6868",
    "lat": 37.4813393,
    "lng": 126.9496075,
    "region": "서울",
    "district": "관악구"
  },
  {
    "name": "등촌역점",
    "address": "서울특별시 강서구 공항대로 549",
    "phone": "070-7462-8542",
    "lat": 37.5502213,
    "lng": 126.8670783,
    "region": "서울",
    "district": "강서구"
  },
  {
    "name": "면목역점",
    "address": "서울특별시 중랑구 겸재로 180",
    "phone": "070-7462-8558",
    "lat": 37.5882095,
    "lng": 127.0879653,
    "region": "서울",
    "district": "중랑구"
  },
  {
    "name": "아차산역점",
    "address": "서울특별시 광진구 천호대로 661",
    "phone": "070-7459-7045",
    "lat": 37.5520228,
    "lng": 127.0901281,
    "region": "서울",
    "district": "광진구"
  },
  {
    "name": "먹골역점",
    "address": "서울특별시 중랑구 동일로 890",
    "phone": "070-7462-6725",
    "lat": 37.6099163323,
    "lng": 127.0781872978,
    "region": "서울",
    "district": "중랑구"
  },
  {
    "name": "낙성대점",
    "address": "서울특별시 관악구 남부순환로 1934",
    "phone": "070-7438-8235",
    "lat": 37.4766355936,
    "lng": 126.9637366697,
    "region": "서울",
    "district": "관악구"
  },
  {
    "name": "쌍문역점",
    "address": "서울특별시 도봉구 도봉로 461",
    "phone": "070-7459-6862",
    "lat": 37.64701873292119,
    "lng": 127.03342168145667,
    "region": "서울",
    "district": "도봉구"
  },
  {
    "name": "신림역점",
    "address": "서울특별시 관악구 신림로 318",
    "phone": "070-7462-8763",
    "lat": 37.4825744412,
    "lng": 126.9302534836,
    "region": "서울",
    "district": "관악구"
  },
  {
    "name": "오목교점",
    "address": "서울특별시 양천구 신목로 88",
    "phone": "070-7459-7579",
    "lat": 37.52246675681174,
    "lng": 126.87478986669261,
    "region": "서울",
    "district": "양천구"
  },
  {
    "name": "대치점",
    "address": "서울특별시 강남구 도곡로 447",
    "phone": "02-556-8595",
    "lat": 37.4986937546,
    "lng": 127.0593167322,
    "region": "서울",
    "district": "강남구"
  },
  {
    "name": "양재점",
    "address": "서울특별시 서초구 강남대로 221",
    "phone": "02-577-0407",
    "lat": 37.483307215,
    "lng": 127.0344258652,
    "region": "서울",
    "district": "서초구"
  },
  {
    "name": "구로거리공원점",
    "address": "서울특별시 구로구 공원로 91",
    "phone": "070-7459-6880",
    "lat": 37.504436875764476,
    "lng": 126.88724126690617,
    "region": "서울",
    "district": "구로구"
  },
  {
    "name": "구의점",
    "address": "서울특별시 광진구 아차산로 466",
    "phone": "070-7438-6504",
    "lat": 37.5397064,
    "lng": 127.0939346,
    "region": "서울",
    "district": "광진구"
  },
  {
    "name": "공릉역점",
    "address": "서울특별시 노원구 동일로 1085",
    "phone": "070-7438-8217",
    "lat": 37.6266938,
    "lng": 127.0721192,
    "region": "서울",
    "district": "노원구"
  },
  {
    "name": "강남도곡점",
    "address": "서울특별시 강남구 논현로 172",
    "phone": "070-7462-6846",
    "lat": 37.48488,
    "lng": 127.0419322,
    "region": "서울",
    "district": "강남구"
  },
  {
    "name": "종합운동장사거리점",
    "address": "서울특별시 송파구 올림픽로 76",
    "phone": "070-7462-6856",
    "lat": 37.5115631,
    "lng": 127.0792026,
    "region": "서울",
    "district": "송파구"
  },
  {
    "name": "가양역점",
    "address": "서울특별시 강서구 양천로 476",
    "phone": "070-7462-6886",
    "lat": 37.5616037,
    "lng": 126.8532854,
    "region": "서울",
    "district": "강서구"
  },
  {
    "name": "망우점",
    "address": "서울특별시 중랑구 망우로 400",
    "phone": "070-7438-6513",
    "lat": 37.5986769,
    "lng": 127.0965557,
    "region": "서울",
    "district": "중랑구"
  },
  {
    "name": "구로구청점",
    "address": "서울특별시 구로구 가마산로 250",
    "phone": "02-856-0332",
    "lat": 37.4948404,
    "lng": 126.8886891,
    "region": "서울",
    "district": "구로구"
  },
  {
    "name": "신림미림여고입구점",
    "address": "서울특별시 관악구 신림로 141",
    "phone": "070-7462-8503",
    "lat": 37.4716121,
    "lng": 126.9334537,
    "region": "서울",
    "district": "관악구"
  },
  {
    "name": "화랑대역점",
    "address": "서울특별시 노원구 노원로 3",
    "phone": "070-7462-8555",
    "lat": 37.6219901,
    "lng": 127.0866513,
    "region": "서울",
    "district": "노원구"
  },
  {
    "name": "쌍문점",
    "address": "서울특별시 도봉구 도당로 6",
    "phone": "02-997-0233",
    "lat": 37.6587126844,
    "lng": 127.0353725363,
    "region": "서울",
    "district": "도봉구"
  },
  {
    "name": "창동역점",
    "address": "서울특별시 도봉구 노해로 389",
    "phone": "070-7462-6839",
    "lat": 37.6527753,
    "lng": 127.0513676,
    "region": "서울",
    "district": "도봉구"
  },
  {
    "name": "스타필드고양점",
    "address": "경기도 고양시 덕양구 고양대로 1955",
    "phone": "070-7438-8238",
    "lat": 37.6469763082,
    "lng": 126.8947784062,
    "region": "경기도",
    "district": "고양시"
  },
  {
    "name": "구로점",
    "address": "서울특별시 구로구 시흥대로 551",
    "phone": "070-7462-8527",
    "lat": 37.4825399,
    "lng": 126.9002463,
    "region": "서울",
    "district": "구로구"
  },
  {
    "name": "구로전화국사거리점",
    "address": "서울특별시 관악구 남부순환로 1377",
    "phone": "070-7459-7585",
    "lat": 37.48008539461283,
    "lng": 126.9038072930663,
    "region": "서울",
    "district": "관악구"
  },
  {
    "name": "하계점",
    "address": "서울특별시 노원구 노원로 236",
    "phone": "070-7462-8665",
    "lat": 37.6391058,
    "lng": 127.0751285,
    "region": "서울",
    "district": "노원구"
  },
  {
    "name": "노원역점",
    "address": "서울특별시 노원구 노해로 456",
    "phone": "070-7462-6806",
    "lat": 37.6535305,
    "lng": 127.0586717,
    "region": "서울",
    "district": "노원구"
  },
  {
    "name": "신정네거리역점",
    "address": "서울특별시 양천구 중앙로 275",
    "phone": "070-7438-6521",
    "lat": 37.5207853,
    "lng": 126.852237,
    "region": "서울",
    "district": "양천구"
  },
  {
    "name": "가산이앤씨7점",
    "address": "서울특별시 금천구 디지털로9길 46",
    "phone": "070-7438-8601",
    "lat": 37.4800579058,
    "lng": 126.8870987418,
    "region": "서울",
    "district": "금천구"
  },
  {
    "name": "내발산점",
    "address": "서울특별시 강서구 강서로 308",
    "phone": "070-7438-6565",
    "lat": 37.5531306,
    "lng": 126.8368615,
    "region": "서울",
    "district": "강서구"
  },
  {
    "name": "화곡역점",
    "address": "서울특별시 강서구 화곡로 146",
    "phone": "070-7462-8540",
    "lat": 37.5405706,
    "lng": 126.8376195,
    "region": "서울",
    "district": "강서구"
  },
  {
    "name": "마곡점",
    "address": "서울특별시 강서구 마곡동로 56",
    "phone": "070-7462-6739",
    "lat": 37.55997871446434,
    "lng": 126.83380170926371,
    "region": "서울",
    "district": "강서구"
  },
  {
    "name": "금천독산점",
    "address": "서울특별시 금천구 시흥대로 421",
    "phone": "070-7459-7091",
    "lat": 37.4712638,
    "lng": 126.8977957,
    "region": "서울",
    "district": "금천구"
  },
  {
    "name": "고양서정마을점",
    "address": "경기도 고양시 덕양구 중앙로 439",
    "phone": "070-7459-7526",
    "lat": 37.617630647783415,
    "lng": 126.8463378793484,
    "region": "경기도",
    "district": "고양시"
  },
  {
    "name": "원흥역점",
    "address": "경기도 고양시 덕양구 권율대로 685",
    "phone": "070-7459-6931",
    "lat": 37.65120490249782,
    "lng": 126.8741637734672,
    "region": "경기도",
    "district": "고양시"
  },
  {
    "name": "석촌점",
    "address": "서울특별시 송파구 송파대로 448",
    "phone": "02-424-6313",
    "lat": 37.5065967983,
    "lng": 127.1063859654,
    "region": "서울",
    "district": "송파구"
  },
  {
    "name": "고양삼송점",
    "address": "경기도 고양시 권율대로 907",
    "phone": "070-7438-6561",
    "lat": 37.6644313,
    "lng": 126.891118,
    "region": "경기도",
    "district": "고양시"
  },
  {
    "name": "마곡원그로브몰점",
    "address": "서울특별시 강서구 공항대로 165, 원그로브몰 B동 지하1층",
    "phone": "070-7459-7517",
    "lat": 37.56135454482687,
    "lng": 126.82684174793084,
    "region": "서울",
    "district": "강서구"
  },
  {
    "name": "천호역점",
    "address": "서울특별시 강동구 천호대로 1024",
    "phone": "070-7459-7597",
    "lat": 37.537586218164414,
    "lng": 127.1256847704619,
    "region": "서울",
    "district": "강동구"
  },
  {
    "name": "강동구청점",
    "address": "서울특별시 강동구 성내로 22",
    "phone": "070-7462-6822",
    "lat": 37.5296075,
    "lng": 127.1228378,
    "region": "서울",
    "district": "강동구"
  },
  {
    "name": "송파나루역점",
    "address": "서울특별시 송파구 백제고분로 446",
    "phone": "070-7459-7322",
    "lat": 37.5104529,
    "lng": 127.1127386,
    "region": "서울",
    "district": "송파구"
  },
  {
    "name": "신월남부점",
    "address": "서울특별시 양천구 남부순환로 584",
    "phone": "070-7459-6926",
    "lat": 37.51668012783531,
    "lng": 126.83923446583894,
    "region": "서울",
    "district": "양천구"
  },
  {
    "name": "신월점",
    "address": "서울특별시 양천구 화곡로 64",
    "phone": "070-7462-6708",
    "lat": 37.5390578392,
    "lng": 126.8289556158,
    "region": "서울",
    "district": "양천구"
  },
  {
    "name": "개봉점",
    "address": "서울특별시 구로구 개봉로 55",
    "phone": "070-7438-8623",
    "lat": 37.4905635,
    "lng": 126.8557103,
    "region": "서울",
    "district": "구로구"
  },
  {
    "name": "고양행신역점",
    "address": "경기도 고양시 덕양구 충장로 3",
    "phone": "070-7462-8588",
    "lat": 37.6132354,
    "lng": 126.8337261,
    "region": "경기도",
    "district": "고양시"
  },
  {
    "name": "금천구청입구삼거리점",
    "address": "서울특별시 금천구 시흥대로 265",
    "phone": "070-7459-7529",
    "lat": 37.45732089431187,
    "lng": 126.89917341983264,
    "region": "서울",
    "district": "금천구"
  },
  {
    "name": "광명철산점",
    "address": "경기도 광명시 오리로 870",
    "phone": "070-7459-7017",
    "lat": 37.4760713,
    "lng": 126.8659802,
    "region": "경기도",
    "district": "광명시"
  },
  {
    "name": "수서점",
    "address": "서울특별시 강남구 광평로 280",
    "phone": "02-3412-1557",
    "lat": 37.4873181732,
    "lng": 127.1031067143,
    "region": "서울",
    "district": "강남구"
  },
  {
    "name": "구리갈매점",
    "address": "경기도 구리시 산마루로 24",
    "phone": "070-7438-6514",
    "lat": 37.6310929,
    "lng": 127.1165641,
    "region": "경기도",
    "district": "구리시"
  },
  {
    "name": "구리SK점",
    "address": "경기도 구리시 경춘로 196",
    "phone": "070-7462-8798",
    "lat": 37.6002832785,
    "lng": 127.1370988701,
    "region": "경기도",
    "district": "구리시"
  },
  {
    "name": "둔촌GS FS점",
    "address": "서울특별시 강동구 양재대로 1323",
    "phone": "070-7462-6767",
    "lat": 37.52453422376118,
    "lng": 127.13442157252155,
    "region": "서울",
    "district": "강동구"
  },
  {
    "name": "길동사거리점",
    "address": "서울특별시 강동구 양재대로 1440",
    "phone": "02-471-0332",
    "lat": 37.5343893117,
    "lng": 127.1391414175,
    "region": "서울",
    "district": "강동구"
  },
  {
    "name": "송정역점",
    "address": "서울특별시 강서구 공항대로 32",
    "phone": "070-7462-8677",
    "lat": 37.5610338,
    "lng": 126.8107236,
    "region": "서울",
    "district": "강서구"
  },
  {
    "name": "일산화정오일뱅크점",
    "address": "경기도 고양시 덕양구 화중로 38",
    "phone": "031-938-0332",
    "lat": 37.6307282,
    "lng": 126.8303567,
    "region": "경기도",
    "district": "고양시"
  },
  {
    "name": "구리인창점",
    "address": "경기도 구리시 건원대로33번길 4",
    "phone": "070-7459-7078",
    "lat": 37.6042407,
    "lng": 127.139861,
    "region": "경기도",
    "district": "구리시"
  },
  {
    "name": "가락시장역점",
    "address": "서울특별시 송파구 중대로 118",
    "phone": "070-7459-7202",
    "lat": 37.4936947,
    "lng": 127.121636,
    "region": "서울",
    "district": "송파구"
  },
  {
    "name": "남양주별내신안점",
    "address": "경기도 남양주시 별내5로5번길 7",
    "phone": "070-7459-7382",
    "lat": 37.6501206,
    "lng": 127.1128974,
    "region": "경기도",
    "district": "남양주시"
  },
  {
    "name": "과천중앙점",
    "address": "경기도 과천시 중앙로 129",
    "phone": "02-504-0332",
    "lat": 37.4283068535,
    "lng": 126.9910021382,
    "region": "경기도",
    "district": "과천시"
  },
  {
    "name": "원당성사캠퍼스점",
    "address": "경기도 고양시 덕양구 고양대로 1415, 창조혁신캠퍼스",
    "phone": "070-7459-7520",
    "lat": 37.65389285038233,
    "lng": 126.84069697346108,
    "region": "경기도",
    "district": "고양시"
  },
  {
    "name": "문정역점",
    "address": "서울특별시 송파구 법원로 8길 13",
    "phone": "070-7462-6747",
    "lat": 37.48455358630912,
    "lng": 127.12230609148229,
    "region": "서울",
    "district": "송파구"
  },
  {
    "name": "문정점",
    "address": "서울특별시 송파구 송이로 239",
    "phone": "02-431-0332",
    "lat": 37.4880581,
    "lng": 127.1317394,
    "region": "서울",
    "district": "송파구"
  },
  {
    "name": "부천원종점",
    "address": "경기도 부천시 오정구 소사로 713",
    "phone": "032-672-0302",
    "lat": 37.5196592255,
    "lng": 126.8045209253,
    "region": "경기도",
    "district": "부천시"
  },
  {
    "name": "남양주별내오일뱅크점",
    "address": "경기도 남양주시 송산로 149",
    "phone": "070-7462-6871",
    "lat": 37.6557868,
    "lng": 127.1293589,
    "region": "경기도",
    "district": "남양주시"
  },
  {
    "name": "하남감일점",
    "address": "경기도 하남시 감일중앙로 56",
    "phone": "070-7459-7588",
    "lat": 37.508447500712165,
    "lng": 127.1535785666155,
    "region": "경기도",
    "district": "하남시"
  },
  {
    "name": "거여역점",
    "address": "서울특별시 송파구 오금로 519",
    "phone": "070-7438-8219",
    "lat": 37.4930964198,
    "lng": 127.1465189543,
    "region": "서울",
    "district": "송파구"
  },
  {
    "name": "위례신도시GS점",
    "address": "서울특별시 송파구 위례중앙로43",
    "phone": "070-7462-6773",
    "lat": 37.4753528,
    "lng": 127.1322885,
    "region": "서울",
    "district": "송파구"
  },
  {
    "name": "광명소하DT점",
    "address": "경기도 광명시 오리로 361",
    "phone": "070-7462-6721",
    "lat": 37.4345958382,
    "lng": 126.8792034531,
    "region": "경기도",
    "district": "광명시"
  },
  {
    "name": "부천역곡점",
    "address": "경기도 부천시 소사구 경인로 509",
    "phone": "070-7459-7541",
    "lat": 37.48448859822146,
    "lng": 126.8117354675739,
    "region": "경기도",
    "district": "부천시"
  },
  {
    "name": "김포현대아울렛",
    "address": "경기도 김포시 고촌읍 아라육로 152번길 100",
    "phone": "031-8048-2503",
    "lat": 37.5972374892,
    "lng": 126.7852355497,
    "region": "경기도",
    "district": "김포시"
  },
  {
    "name": "고양덕양FS점",
    "address": "경기도 고양시 덕양구 호국로 1821",
    "phone": "070-7462-6800",
    "lat": 37.71299,
    "lng": 126.9081353,
    "region": "경기도",
    "district": "고양시"
  },
  {
    "name": "부천옥길점",
    "address": "경기도 부천시 옥길로 118",
    "phone": "070-7462-6884",
    "lat": 37.4673099,
    "lng": 126.8229137,
    "region": "경기도",
    "district": "부천시"
  },
  {
    "name": "남양주다산지금점",
    "address": "경기도 남양주시 다산지금로 132",
    "phone": "070-7438-6530",
    "lat": 37.6012393,
    "lng": 127.1735477,
    "region": "경기도",
    "district": "남양주시"
  },
  {
    "name": "위례광장점",
    "address": "경기도 성남시 수정구 위례광장로 328 경기도 성남시 수정구 위례광장로 328",
    "phone": "070-7459-7345",
    "lat": 37.4713622,
    "lng": 127.1428108,
    "region": "경기도",
    "district": "성남시"
  },
  {
    "name": "광명역점",
    "address": "경기도 광명시 신기로 21",
    "phone": "070-7459-7532",
    "lat": 37.420105602410544,
    "lng": 126.88366798122445,
    "region": "경기도",
    "district": "광명시"
  },
  {
    "name": "안양관양점",
    "address": "경기도 안양시 동안구 관악대로 312",
    "phone": "070-7462-6734",
    "lat": 37.40277915043615,
    "lng": 126.95765527972549,
    "region": "경기도",
    "district": "안양시"
  },
  {
    "name": "하남미사점",
    "address": "경기도 하남시 미사강변대로 48",
    "phone": "070-7462-6877",
    "lat": 37.554348,
    "lng": 127.1862171,
    "region": "경기도",
    "district": "하남시"
  },
  {
    "name": "인덕원역점",
    "address": "경기도 안양시 동안구 흥안대로 525",
    "phone": "070-7459-7582",
    "lat": 37.40084160550612,
    "lng": 126.97633231092206,
    "region": "경기도",
    "district": "안양시"
  },
  {
    "name": "고양터미널점",
    "address": "경기도 고양시 일산동구 중앙로 1036",
    "phone": "070-7462-8799",
    "lat": 37.6431777371,
    "lng": 126.7896627969,
    "region": "경기도",
    "district": "고양시"
  },
  {
    "name": "부천소사점",
    "address": "경기도 부천시 소사구 소사로 236",
    "phone": "070-7459-6883",
    "lat": 37.47932662000832,
    "lng": 126.79576079797687,
    "region": "경기도",
    "district": "부천시"
  },
  {
    "name": "평촌금성GS점",
    "address": "경기도 안양시 동안구 시민대로 325",
    "phone": "031-423-0332",
    "lat": 37.3961229,
    "lng": 126.9661434,
    "region": "경기도",
    "district": "안양시"
  },
  {
    "name": "미사역파라곤스퀘어점",
    "address": "경기도 하남시 미사강변동로 100-1",
    "phone": "070-7461-4753",
    "lat": 37.5639612,
    "lng": 127.1936001,
    "region": "경기도",
    "district": "하남시"
  },
  {
    "name": "의정부발곡역점",
    "address": "경기도 의정부시 회룡로 181",
    "phone": "070-7459-7273",
    "lat": 37.7267562,
    "lng": 127.0537435,
    "region": "경기도",
    "district": "의정부시"
  },
  {
    "name": "부천중동점",
    "address": "경기도 부천시 신흥로 163",
    "phone": "032-328-0332",
    "lat": 37.4982314668,
    "lng": 126.7769971968,
    "region": "경기도",
    "district": "부천시"
  },
  {
    "name": "부천북부역점",
    "address": "경기도 부천시 부천로 25",
    "phone": "070-7462-6777",
    "lat": 37.486695012047136,
    "lng": 126.78281159838245,
    "region": "경기도",
    "district": "부천시"
  },
  {
    "name": "일산백마학원가점",
    "address": "경기도 고양시 일산동구 일산로 226",
    "phone": "070-7459-7212",
    "lat": 37.6565982,
    "lng": 126.7892104,
    "region": "경기도",
    "district": "고양시"
  },
  {
    "name": "성남태평점",
    "address": "경기도 성남시 수정구 수정로 95",
    "phone": "070-7459-6897",
    "lat": 37.44081241917825,
    "lng": 127.13091803671233,
    "region": "경기도",
    "district": "성남시"
  },
  {
    "name": "성남이마트점",
    "address": "경기도 성남시 수정구 수정로 201",
    "phone": "031-758-0332",
    "lat": 37.4442863,
    "lng": 127.141411,
    "region": "경기도",
    "district": "성남시"
  },
  {
    "name": "부천시청역점",
    "address": "경기도 부천시 원미구 길주로 221",
    "phone": "070-7459-6853",
    "lat": 37.50456165300726,
    "lng": 126.76716228006782,
    "region": "경기도",
    "district": "부천시"
  },
  {
    "name": "의정부신세계점",
    "address": "경기도 의정부시 평화로 525",
    "phone": "031-8082-0254",
    "lat": 37.737991323,
    "lng": 127.0458794509,
    "region": "경기도",
    "district": "의정부시"
  },
  {
    "name": "의정부서부역점",
    "address": "경기도 의정부시 신흥로 252",
    "phone": "070-7462-6815",
    "lat": 37.7387916,
    "lng": 127.0434126,
    "region": "경기도",
    "district": "의정부시"
  },
  {
    "name": "하남이마트점",
    "address": "경기도 하남시 덕풍서로 70",
    "phone": "031-795-0237",
    "lat": 37.552748751,
    "lng": 127.2053704382,
    "region": "경기도",
    "district": "하남시"
  },
  {
    "name": "일산마두점",
    "address": "경기도 고양시 일산동구 장백로 194",
    "phone": "031-908-5833",
    "lat": 37.6520879915,
    "lng": 126.776669367,
    "region": "경기도",
    "district": "고양시"
  },
  {
    "name": "의정부용현DT점",
    "address": "경기도 의정부시 시민로 462",
    "phone": "070-7462-6838",
    "lat": 37.7308685,
    "lng": 127.0834302,
    "region": "경기도",
    "district": "의정부시"
  },
  {
    "name": "평촌학원가점",
    "address": "경기도 안양시 동안구 평촌대로 112",
    "phone": "031-386-0332",
    "lat": 37.3825325907,
    "lng": 126.9612031013,
    "region": "경기도",
    "district": "안양시"
  },
  {
    "name": "성남신흥점",
    "address": "경기도 성남시 수정구 산성대로 305",
    "phone": "070-7438-6539",
    "lat": 37.442481,
    "lng": 127.1505979,
    "region": "경기도",
    "district": "성남시"
  },
  {
    "name": "시흥대야점",
    "address": "경기도 시흥시 은계중앙로 374",
    "phone": "070-7459-7291",
    "lat": 37.4509004,
    "lng": 126.795071,
    "region": "경기도",
    "district": "시흥시"
  },
  {
    "name": "일산풍산역점",
    "address": "경기도 고양시 일산동구 중산로 3",
    "phone": "070-7459-7373",
    "lat": 37.6732464,
    "lng": 126.7863338,
    "region": "경기도",
    "district": "고양시"
  },
  {
    "name": "성남중원구청사거리점",
    "address": "경기도 성남시 중원구 제일로 22",
    "phone": "070-7459-7282",
    "lat": 37.4295378,
    "lng": 127.1376229,
    "region": "경기도",
    "district": "성남시"
  },
  {
    "name": "의정부DT점",
    "address": "경기도 의정부시 호국로1336번길 1",
    "phone": "031-821-0332",
    "lat": 37.7440772,
    "lng": 127.0527453,
    "region": "경기도",
    "district": "의정부시"
  },
  {
    "name": "부천세이브존점",
    "address": "경기도 부천시 원미구 길주로 105",
    "phone": "032-322-0203",
    "lat": 37.5063924403,
    "lng": 126.7541359699,
    "region": "경기도",
    "district": "부천시"
  },
  {
    "name": "일산호수공원점",
    "address": "경기도 고양시 일산동구 중앙로1275번길 38-10",
    "phone": "031-932-0334",
    "lat": 37.6599154446,
    "lng": 126.7708932127,
    "region": "경기도",
    "district": "고양시"
  },
  {
    "name": "하남시청점",
    "address": "경기도 하남시 대청로 26",
    "phone": "070-7459-7385",
    "lat": 37.5404395,
    "lng": 127.2150932,
    "region": "경기도",
    "district": "하남시"
  },
  {
    "name": "시흥은계점",
    "address": "경기도 시흥시 은계번영길 9",
    "phone": "070-7438-6538",
    "lat": 37.4374767,
    "lng": 126.8016257,
    "region": "경기도",
    "district": "시흥시"
  },
  {
    "name": "인천계양구청점",
    "address": "인천광역시 계양구 장제로 804",
    "phone": "032-552-0332",
    "lat": 37.539482546,
    "lng": 126.7349595012,
    "region": "인천",
    "district": "계양구"
  },
  {
    "name": "송내역점",
    "address": "경기도 부천시 부일로 203",
    "phone": "070-7462-6825",
    "lat": 37.4891583,
    "lng": 126.7524351,
    "region": "경기도",
    "district": "부천시"
  },
  {
    "name": "판교유스페이스점",
    "address": "경기도 성남시 분당구 대왕판교로 660",
    "phone": "070-7462-8657",
    "lat": 37.4004659,
    "lng": 127.1068126,
    "region": "경기도",
    "district": "성남시"
  },
  {
    "name": "안양호계점",
    "address": "경기도 안양시 동안구 경수대로 548",
    "phone": "070-7438-8155",
    "lat": 37.3716298,
    "lng": 126.9582585,
    "region": "경기도",
    "district": "안양시"
  },
  {
    "name": "분당차병원점",
    "address": "경기도 성남시 분당구 야탑로 64",
    "phone": "070-7438-8627",
    "lat": 37.4095024979,
    "lng": 127.1259792084,
    "region": "경기도",
    "district": "성남시"
  },
  {
    "name": "일산산들마을사거리점",
    "address": "경기도 고양시 일산동구 고봉로 260",
    "phone": "070-7459-6865",
    "lat": 37.68238125863843,
    "lng": 126.77824429141512,
    "region": "경기도",
    "district": "고양시"
  },
  {
    "name": "분당야탑점",
    "address": "경기도 성남시 분당구 성남대로916번길 11",
    "phone": "031-706-0334",
    "lat": 37.4108570581,
    "lng": 127.1298400333,
    "region": "경기도",
    "district": "성남시"
  },
  {
    "name": "김포풍무역점",
    "address": "경기도 김포시 유현로 234",
    "phone": "070-7438-6560",
    "lat": 37.6113568,
    "lng": 126.7312446,
    "region": "경기도",
    "district": "김포시"
  },
  {
    "name": "인천계산점",
    "address": "인천광역시 계양구 경명대로 1074",
    "phone": "070-7459-7576",
    "lat": 37.54316822529166,
    "lng": 126.72604517429274,
    "region": "인천",
    "district": "계양구"
  },
  {
    "name": "의정부민락점",
    "address": "경기도 의정부시 천보로 68",
    "phone": "070-7462-6741",
    "lat": 37.74545152973826,
    "lng": 127.09411903699764,
    "region": "경기도",
    "district": "의정부시"
  },
  {
    "name": "삼산SK점",
    "address": "인천광역시 부평구 장제로 347",
    "phone": "032-506-3643",
    "lat": 37.5164892143,
    "lng": 126.7318419734,
    "region": "인천",
    "district": "부평구"
  },
  {
    "name": "주엽역점",
    "address": "경기도 고양시 일산서구 중앙로 1443",
    "phone": "070-7462-6736",
    "lat": 37.67039500746555,
    "lng": 126.75971214474413,
    "region": "경기도",
    "district": "고양시"
  },
  {
    "name": "산본점",
    "address": "경기도 군포시 산본로 382",
    "phone": "031-395-0332",
    "lat": 37.3643682067,
    "lng": 126.9303765859,
    "region": "경기도",
    "district": "군포시"
  },
  {
    "name": "인천작전점",
    "address": "인천광역시 계양구 계양대로 37",
    "phone": "032-555-0332",
    "lat": 37.5271162749,
    "lng": 126.7219978104,
    "region": "인천",
    "district": "계양구"
  },
  {
    "name": "시흥목감SK점",
    "address": "경기도 시흥시 동서로 996",
    "phone": "070-7438-8619",
    "lat": 37.3791739236,
    "lng": 126.8549855951,
    "region": "경기도",
    "district": "시흥시"
  },
  {
    "name": "산본역점",
    "address": "경기도 군포시 광정로 59",
    "phone": "070-7459-7801",
    "lat": 37.35835651562752,
    "lng": 126.93025955403151,
    "region": "경기도",
    "district": "군포시"
  },
  {
    "name": "부평시장역점",
    "address": "인천광역시 부평구 부평대로 90",
    "phone": "070-7462-6765",
    "lat": 37.4995605,
    "lng": 126.7224707,
    "region": "인천",
    "district": "부평구"
  },
  {
    "name": "검단신도시점",
    "address": "인천광역시 서구 원당대로 983",
    "phone": "070-7459-7591",
    "lat": 37.592178456634215,
    "lng": 126.71049209718821,
    "region": "인천",
    "district": "서구"
  },
  {
    "name": "고양덕이DT점",
    "address": "경기도 고양시 일산서구 경의로 850",
    "phone": "070-7462-6885",
    "lat": 37.6933602,
    "lng": 126.7598128,
    "region": "경기도",
    "district": "고양시"
  },
  {
    "name": "분당서현점",
    "address": "경기도 성남시 분당구 분당로53번길 19",
    "phone": "031-704-8199",
    "lat": 37.3845216,
    "lng": 127.1221786,
    "region": "경기도",
    "district": "성남시"
  },
  {
    "name": "부평역남부점",
    "address": "인천광역시 부평구 경인로 956",
    "phone": "070-7459-6890",
    "lat": 37.487223293136,
    "lng": 126.72593778438949,
    "region": "인천",
    "district": "부평구"
  },
  {
    "name": "부평역점",
    "address": "인천광역시 부평구 부평대로 5",
    "phone": "070-7459-7074",
    "lat": 37.4919374,
    "lng": 126.7228284,
    "region": "인천",
    "district": "부평구"
  },
  {
    "name": "남양주진접FS점",
    "address": "경기도 남양주시 진접읍 해밀예당1로 13",
    "phone": "070-7462-6768",
    "lat": 37.71085859249897,
    "lng": 127.18487521437571,
    "region": "경기도",
    "district": "남양주시"
  },
  {
    "name": "남양주오남점",
    "address": "경기도 남양주시 오남읍 진건오남로 566",
    "phone": "070-7459-7570",
    "lat": 37.6843046,
    "lng": 127.21185,
    "region": "경기도",
    "district": "남양주시"
  },
  {
    "name": "남양주평내점",
    "address": "경기도 남양주시 경춘로 1298",
    "phone": "070-7459-7092",
    "lat": 37.6491325,
    "lng": 127.2368308,
    "region": "경기도",
    "district": "남양주시"
  },
  {
    "name": "파주봉일천점",
    "address": "경기도 파주시 조리읍 통일로 329",
    "phone": "070-7459-7504",
    "lat": 37.7446673,
    "lng": 126.8081673,
    "region": "경기도",
    "district": "파주시"
  },
  {
    "name": "인천만수역점",
    "address": "인천광역시 남동구 구월로 376",
    "phone": "070-7462-6746",
    "lat": 37.454713710441496,
    "lng": 126.73230681015276,
    "region": "인천",
    "district": "남동구"
  },
  {
    "name": "인천서창SK점",
    "address": "인천광역시 남동구 서창방산로 112",
    "phone": "070-7438-6520",
    "lat": 37.4246503,
    "lng": 126.7566715,
    "region": "인천",
    "district": "남동구"
  },
  {
    "name": "파주야당역점",
    "address": "경기도 파주시 소리천로8번길 36",
    "phone": "070-7462-6894",
    "lat": 37.7125733,
    "lng": 126.7601659,
    "region": "경기도",
    "district": "파주시"
  },
  {
    "name": "김포걸포점",
    "address": "경기도 김포시 걸포2로 23",
    "phone": "070-8211-0905",
    "lat": 37.6328769,
    "lng": 126.7042364,
    "region": "경기도",
    "district": "김포시"
  },
  {
    "name": "인천간석사거리점",
    "address": "인천광역시 남동구 호구포로 878",
    "phone": "070-7459-7535",
    "lat": 37.46060133498043,
    "lng": 126.72035677681558,
    "region": "인천",
    "district": "남동구"
  },
  {
    "name": "분당상록점",
    "address": "경기도 성남시 분당구 정자로 88",
    "phone": "031-716-3737",
    "lat": 37.3631684,
    "lng": 127.1144393,
    "region": "경기도",
    "district": "성남시"
  },
  {
    "name": "파주운정점",
    "address": "경기도 파주시 와석순환로 133",
    "phone": "070-7462-8580",
    "lat": 37.712113,
    "lng": 126.7451347,
    "region": "경기도",
    "district": "파주시"
  },
  {
    "name": "파주운정역점",
    "address": "경기도 파주시 경의로 1242",
    "phone": "070-7459-7558",
    "lat": 37.7282032303642,
    "lng": 126.7613050691354,
    "region": "경기도",
    "district": "파주시"
  },
  {
    "name": "시흥능곡역점",
    "address": "경기도 시흥시 능곡번영길 22",
    "phone": "070-7438-8225",
    "lat": 37.3710435,
    "lng": 126.8073771,
    "region": "경기도",
    "district": "시흥시"
  },
  {
    "name": "인천구월아시아드SK점",
    "address": "인천광역시 남동구 호구포로 725",
    "phone": "032-469-0332",
    "lat": 37.4471734634,
    "lng": 126.718103496,
    "region": "인천",
    "district": "남동구"
  },
  {
    "name": "인천검암점",
    "address": "인천광역시 서구 승학로 504",
    "phone": "070-7459-7352",
    "lat": 37.5650885,
    "lng": 126.675683,
    "region": "인천",
    "district": "서구"
  },
  {
    "name": "시흥장현점",
    "address": "경기도 시흥시 황고개로 531",
    "phone": "070-7459-7538",
    "lat": 37.37810361595375,
    "lng": 126.78869279310948,
    "region": "경기도",
    "district": "시흥시"
  },
  {
    "name": "포천축석휴게소FS점",
    "address": "경기도 포천시 소흘읍 호국로 66",
    "phone": "070-7438-6545",
    "lat": 37.7813797,
    "lng": 127.1197447,
    "region": "경기도",
    "district": "포천시"
  },
  {
    "name": "인천완정역점",
    "address": "인천광역시 서구 원당대로 651",
    "phone": "070-7462-6858",
    "lat": 37.5939907,
    "lng": 126.6736942,
    "region": "인천",
    "district": "서구"
  },
  {
    "name": "인천신현점",
    "address": "인천광역시 서구 가정로 375",
    "phone": "070-7459-7031",
    "lat": 37.5184643,
    "lng": 126.6726009,
    "region": "인천",
    "district": "서구"
  },
  {
    "name": "파주동패점",
    "address": "경기도 파주시 양지로 131",
    "phone": "070-7459-7233",
    "lat": 37.7097389,
    "lng": 126.7233652,
    "region": "경기도",
    "district": "파주시"
  },
  {
    "name": "수지GS점",
    "address": "경기도 용인시 수지구 신수로 781",
    "phone": "031-276-0335",
    "lat": 37.339335469,
    "lng": 127.1023533745,
    "region": "경기도",
    "district": "용인시"
  },
  {
    "name": "인천구월점",
    "address": "인천광역시 남동구 인하로 501",
    "phone": "070-7459-7060",
    "lat": 37.4435334,
    "lng": 126.7023931,
    "region": "인천",
    "district": "남동구"
  },
  {
    "name": "양주고읍DT점",
    "address": "경기도 양주시 고덕로 363",
    "phone": "070-7462-6789",
    "lat": 37.8041107,
    "lng": 127.0804986,
    "region": "경기도",
    "district": "양주시"
  },
  {
    "name": "금촌역점",
    "address": "경기도 파주시 중앙로 328",
    "phone": "031-945-0346",
    "lat": 37.7648788254,
    "lng": 126.7747190586,
    "region": "경기도",
    "district": "파주시"
  },
  {
    "name": "남양주화도DT점",
    "address": "경기도 남양주시 화도읍 경춘로 1718",
    "phone": "070-7462-6727",
    "lat": 37.65545819429155,
    "lng": 127.28197492501131,
    "region": "경기도",
    "district": "남양주시"
  },
  {
    "name": "수원정자점",
    "address": "경기도 수원시 장안구 이목로 24-3",
    "phone": "031-271-0332",
    "lat": 37.3096554856,
    "lng": 126.9847443999,
    "region": "경기도",
    "district": "수원시"
  },
  {
    "name": "인천검단점",
    "address": "인천광역시 서구 검단로 470",
    "phone": "070-7462-6724",
    "lat": 37.6015180620918,
    "lng": 126.65677877884154,
    "region": "인천",
    "district": "서구"
  },
  {
    "name": "죽전DT점",
    "address": "경기도 용인시 수지구 용구대로 2751",
    "phone": "031-272-0331",
    "lat": 37.3313215933,
    "lng": 127.1085394678,
    "region": "경기도",
    "district": "용인시"
  },
  {
    "name": "파주다율점",
    "address": "경기도 파주시 해올2길 8",
    "phone": "070-7459-6902",
    "lat": 37.73353141229769,
    "lng": 126.73089066429196,
    "region": "경기도",
    "district": "파주시"
  },
  {
    "name": "인천주안점",
    "address": "인천광역시 미추홀구 주안로 86",
    "phone": "070-7462-6870",
    "lat": 37.4644046,
    "lng": 126.6801619,
    "region": "인천",
    "district": "미추홀구"
  },
  {
    "name": "김포장기점",
    "address": "경기도 김포시 김포한강4로 118",
    "phone": "070-7459-7288",
    "lat": 37.6447358,
    "lng": 126.6685057,
    "region": "경기도",
    "district": "김포시"
  },
  {
    "name": "수지구청역점",
    "address": "경기도 용인시 수지구 풍덕천로 145",
    "phone": "031-264-7332",
    "lat": 37.3243176834,
    "lng": 127.0973641554,
    "region": "경기도",
    "district": "용인시"
  },
  {
    "name": "인천논현점",
    "address": "인천광역시 남동구 논고개로 61",
    "phone": "032-431-0332",
    "lat": 37.3975387891,
    "lng": 126.7275185635,
    "region": "인천",
    "district": "남동구"
  },
  {
    "name": "인천청라점",
    "address": "인천광역시 서구 중봉대로 610",
    "phone": "032-561-1332",
    "lat": 37.533922,
    "lng": 126.6502845,
    "region": "인천",
    "district": "서구"
  },
  {
    "name": "성복역점",
    "address": "경기도 용인시 수지구 성복2로 52",
    "phone": "070-7459-7061",
    "lat": 37.3138792,
    "lng": 127.0799503,
    "region": "경기도",
    "district": "용인시"
  },
  {
    "name": "인천도화점",
    "address": "인천광역시 미추홀구 숙골로88번길 12",
    "phone": "070-7462-8537",
    "lat": 37.4702444,
    "lng": 126.6652006,
    "region": "인천",
    "district": "미추홀구"
  },
  {
    "name": "안산선부역점",
    "address": "경기도 안산시 단원구 선부광장로 23",
    "phone": "070-7459-7044",
    "lat": 37.3362614,
    "lng": 126.8095917,
    "region": "경기도",
    "district": "안산시"
  },
  {
    "name": "양주옥정점",
    "address": "경기도 양주시 회천남로 80",
    "phone": "070-7459-7063",
    "lat": 37.8185628,
    "lng": 127.0934253,
    "region": "경기도",
    "district": "양주시"
  },
  {
    "name": "인천청라호수공원점",
    "address": "인천광역시 서구 크리스탈로74번길 31",
    "phone": "070-7459-7236",
    "lat": 37.5320158,
    "lng": 126.6401609,
    "region": "인천",
    "district": "서구"
  },
  {
    "name": "김포한강GS점",
    "address": "경기도 김포시 김포한강3로 400",
    "phone": "070-7438-8604",
    "lat": 37.6417682969,
    "lng": 126.647511262,
    "region": "경기도",
    "district": "김포시"
  },
  {
    "name": "안산중앙역점",
    "address": "경기도 안산시 단원구 중앙대로 927",
    "phone": "070-7438-8237",
    "lat": 37.3171272136,
    "lng": 126.8395634891,
    "region": "경기도",
    "district": "안산시"
  },
  {
    "name": "광주경안점",
    "address": "경기도 광주시 경안로 10",
    "phone": "031-797-5010",
    "lat": 37.4101879,
    "lng": 127.2594585,
    "region": "경기도",
    "district": "광주시"
  },
  {
    "name": "경기광주태전점",
    "address": "경기도 광주시 태봉로 145-2",
    "phone": "070-7462-8512",
    "lat": 37.3805067,
    "lng": 127.2311346,
    "region": "경기도",
    "district": "광주시"
  },
  {
    "name": "안산한대앞역점",
    "address": "경기도 안산시 상록구 양지편로 38",
    "phone": "070-7459-7561",
    "lat": 37.30939633235313,
    "lng": 126.85158076917529,
    "region": "경기도",
    "district": "안산시"
  },
  {
    "name": "수원정자사거리점",
    "address": "경기도 수원시 장안구 장안로 73",
    "phone": "070-7459-7215",
    "lat": 37.2908214,
    "lng": 127.0027822,
    "region": "경기도",
    "district": "수원시"
  },
  {
    "name": "인천학익점",
    "address": "인천광역시 미추홀구 소성로 150",
    "phone": "070-7459-6856",
    "lat": 37.44241751325514,
    "lng": 126.66493327083288,
    "region": "인천",
    "district": "미추홀구"
  },
  {
    "name": "상록수역점",
    "address": "경기도 안산시 상록구 용신로 394",
    "phone": "031-501-0332",
    "lat": 37.3013879,
    "lng": 126.8658778,
    "region": "경기도",
    "district": "안산시"
  },
  {
    "name": "배곧아브뉴프랑점",
    "address": "경기도 시흥시 서울대학로 264번길 35",
    "phone": "070-7462-6841",
    "lat": 37.3677079,
    "lng": 126.7284674,
    "region": "경기도",
    "district": "시흥시"
  },
  {
    "name": "양주덕정FS점",
    "address": "경기도 양주시 독바위로 24",
    "phone": "070-7462-6813",
    "lat": 37.8391856,
    "lng": 127.0623668,
    "region": "경기도",
    "district": "양주시"
  },
  {
    "name": "안산고잔점",
    "address": "경기도 안산시 단원구 광덕대로 154",
    "phone": "031-405-8595",
    "lat": 37.3101697473,
    "lng": 126.8307343975,
    "region": "경기도",
    "district": "안산시"
  },
  {
    "name": "광교아브뉴프랑점",
    "address": "경기도 수원시 영통구 센트럴타운로 85",
    "phone": "031-212-0360",
    "lat": 37.2902340273,
    "lng": 127.0498735718,
    "region": "경기도",
    "district": "수원시"
  },
  {
    "name": "인천연수점",
    "address": "인천광역시 연수구 용담로 111",
    "phone": "010-3982-8128",
    "lat": 37.4153076,
    "lng": 126.6775195,
    "region": "인천",
    "district": "연수구"
  },
  {
    "name": "인천연수HP점",
    "address": "인천광역시 연수구 청능대로 210 지하1층(동춘동 홈플러스연수점)",
    "phone": "032-815-2176",
    "lat": 37.4059982,
    "lng": 126.6836221,
    "region": "인천",
    "district": "연수구"
  },
  {
    "name": "서수원이마트점",
    "address": "경기도 수원시 권선구 수인로 291",
    "phone": "031-296-0332",
    "lat": 37.2826287942,
    "lng": 126.9701447216,
    "region": "경기도",
    "district": "수원시"
  },
  {
    "name": "인하대역점",
    "address": "인천광역시 미추홀구 독배로 309",
    "phone": "070-7438-6573",
    "lat": 37.4477929,
    "lng": 126.6492579,
    "region": "인천",
    "district": "미추홀구"
  },
  {
    "name": "인천숭의역점",
    "address": "인천광역시 미추홀구 인주대로 5",
    "phone": "070-7459-7523",
    "lat": 37.4612077,
    "lng": 126.6391077,
    "region": "인천",
    "district": "미추홀구"
  },
  {
    "name": "경기광주쌍령점",
    "address": "경기도 광주시 경충대로 1436",
    "phone": "070-7459-7514",
    "lat": 37.3985065,
    "lng": 127.2745224,
    "region": "경기도",
    "district": "광주시"
  },
  {
    "name": "김포구래점",
    "address": "경기도 김포시 김포한강4로 513",
    "phone": "070-7438-6503",
    "lat": 37.6460034,
    "lng": 126.6268837,
    "region": "경기도",
    "district": "김포시"
  },
  {
    "name": "아주대병원점",
    "address": "경기도 수원시 영통구 월드컵로 164",
    "phone": "031-215-2256",
    "lat": 37.2794612,
    "lng": 127.0476837,
    "region": "경기도",
    "district": "수원시"
  },
  {
    "name": "시흥정왕점",
    "address": "경기도 시흥시 중심상가로 201-11",
    "phone": "070-7462-6849",
    "lat": 37.3446662,
    "lng": 126.7378056,
    "region": "경기도",
    "district": "시흥시"
  },
  {
    "name": "아주대삼거리점",
    "address": "경기도 수원시 영통구 중부대로 267",
    "phone": "070-7462-8659",
    "lat": 37.2746465,
    "lng": 127.0452362,
    "region": "경기도",
    "district": "수원시"
  },
  {
    "name": "용인언남점",
    "address": "경기도 용인시 기흥구 구성로 124",
    "phone": "070-7459-7500",
    "lat": 37.2923488,
    "lng": 127.1222605,
    "region": "경기도",
    "district": "용인시"
  },
  {
    "name": "수원인계DT점",
    "address": "경기도 수원시 팔달구 경수대로 501",
    "phone": "070-7462-6748",
    "lat": 37.27085813339235,
    "lng": 127.02768139723057,
    "region": "경기도",
    "district": "수원시"
  },
  {
    "name": "수원호매실SK점",
    "address": "경기도 수원시 권선구 서수원로 453",
    "phone": "070-7462-6863",
    "lat": 37.2670806,
    "lng": 126.9617428,
    "region": "경기도",
    "district": "수원시"
  },
  {
    "name": "수원역사점",
    "address": "경기도 수원시 팔달구 덕영대로 924",
    "phone": "070-7462-8612",
    "lat": 37.2656785788,
    "lng": 127.0000947002,
    "region": "경기도",
    "district": "수원시"
  },
  {
    "name": "파주LG디스플레이점",
    "address": "경기도 파주시 월롱면 엘지로 245 경기도 파주시 월롱면 엘지로 245",
    "phone": "070-7459-7297",
    "lat": 37.815892,
    "lng": 126.756809,
    "region": "경기도",
    "district": "파주시"
  },
  {
    "name": "수원시청역점",
    "address": "경기도 수원시 팔달구 권광로 173",
    "phone": "070-7459-7030",
    "lat": 37.2630749,
    "lng": 127.0319458,
    "region": "경기도",
    "district": "수원시"
  },
  {
    "name": "송산그린시티점",
    "address": "경기도 화성시 수노을2로 7",
    "phone": "070-7462-8572",
    "lat": 37.285504,
    "lng": 126.8166243,
    "region": "경기도",
    "district": "화성시"
  },
  {
    "name": "인천송도DT점",
    "address": "인천광역시 연수구 송도과학로 13",
    "phone": "032-818-0332",
    "lat": 37.3839323023,
    "lng": 126.6602661597,
    "region": "인천",
    "district": "연수구"
  },
  {
    "name": "용인신갈점",
    "address": "경기도 용인시 기흥구 중부대로 375",
    "phone": "031-275-0332",
    "lat": 37.2719907973,
    "lng": 127.1078589305,
    "region": "경기도",
    "district": "용인시"
  },
  {
    "name": "수원매탄점",
    "address": "경기도 수원시 영통구 효원로 400",
    "phone": "031-211-1882",
    "lat": 37.2580614781,
    "lng": 127.045383858,
    "region": "경기도",
    "district": "수원시"
  },
  {
    "name": "송도현대아울렛점",
    "address": "인천광역시 연수구 송도국제대로 123",
    "phone": "070-7462-9975",
    "lat": 37.3816297376,
    "lng": 126.6579189638,
    "region": "인천",
    "district": "연수구"
  },
  {
    "name": "수원권선점",
    "address": "경기도 수원시 권선구 덕영대로1201번길 34",
    "phone": "070-7459-7043",
    "lat": 37.250558,
    "lng": 127.0229514,
    "region": "경기도",
    "district": "수원시"
  },
  {
    "name": "인천송도센트럴파크점",
    "address": "인천광역시 연수구 센트럴로 194 B동 1층 118호, 119호, 120호, 134호",
    "phone": "032-832-8531",
    "lat": 37.3951272,
    "lng": 126.640408,
    "region": "인천",
    "district": "연수구"
  },
  {
    "name": "수원영통점",
    "address": "경기도 수원시 영통구 봉영로 1623",
    "phone": "031-205-0335",
    "lat": 37.2559345442,
    "lng": 127.0747358431,
    "region": "경기도",
    "district": "수원시"
  },
  {
    "name": "용인동백점",
    "address": "경기도 용인시 기흥구 동백5로 23",
    "phone": "031-287-8815",
    "lat": 37.2764796207,
    "lng": 127.1522860198,
    "region": "경기도",
    "district": "용인시"
  },
  {
    "name": "송도타임스페이스점",
    "address": "인천광역시 연수구 하모니로 158",
    "phone": "070-7462-8679",
    "lat": 37.3832893,
    "lng": 126.6422608,
    "region": "인천",
    "district": "연수구"
  },
  {
    "name": "오목천역점",
    "address": "경기도 수원시 권선구 삼천병마로 1566번길 11",
    "phone": "070-7459-7230",
    "lat": 37.2427463,
    "lng": 126.9636079,
    "region": "경기도",
    "district": "수원시"
  },
  {
    "name": "파주문산점",
    "address": "경기도 파주시 문산읍 문향로 36",
    "phone": "070-7459-7205",
    "lat": 37.8551573,
    "lng": 126.7860485,
    "region": "경기도",
    "district": "파주시"
  },
  {
    "name": "동두천DT점(리모델링 25.12.26~26.3.18)",
    "address": "경기도 동두천시 평화로2261번길 2",
    "phone": "070-7462-8789",
    "lat": 37.890007,
    "lng": 127.0564772,
    "region": "경기도",
    "district": "동두천시"
  },
  {
    "name": "수원망포점",
    "address": "경기도 수원시 영통구 영통로 108",
    "phone": "031-206-0332",
    "lat": 37.2381032684,
    "lng": 127.0579443881,
    "region": "경기도",
    "district": "수원시"
  },
  {
    "name": "화성봉담2지구점",
    "address": "경기도 화성시 봉담읍 상리중심상가길 28-18",
    "phone": "070-7459-7507",
    "lat": 37.227509,
    "lng": 126.9455248,
    "region": "경기도",
    "district": "화성시"
  },
  {
    "name": "영종하늘도시DT점",
    "address": "인천광역시 중구 자연대로 55",
    "phone": "032-747-0340",
    "lat": 37.4893163,
    "lng": 126.5582082,
    "region": "인천",
    "district": "중구"
  },
  {
    "name": "화성봉담점",
    "address": "경기도 화성시 봉담읍 와우로 80",
    "phone": "070-7462-6818",
    "lat": 37.2135656,
    "lng": 126.9748364,
    "region": "경기도",
    "district": "화성시"
  },
  {
    "name": "화성병점점",
    "address": "경기도 화성시 효행로 1032",
    "phone": "070-7462-6878",
    "lat": 37.2135429,
    "lng": 127.0401325,
    "region": "경기도",
    "district": "화성시"
  },
  {
    "name": "화성능동FS점",
    "address": "경기도 화성시 동탄지성로 190",
    "phone": "031-267-0332",
    "lat": 37.2119487671,
    "lng": 127.0556081277,
    "region": "경기도",
    "district": "화성시"
  },
  {
    "name": "화성안녕DT점",
    "address": "경기도 화성시 효행로 618",
    "phone": "070-7462-8666",
    "lat": 37.2023196,
    "lng": 127.000007,
    "region": "경기도",
    "district": "화성시"
  },
  {
    "name": "동탄점",
    "address": "경기도 화성시 동탄반석로 156",
    "phone": "031-8015-0131",
    "lat": 37.2023241779,
    "lng": 127.0715829914,
    "region": "경기도",
    "district": "화성시"
  },
  {
    "name": "동탄2신도시SK점",
    "address": "경기도 화성시 동탄순환대로 731",
    "phone": "070-7438-8618",
    "lat": 37.2086364431,
    "lng": 127.1079173973,
    "region": "경기도",
    "district": "화성시"
  },
  {
    "name": "동탄역CGV점",
    "address": "경기도 화성시 동탄대로 537",
    "phone": "070-7459-7221",
    "lat": 37.2022262,
    "lng": 127.097959,
    "region": "경기도",
    "district": "화성시"
  },
  {
    "name": "화성시청점",
    "address": "경기도 화성시 남양읍 시청로 113",
    "phone": "070-7462-6836",
    "lat": 37.2009814,
    "lng": 126.8260478,
    "region": "경기도",
    "district": "화성시"
  },
  {
    "name": "오산세교에스오일점",
    "address": "경기도 오산시 경기대로 692",
    "phone": "070-7462-6732",
    "lat": 37.18152356182919,
    "lng": 127.05224796505473,
    "region": "경기도",
    "district": "오산시"
  },
  {
    "name": "인천운서역점",
    "address": "인천광역시 중구 신도시남로142번길 6",
    "phone": "070-7459-7029",
    "lat": 37.4935101,
    "lng": 126.4917303,
    "region": "인천",
    "district": "중구"
  },
  {
    "name": "동탄목동점",
    "address": "경기도 화성시 동탄신리천로 406",
    "phone": "070-7462-8771",
    "lat": 37.1821552,
    "lng": 127.1229707,
    "region": "경기도",
    "district": "화성시"
  },
  {
    "name": "동탄호수공원레이크꼬모점",
    "address": "경기도 화성시 동탄대로 181",
    "phone": "070-7438-6511",
    "lat": 37.1720762,
    "lng": 127.104078,
    "region": "경기도",
    "district": "화성시"
  },
  {
    "name": "오산궐동점",
    "address": "경기도 오산시 궐동 궐리사로 61",
    "phone": "031-377-8595",
    "lat": 37.1592893751,
    "lng": 127.059311695,
    "region": "경기도",
    "district": "오산시"
  },
  {
    "name": "경기양평점",
    "address": "경기도 양평군 양평읍 양평시장길 18번길 1",
    "phone": "031-771-0092",
    "lat": 37.4906791355,
    "lng": 127.4917143094,
    "region": "경기도",
    "district": "양평군"
  },
  {
    "name": "오산원동FS점",
    "address": "경기도 오산시 경기대로 238",
    "phone": "031-373-0332",
    "lat": 37.1458878317,
    "lng": 127.0739070413,
    "region": "경기도",
    "district": "오산시"
  },
  {
    "name": "인천공항T1교통센터점",
    "address": "인천 중구 공항로 271, 인천공항교통센터 B1",
    "phone": "070-7459-7367",
    "lat": 37.44794018599512,
    "lng": 126.45206398967723,
    "region": "인천",
    "district": "중구"
  },
  {
    "name": "화성향남DT점",
    "address": "경기도 화성시 향남읍 상신하길로 388",
    "phone": "070-7462-9952",
    "lat": 37.1223404,
    "lng": 126.9137655,
    "region": "경기도",
    "district": "화성시"
  },
  {
    "name": "인천공항T2교통센터점",
    "address": "인천광역시 중구 제2터미널대로 446 지하1층",
    "phone": "070-7459-7300",
    "lat": 37.4784017,
    "lng": 126.4250057,
    "region": "인천",
    "district": "중구"
  },
  {
    "name": "지산리조트점",
    "address": "경기도 이천시 마장면 지산로 267",
    "phone": "031-638-6779",
    "lat": 37.2190006803,
    "lng": 127.3420573361,
    "region": "경기도",
    "district": "이천시"
  },
  {
    "name": "이천CGV점",
    "address": "경기도 이천시 중리천로 58",
    "phone": "031-635-7976",
    "lat": 37.279644013,
    "lng": 127.4441569061,
    "region": "경기도",
    "district": "이천시"
  },
  {
    "name": "평택서정점",
    "address": "경기도 평택시 경기대로 1371",
    "phone": "031-664-0332",
    "lat": 37.0674829946,
    "lng": 127.0636974246,
    "region": "경기도",
    "district": "평택시"
  },
  {
    "name": "평택고덕신도시GS점",
    "address": "경기도 평택시 고덕면 고덕국제2로 54",
    "phone": "070-7438-6562",
    "lat": 37.0477377,
    "lng": 127.0473073,
    "region": "경기도",
    "district": "평택시"
  },
  {
    "name": "평택고덕삼성점",
    "address": "경기도 평택시 고덕여염9길 40",
    "phone": "031-662-8357",
    "lat": 37.040554,
    "lng": 127.0515668,
    "region": "경기도",
    "district": "평택시"
  },
  {
    "name": "평택청북점",
    "address": "경기도 평택시 청북읍 청북남로 260",
    "phone": "031-684-5353",
    "lat": 37.019508,
    "lng": 126.9153572,
    "region": "경기도",
    "district": "평택시"
  },
  {
    "name": "평택지제동삭점",
    "address": "경기도 평택시 지제동삭2로 181-26",
    "phone": "070-7459-7010",
    "lat": 37.017183,
    "lng": 127.09411,
    "region": "경기도",
    "district": "평택시"
  },
  {
    "name": "평택죽백DT점",
    "address": "경기도 평택시 만세로 1709",
    "phone": "070-7462-6814",
    "lat": 37.0136059,
    "lng": 127.1130921,
    "region": "경기도",
    "district": "평택시"
  },
  {
    "name": "오션월드점",
    "address": "강원도 홍천군 서면 한치골길 262",
    "phone": "033-435-0787",
    "lat": 37.652336805,
    "lng": 127.6873328729,
    "region": "강원도",
    "district": "홍천군"
  },
  {
    "name": "비발디파크점",
    "address": "강원도 홍천군 서면 한치골길 262",
    "phone": "033-435-1025",
    "lat": 37.652336805,
    "lng": 127.6873328729,
    "region": "강원도",
    "district": "홍천군"
  },
  {
    "name": "평택비전점",
    "address": "경기도 평택시 비전2로 195",
    "phone": "031-618-2798",
    "lat": 37.0013876912,
    "lng": 127.111785105,
    "region": "경기도",
    "district": "평택시"
  },
  {
    "name": "평택안중DT점",
    "address": "경기도 평택시 안중읍 서동대로 1463",
    "phone": "070-7459-7021",
    "lat": 36.989809,
    "lng": 126.9132579,
    "region": "경기도",
    "district": "평택시"
  },
  {
    "name": "평택로데오점",
    "address": "경기도 평택시 평택로32번길 34",
    "phone": "070-7462-8571",
    "lat": 36.9912932,
    "lng": 127.089611,
    "region": "경기도",
    "district": "평택시"
  },
  {
    "name": "안성공도DT점",
    "address": "경기도 안성시 공도읍 서동대로 4294",
    "phone": "070-7462-6857",
    "lat": 37.0041881,
    "lng": 127.1799642,
    "region": "경기도",
    "district": "안성시"
  },
  {
    "name": "평택용죽점",
    "address": "경기도 평택시 용죽5길 6-28",
    "phone": "070-7459-7349",
    "lat": 36.9925896,
    "lng": 127.12607,
    "region": "경기도",
    "district": "평택시"
  },
  {
    "name": "안성아양DT점",
    "address": "경기도 안성시 아양2로 92",
    "phone": "070-7459-7279",
    "lat": 37.010815,
    "lng": 127.2577102,
    "region": "경기도",
    "district": "안성시"
  },
  {
    "name": "아산둔포점",
    "address": "충청남도 아산시 둔포면 중앙공원로 52",
    "phone": "041-545-1425",
    "lat": 36.9189531,
    "lng": 127.0574255,
    "region": "충청남도",
    "district": "아산시"
  },
  {
    "name": "춘천온의점",
    "address": "강원도 춘천시 방송길 98-1",
    "phone": "070-7462-6848",
    "lat": 37.8677575,
    "lng": 127.7204261,
    "region": "강원도",
    "district": "춘천시"
  },
  {
    "name": "춘천거두GS점",
    "address": "강원도 춘천시 동내면 춘천순환로 59",
    "phone": "033-264-0332",
    "lat": 37.8557941016,
    "lng": 127.7503363249,
    "region": "강원도",
    "district": "춘천시"
  },
  {
    "name": "춘천후평점",
    "address": "강원도 춘천시 후석로 322",
    "phone": "070-7459-7227",
    "lat": 37.8798527,
    "lng": 127.7502911,
    "region": "강원도",
    "district": "춘천시"
  },
  {
    "name": "당진읍내점",
    "address": "충청남도 당진시 당진중앙1로 95",
    "phone": "010-8414-4018",
    "lat": 36.8943756854,
    "lng": 126.6295723639,
    "region": "충청남도",
    "district": "당진시"
  },
  {
    "name": "원주기업도시점",
    "address": "강원도 원주시 지정면 신지정로 211",
    "phone": "033-732-0332",
    "lat": 37.374198,
    "lng": 127.8727546,
    "region": "강원도",
    "district": "원주시"
  },
  {
    "name": "천안성성점",
    "address": "충청남도 천안시 서북구 성성8로 2-11",
    "phone": "041-555-7474",
    "lat": 36.8397164,
    "lng": 127.1296475,
    "region": "충청남도",
    "district": "천안시"
  },
  {
    "name": "천안두정점",
    "address": "충청남도 천안시 서북구 두정로 147",
    "phone": "041-566-0332",
    "lat": 36.8340587,
    "lng": 127.133195,
    "region": "충청남도",
    "district": "천안시"
  },
  {
    "name": "천안불당점",
    "address": "충청남도 천안시 서북구 불당25로 176",
    "phone": "070-7462-6790",
    "lat": 36.8162122,
    "lng": 127.1090966,
    "region": "충청남도",
    "district": "천안시"
  },
  {
    "name": "천안쌍용대로DT점",
    "address": "충청남도 천안시 동남구 쌍용대로 94",
    "phone": "041-573-8721",
    "lat": 36.8056827,
    "lng": 127.1327998,
    "region": "충청남도",
    "district": "천안시"
  },
  {
    "name": "천안원성DT점",
    "address": "충청남도 천안시 동남구 충절로 170",
    "phone": "070-7438-6563",
    "lat": 36.8037971,
    "lng": 127.1585973,
    "region": "충청남도",
    "district": "천안시"
  },
  {
    "name": "탕정역점",
    "address": "충청남도 아산시 탕정면 한들물빛5로 25",
    "phone": "041-534-1468",
    "lat": 36.7875386,
    "lng": 127.086089,
    "region": "충청남도",
    "district": "아산시"
  },
  {
    "name": "천안신방DT점",
    "address": "충청남도 천안시 동남구 남부대로 92-1",
    "phone": "070-8869-2319",
    "lat": 36.7857399,
    "lng": 127.1281607,
    "region": "충청남도",
    "district": "천안시"
  },
  {
    "name": "원주무실점",
    "address": "강원도 원주시 능라동길 61",
    "phone": "033-733-0282",
    "lat": 37.3341469726,
    "lng": 127.9312347555,
    "region": "강원도",
    "district": "원주시"
  },
  {
    "name": "아산용화DT점",
    "address": "충청남도 아산시 남부로 274",
    "phone": "070-7459-6850",
    "lat": 36.7709024,
    "lng": 127.011137,
    "region": "충청남도",
    "district": "아산시"
  },
  {
    "name": "충북혁신도시점",
    "address": "충청북도 음성군 맹동면 대하2가길 11",
    "phone": "010-2540-0232",
    "lat": 36.9079661,
    "lng": 127.5427782,
    "region": "충청북도",
    "district": "음성군"
  },
  {
    "name": "아산배방DT점",
    "address": "충청남도 아산시 배방읍 배방로 183",
    "phone": "070-7459-7019",
    "lat": 36.7705814,
    "lng": 127.0663154,
    "region": "충청남도",
    "district": "아산시"
  },
  {
    "name": "충북진천점",
    "address": "충청북도 진천군 진천읍 상산로 73",
    "phone": "043-533-8989",
    "lat": 36.8547483931,
    "lng": 127.4423231587,
    "region": "충청북도",
    "district": "진천군"
  },
  {
    "name": "원주명륜오일뱅크점",
    "address": "강원도 원주시 남원로 505",
    "phone": "070-7462-6816",
    "lat": 37.3296635,
    "lng": 127.9452484,
    "region": "강원도",
    "district": "원주시"
  },
  {
    "name": "서산호수공원점",
    "address": "충청남도 서산시 호수공원6로 72",
    "phone": "041-663-5544",
    "lat": 36.7726003,
    "lng": 126.4511899,
    "region": "충청남도",
    "district": "서산시"
  },
  {
    "name": "오창호수공원점",
    "address": "충청북도 청원군 오창읍 중심상업로 31-18",
    "phone": "043-215-9393",
    "lat": 36.7137885206,
    "lng": 127.4279215004,
    "region": "충청북도",
    "district": "청원군"
  },
  {
    "name": "충남도청점",
    "address": "충청남도 홍성군 청사로174번길 2",
    "phone": "041-635-0799",
    "lat": 36.6593868351,
    "lng": 126.6789880743,
    "region": "충청남도",
    "district": "홍성군"
  },
  {
    "name": "충주연수점",
    "address": "충청북도 충주시 연수동산로 47",
    "phone": "043-853-0700",
    "lat": 36.9868423,
    "lng": 127.9417929,
    "region": "충청북도",
    "district": "충주시"
  },
  {
    "name": "청주오송점",
    "address": "충청북도 청주시 흥덕구 오송읍 오송생명로 178",
    "phone": "043-235-0411",
    "lat": 36.6314086,
    "lng": 127.3287551,
    "region": "충청북도",
    "district": "청주시"
  },
  {
    "name": "충주호암FS점",
    "address": "충청북도 충주시 사천개6길 4(호암동)",
    "phone": "010-3413-6100",
    "lat": 36.9530128,
    "lng": 127.934615,
    "region": "충청북도",
    "district": "충주시"
  },
  {
    "name": "태안터미널점",
    "address": "충청남도 태안군 태안읍 동백로 291-3",
    "phone": "041-673-2660",
    "lat": 36.7490114,
    "lng": 126.3024977,
    "region": "충청남도",
    "district": "태안군"
  },
  {
    "name": "청주율량점",
    "address": "충청북도 청주시 청원구 충청대로 176",
    "phone": "043-211-8595",
    "lat": 36.6718634,
    "lng": 127.4965208,
    "region": "충청북도",
    "district": "청주시"
  },
  {
    "name": "세종조치원DT점",
    "address": "세종특별자치시 세종로 2425",
    "phone": "070-7462-8557",
    "lat": 36.6037258,
    "lng": 127.2893038,
    "region": "세종",
    "district": "세종로"
  },
  {
    "name": "청주예술의전당오일뱅크점",
    "address": "충청북도 청주시 흥덕구 직지대로 677",
    "phone": "070-7462-6866",
    "lat": 36.6431732,
    "lng": 127.4683734,
    "region": "충청북도",
    "district": "청주시"
  },
  {
    "name": "청주터미널점",
    "address": "충청북도 청주시 흥덕구 풍산로 15",
    "phone": "043-238-0332",
    "lat": 36.6267828065,
    "lng": 127.4319925085,
    "region": "충청북도",
    "district": "청주시"
  },
  {
    "name": "충북대점",
    "address": "충청북도 청주시 서원구 1순환로 665-1",
    "phone": "043-271-0332",
    "lat": 36.6341870754,
    "lng": 127.4607020446,
    "region": "충청북도",
    "district": "청주시"
  },
  {
    "name": "청주산남점",
    "address": "충청북도 청주시 서원구 산남로 48",
    "phone": "043-297-0009",
    "lat": 36.6114754958,
    "lng": 127.468883164,
    "region": "충청북도",
    "district": "청주시"
  },
  {
    "name": "청주분평DT점",
    "address": "충청북도 청주시 서원구 청남로 1918",
    "phone": "070-7459-7085",
    "lat": 36.6048749,
    "lng": 127.4791248,
    "region": "충청북도",
    "district": "청주시"
  },
  {
    "name": "청주동남점",
    "address": "충청북도 청주시 상당구 중고개로141번길 11-9",
    "phone": "043-283-8245",
    "lat": 36.6171648,
    "lng": 127.5173168,
    "region": "충청북도",
    "district": "청주시"
  },
  {
    "name": "충남대병원DT점",
    "address": "세종특별자치시 보듬5로 6",
    "phone": "044-862-7676",
    "lat": 36.5167265,
    "lng": 127.2583861,
    "region": "세종",
    "district": "보듬5로"
  },
  {
    "name": "세종고운점",
    "address": "세종특별자치시 보듬3로 154",
    "phone": "070-7438-6515",
    "lat": 36.512236,
    "lng": 127.2426592,
    "region": "세종",
    "district": "보듬3로"
  },
  {
    "name": "제천CGV점",
    "address": "충청북도 제천시 장평천로 27-13(강제동)",
    "phone": "043-645-0332",
    "lat": 37.1235087,
    "lng": 128.2216166,
    "region": "충청북도",
    "district": "제천시"
  },
  {
    "name": "공주신관DT점",
    "address": "충청남도 공주시 일신역길 12 충청남도 공주시 일신역길 12",
    "phone": "070-7459-7364",
    "lat": 36.4750471,
    "lng": 127.1416155,
    "region": "충청남도",
    "district": "공주시"
  },
  {
    "name": "세종행복새롬점",
    "address": "세종특별자치시 어울로 77세종",
    "phone": "044-864-0894",
    "lat": 36.4819582755,
    "lng": 127.2539392968,
    "region": "세종",
    "district": "어울로"
  },
  {
    "name": "세종반곡점",
    "address": "세종특별자치시 한누리대로 1948",
    "phone": "070-8848-3955",
    "lat": 36.4905685,
    "lng": 127.302849,
    "region": "세종",
    "district": "한누리대로"
  },
  {
    "name": "대전신탄진점",
    "address": "대전광역시 대덕구 대덕대로 1554",
    "phone": "070-7459-6918",
    "lat": 36.44914659557142,
    "lng": 127.42069653338694,
    "region": "대전",
    "district": "대덕구"
  },
  {
    "name": "대전관평점",
    "address": "대전광역시 유성구 테크노4로 105",
    "phone": "042-934-0113",
    "lat": 36.4252862,
    "lng": 127.3897464,
    "region": "대전",
    "district": "유성구"
  },
  {
    "name": "대전현대아울렛점",
    "address": "대전광역시 유성구 테크노중앙로 123,지상3층3202-2호",
    "phone": "042-332-2811",
    "lat": 36.4234369,
    "lng": 127.3985168,
    "region": "대전",
    "district": "유성구"
  },
  {
    "name": "대전반석DT점",
    "address": "대전광역시 유성구 북유성대로 288",
    "phone": "042-825-0410",
    "lat": 36.3907847362,
    "lng": 127.316216926,
    "region": "대전",
    "district": "유성구"
  },
  {
    "name": "대전문지점",
    "address": "대전광역시 유성구 문지로 311-32",
    "phone": "042-861-9934",
    "lat": 36.3948165,
    "lng": 127.4052089,
    "region": "대전",
    "district": "유성구"
  },
  {
    "name": "대전노은역점",
    "address": "대전광역시 유성구 은구비남로33번길 61",
    "phone": "070-7462-6875",
    "lat": 36.3751035,
    "lng": 127.3191307,
    "region": "대전",
    "district": "유성구"
  },
  {
    "name": "대전월평점",
    "address": "대전광역시 서구 월평북로 81",
    "phone": "070-7462-6717",
    "lat": 36.3624439542,
    "lng": 127.3773168456,
    "region": "대전",
    "district": "서구"
  },
  {
    "name": "대전유성온천역점",
    "address": "대전광역시 유성구 대학로 8",
    "phone": "070-7462-6759",
    "lat": 36.354291396993354,
    "lng": 127.34217468935789,
    "region": "대전",
    "district": "유성구"
  },
  {
    "name": "보령동대점",
    "address": "충청남도 보령시 한내로 16",
    "phone": "041-936-6900",
    "lat": 36.3472386,
    "lng": 126.6054726,
    "region": "충청남도",
    "district": "보령시"
  },
  {
    "name": "대전둔산1점",
    "address": "대전광역시 서구 대덕대로 193",
    "phone": "070-7462-6805",
    "lat": 36.3505317,
    "lng": 127.3774762,
    "region": "대전",
    "district": "서구"
  },
  {
    "name": "대전시청점",
    "address": "대전광역시 서구 문예로 35",
    "phone": "042-489-0331",
    "lat": 36.3498712,
    "lng": 127.3898448,
    "region": "대전",
    "district": "서구"
  },
  {
    "name": "대전도안점",
    "address": "대전광역시 서구 동서대로 682",
    "phone": "042-825-0282",
    "lat": 36.3318089,
    "lng": 127.3386219,
    "region": "대전",
    "district": "서구"
  },
  {
    "name": "대전용문역점",
    "address": "대전광역시 서구 계룡로 630",
    "phone": "070-7462-6864",
    "lat": 36.3390074,
    "lng": 127.3919162,
    "region": "대전",
    "district": "서구"
  },
  {
    "name": "대전터미널DT점",
    "address": "대전광역시 동구 동서대로 1664",
    "phone": "042-624-0332",
    "lat": 36.3481376,
    "lng": 127.4349228,
    "region": "대전",
    "district": "동구"
  },
  {
    "name": "대전용두DT점",
    "address": "대전광역시 중구 계룡로 853",
    "phone": "042-221-0332",
    "lat": 36.3251035884,
    "lng": 127.4099233423,
    "region": "대전",
    "district": "중구"
  },
  {
    "name": "계룡엄사점",
    "address": "충청남도 계룡시 엄사면 계룡대로 524",
    "phone": "042-710-8272",
    "lat": 36.2900412,
    "lng": 127.2444348,
    "region": "충청남도",
    "district": "계룡시"
  },
  {
    "name": "대전도마점",
    "address": "대전광역시 서구 계백로  1426",
    "phone": "070-7772-1107",
    "lat": 36.3125494,
    "lng": 127.3797473,
    "region": "대전",
    "district": "서구"
  },
  {
    "name": "대전대동DT점",
    "address": "대전광역시 동구 계족로 120",
    "phone": "070-7462-8639",
    "lat": 36.3249586,
    "lng": 127.4459107,
    "region": "대전",
    "district": "동구"
  },
  {
    "name": "대전관저점",
    "address": "대전광역시 서구 구봉로 147번길 68-12",
    "phone": "070-7462-6766",
    "lat": 36.299292523826125,
    "lng": 127.33896845269916,
    "region": "대전",
    "district": "서구"
  },
  {
    "name": "대전가오점",
    "address": "대전광역시 동구 은어송로 63",
    "phone": "070-7459-7285",
    "lat": 36.3066737,
    "lng": 127.4560317,
    "region": "대전",
    "district": "동구"
  },
  {
    "name": "논산건양대점",
    "address": "충청남도 논산시 대학로 104",
    "phone": "041-732-9900",
    "lat": 36.1794048,
    "lng": 127.109517,
    "region": "충청남도",
    "district": "논산시"
  },
  {
    "name": "속초DT점",
    "address": "강원도 속초시 동해대로 4059",
    "phone": "033-638-0334",
    "lat": 38.1893018804,
    "lng": 128.5907063328,
    "region": "강원도",
    "district": "속초시"
  },
  {
    "name": "경북상주점",
    "address": "경상북도 상주시 중앙로 186-2",
    "phone": "054-534-2227",
    "lat": 36.4154564,
    "lng": 128.1587841,
    "region": "경상북도",
    "district": "상주시"
  },
  {
    "name": "경북영주가흥점",
    "address": "경상북도 영주시 대동로 24",
    "phone": "010-4355-5610",
    "lat": 36.8148972,
    "lng": 128.6049254,
    "region": "경상북도",
    "district": "영주시"
  },
  {
    "name": "강릉교동SK점",
    "address": "강원도 강릉시 하슬라로 159",
    "phone": "033-641-0332",
    "lat": 37.7643791349,
    "lng": 128.8744504669,
    "region": "강원도",
    "district": "강릉시"
  },
  {
    "name": "강릉임당점",
    "address": "강원특별자치도 강릉시 경강로 2109",
    "phone": "070-7459-7573",
    "lat": 37.75560200812467,
    "lng": 128.89725056478528,
    "region": "강원",
    "district": "강릉시"
  },
  {
    "name": "경북도청점",
    "address": "경상북도 안동시 검무로 4-8",
    "phone": "054-900-5655",
    "lat": 36.5759685531,
    "lng": 128.493389274,
    "region": "경상북도",
    "district": "안동시"
  },
  {
    "name": "원광대점",
    "address": "전라북도 익산시 무왕로 893",
    "phone": "063-851-0111",
    "lat": 35.9642365194,
    "lng": 126.9579621312,
    "region": "전라북도",
    "district": "익산시"
  },
  {
    "name": "익산부송점",
    "address": "전라북도 익산시 무왕로 1195",
    "phone": "063-838-1100",
    "lat": 35.9598949,
    "lng": 126.9890428,
    "region": "전라북도",
    "district": "익산시"
  },
  {
    "name": "익산영등점",
    "address": "전북특별자치도 익산시 무왕로 1017.",
    "phone": "063-837-3208",
    "lat": 35.9588135690265,
    "lng": 126.97003401564494,
    "region": "전북",
    "district": "익산시"
  },
  {
    "name": "군산조촌DT점",
    "address": "전라북도 군산시 번영로 143",
    "phone": "070-7438-8612",
    "lat": 35.9664501276,
    "lng": 126.7352740532,
    "region": "전라북도",
    "district": "군산시"
  },
  {
    "name": "군산수송점",
    "address": "전라북도 군산시 월명로 216",
    "phone": "063-910-8234",
    "lat": 35.9631449,
    "lng": 126.7160865,
    "region": "전라북도",
    "district": "군산시"
  },
  {
    "name": "익산모현FS점",
    "address": "전라북도 익산시 배산로 16길 2",
    "phone": "063-843-9990",
    "lat": 35.9475115,
    "lng": 126.9399436,
    "region": "전라북도",
    "district": "익산시"
  },
  {
    "name": "군산대점",
    "address": "전라북도 군산시 대학로 543",
    "phone": "063-465-7774",
    "lat": 35.9469298,
    "lng": 126.6855199,
    "region": "전라북도",
    "district": "군산시"
  },
  {
    "name": "김천교동DT점",
    "address": "경상북도 김천시 대학로 75(교동)",
    "phone": "010-2390-9067",
    "lat": 36.134452,
    "lng": 128.0951016,
    "region": "경상북도",
    "district": "김천시"
  },
  {
    "name": "전주송천DT점",
    "address": "전라북도 전주시 덕진구 동부대로 1030",
    "phone": "070-7462-6794",
    "lat": 35.8697614,
    "lng": 127.1345822,
    "region": "전라북도",
    "district": "전주시"
  },
  {
    "name": "안동옥동점",
    "address": "경상북도 안동시 경북대로 381",
    "phone": "054-857-6677",
    "lat": 36.5636554,
    "lng": 128.7019249,
    "region": "경상북도",
    "district": "안동시"
  },
  {
    "name": "전주만성DT점",
    "address": "전라북도 전주시 덕진구 온고을로 441",
    "phone": "070-7462-6770",
    "lat": 35.85064908272547,
    "lng": 127.08021396581208,
    "region": "전라북도",
    "district": "전주시"
  },
  {
    "name": "안동중앙점",
    "address": "경상북도 안동시 문화광장길 40-6",
    "phone": "054-842-1177",
    "lat": 36.5647198,
    "lng": 128.7312877,
    "region": "경상북도",
    "district": "안동시"
  },
  {
    "name": "전북대점",
    "address": "전라북도 전주시 덕진구 권삼득로 295, 105호",
    "phone": "063-223-4300",
    "lat": 35.8427245,
    "lng": 127.1289671,
    "region": "전라북도",
    "district": "전주시"
  },
  {
    "name": "전주인후DT점",
    "address": "전라북도 전주시 덕진구 안덕원로 307",
    "phone": "070-7462-8556",
    "lat": 35.8379972,
    "lng": 127.1606828,
    "region": "전라북도",
    "district": "전주시"
  },
  {
    "name": "전주서신대광SK점",
    "address": "전라북도 전주시 완산구 서신로 56",
    "phone": "063-272-0332",
    "lat": 35.8303234265,
    "lng": 127.1161311614,
    "region": "전라북도",
    "district": "전주시"
  },
  {
    "name": "김천혁신도시점",
    "address": "경상북도 김천시 혁신3로 17",
    "phone": "010-5565-6709",
    "lat": 36.1169722,
    "lng": 128.1834221,
    "region": "경상북도",
    "district": "김천시"
  },
  {
    "name": "전주중앙점",
    "address": "전라북도 전주시 완산구 팔달로 225",
    "phone": "063-278-1505",
    "lat": 35.8222453128,
    "lng": 127.1452587795,
    "region": "전라북도",
    "district": "전주시"
  },
  {
    "name": "전북도청점",
    "address": "전라북도 전주시 완산구 효자로 194",
    "phone": "010-5727-4018",
    "lat": 35.8186340189,
    "lng": 127.1064737395,
    "region": "전라북도",
    "district": "전주시"
  },
  {
    "name": "전주삼천DT점",
    "address": "전라북도 전주시 완산구 장승배기로 4",
    "phone": "070-7459-7034",
    "lat": 35.7920435,
    "lng": 127.1134244,
    "region": "전라북도",
    "district": "전주시"
  },
  {
    "name": "구미도량DT점",
    "address": "경상북도 구미시 야은로 320",
    "phone": "070-7462-6706",
    "lat": 36.1381436914,
    "lng": 128.3177805452,
    "region": "경상북도",
    "district": "구미시"
  },
  {
    "name": "구미시청FS점",
    "address": "경상북도 구미시 송정대로 40",
    "phone": "070-7438-8218",
    "lat": 36.117424538,
    "lng": 128.3431035645,
    "region": "경상북도",
    "district": "구미시"
  },
  {
    "name": "구미신평점",
    "address": "경상북도 구미시 구미대로 409",
    "phone": "054-461-7997",
    "lat": 36.1232048352,
    "lng": 128.3623776615,
    "region": "경상북도",
    "district": "구미시"
  },
  {
    "name": "구미산동점",
    "address": "경상북도 구미시 산동읍 신당1로2길 7",
    "phone": "054-474-6709",
    "lat": 36.1547331,
    "lng": 128.4317353,
    "region": "경상북도",
    "district": "구미시"
  },
  {
    "name": "구미상모사곡점",
    "address": "경상북도 구미시 상사서로 18길 4",
    "phone": "054-464-6709",
    "lat": 36.0973083,
    "lng": 128.3572057,
    "region": "경상북도",
    "district": "구미시"
  },
  {
    "name": "전북부안점",
    "address": "전라북도 부안군 부안읍 오리정로 142",
    "phone": "063-581-7900",
    "lat": 35.7230905,
    "lng": 126.7376941,
    "region": "전라북도",
    "district": "부안군"
  },
  {
    "name": "구미인의점",
    "address": "경상북도 구미시 인동중앙로 16",
    "phone": "054-472-7433",
    "lat": 36.1068789,
    "lng": 128.4211507,
    "region": "경상북도",
    "district": "구미시"
  },
  {
    "name": "경북왜관점",
    "address": "경상북도 칠곡군 왜관읍 중앙로 86, 1층",
    "phone": "010-5339-6709",
    "lat": 35.9824782,
    "lng": 128.3990308,
    "region": "경상북도",
    "district": "칠곡군"
  },
  {
    "name": "정읍중앙점",
    "address": "전라북도 정읍시 남북로 28",
    "phone": "010-8370-3246",
    "lat": 35.5678092,
    "lng": 126.850404,
    "region": "전라북도",
    "district": "정읍시"
  },
  {
    "name": "경남거창점",
    "address": "경상남도 거창군 거창읍 거열로 106",
    "phone": "055-942-6660",
    "lat": 35.688471,
    "lng": 127.9054728,
    "region": "경상남도",
    "district": "거창군"
  },
  {
    "name": "대구칠곡3지구점",
    "address": "대구광역시 북구 팔거천동로 224",
    "phone": "010-4417-1199",
    "lat": 35.9438862,
    "lng": 128.5587504,
    "region": "대구",
    "district": "북구"
  },
  {
    "name": "대구태전점",
    "address": "대구광역시 북구 칠곡중앙대로 411",
    "phone": "070-7459-7564",
    "lat": 35.93252943834629,
    "lng": 128.54812183460845,
    "region": "대구",
    "district": "북구"
  },
  {
    "name": "대구연경점",
    "address": "대구광역시 북구 동화천로 229",
    "phone": "053-262-5000",
    "lat": 35.9423807,
    "lng": 128.616052,
    "region": "대구",
    "district": "북구"
  },
  {
    "name": "대구서재FS점",
    "address": "대구광역시 달성군 다사읍 서재로 66",
    "phone": "070-7462-6867",
    "lat": 35.8694585,
    "lng": 128.496596,
    "region": "대구",
    "district": "달성군"
  },
  {
    "name": "대구성서이마트점",
    "address": "대구광역시 달서구 이곡동로 24",
    "phone": "053-583-1332",
    "lat": 35.8533295694,
    "lng": 128.5101701882,
    "region": "대구",
    "district": "달서구"
  },
  {
    "name": "대구이시아폴리스점",
    "address": "대구광역시 동구 팔공로 49길 51",
    "phone": "053-986-7733",
    "lat": 35.9206687,
    "lng": 128.6359096,
    "region": "대구",
    "district": "동구"
  },
  {
    "name": "대구평리DT점",
    "address": "대구광역시 서구 국채보상로 298",
    "phone": "053-566-0332",
    "lat": 35.87153561070116,
    "lng": 128.56348291343173,
    "region": "대구",
    "district": "서구"
  },
  {
    "name": "대구산격DT점",
    "address": "대구광역시 북구 검단로 29",
    "phone": "070-7462-6745",
    "lat": 35.90053429076513,
    "lng": 128.61523176851188,
    "region": "대구",
    "district": "북구"
  },
  {
    "name": "대구죽전네거리DT",
    "address": "대구광역시 달서구 달구벌대로 1536",
    "phone": "010-9515-5353",
    "lat": 35.8495270764,
    "lng": 128.5351664857,
    "region": "대구",
    "district": "달서구"
  },
  {
    "name": "대구삼성창조캠퍼스점",
    "address": "대구광역시 북구 호암로 51",
    "phone": "053-354-0332",
    "lat": 35.883688163,
    "lng": 128.5959763042,
    "region": "대구",
    "district": "북구"
  },
  {
    "name": "대구두류점",
    "address": "대구광역시 서구 달구벌대로 1769-7",
    "phone": "070-7459-6915",
    "lat": 35.86020416627433,
    "lng": 128.55841898318727,
    "region": "대구",
    "district": "서구"
  },
  {
    "name": "대구대현점",
    "address": "대구광역시 북구 대현로 102",
    "phone": "053-958-5558",
    "lat": 35.8821171,
    "lng": 128.6100235,
    "region": "대구",
    "district": "북구"
  },
  {
    "name": "대구중앙로점",
    "address": "대구광역시 중구 중앙대로 398",
    "phone": "070-7462-6757",
    "lat": 35.86853588775503,
    "lng": 128.5939762277822,
    "region": "대구",
    "district": "중구"
  },
  {
    "name": "대구월성점",
    "address": "대구광역시 달서구 조암로 29",
    "phone": "070-7459-7099",
    "lat": 35.8246183,
    "lng": 128.5269727,
    "region": "대구",
    "district": "달서구"
  },
  {
    "name": "대구남산역점",
    "address": "대구광역시 남구 명덕로 122",
    "phone": "053-215-3573",
    "lat": 35.8561956,
    "lng": 128.583584,
    "region": "대구",
    "district": "남구"
  },
  {
    "name": "대구화원점",
    "address": "대구광역시 달성군 화원읍 성화로 2",
    "phone": "010-2664-6056",
    "lat": 35.8011148,
    "lng": 128.4925561,
    "region": "대구",
    "district": "달성군"
  },
  {
    "name": "경대병원역SK점",
    "address": "대구광역시 중구 달구벌대로 2194",
    "phone": "053-253-0332",
    "lat": 35.862627,
    "lng": 128.6032204,
    "region": "대구",
    "district": "중구"
  },
  {
    "name": "대구대명FS점",
    "address": "대구광역시 남구 대명로 89",
    "phone": "010-9637-0233",
    "lat": 35.8397496,
    "lng": 128.5675436,
    "region": "대구",
    "district": "남구"
  },
  {
    "name": "대구월촌역FS점",
    "address": "대구광역시 달서구 월배로 320",
    "phone": "070-7462-6880",
    "lat": 35.8239328,
    "lng": 128.5462328,
    "region": "대구",
    "district": "달서구"
  },
  {
    "name": "대구효신네거리점",
    "address": "대구광역시 수성구 화랑로 76",
    "phone": "070-7459-7544",
    "lat": 35.87177841041165,
    "lng": 128.63519874459024,
    "region": "대구",
    "district": "수성구"
  },
  {
    "name": "대구수성점",
    "address": "대구광역시 수성구 들안로 325",
    "phone": "070-7459-7552",
    "lat": 35.858883507853136,
    "lng": 128.61715550819915,
    "region": "대구",
    "district": "수성구"
  },
  {
    "name": "대구도원점",
    "address": "대구광역시 달서구 도원로 12",
    "phone": "070-7459-6887",
    "lat": 35.80865950477959,
    "lng": 128.53568702935434,
    "region": "대구",
    "district": "달서구"
  },
  {
    "name": "대구만촌점",
    "address": "대구광역시 수성구 달구벌대로 2622",
    "phone": "053-741-0208",
    "lat": 35.8570410155,
    "lng": 128.6487131859,
    "region": "대구",
    "district": "수성구"
  },
  {
    "name": "대구율하점",
    "address": "대구광역시 동구 안심로22길 10",
    "phone": "053-959-1126",
    "lat": 35.8664014,
    "lng": 128.6960714,
    "region": "대구",
    "district": "동구"
  },
  {
    "name": "대구지산점",
    "address": "대구광역시 수성구 지범로 159",
    "phone": "053-783-1557",
    "lat": 35.8227619,
    "lng": 128.637626,
    "region": "대구",
    "district": "수성구"
  },
  {
    "name": "대구신서혁신도시DT점",
    "address": "대구광역시 동구 이노밸리로 277",
    "phone": "070-7462-8651",
    "lat": 35.8784926,
    "lng": 128.7272353,
    "region": "대구",
    "district": "동구"
  },
  {
    "name": "대구시지점",
    "address": "대구광역시 수성구 신매로19길 46",
    "phone": "053-791-0331",
    "lat": 35.8394876618,
    "lng": 128.7072397697,
    "region": "대구",
    "district": "수성구"
  },
  {
    "name": "경산하양점",
    "address": "경상북도 경산시 하양읍 하양로 50",
    "phone": "053-242-3507",
    "lat": 35.90995525025749,
    "lng": 128.81485535398863,
    "region": "경상북도",
    "district": "경산시"
  },
  {
    "name": "대구테크노폴리스점",
    "address": "대구광역시 달성군 현풍면 테크노중앙대로 243",
    "phone": "053-617-6777",
    "lat": 35.692139,
    "lng": 128.4573906,
    "region": "대구",
    "district": "달성군"
  },
  {
    "name": "대구대점",
    "address": "경상북도 경산시 대구대로 201",
    "phone": "053-852-2254",
    "lat": 35.904537694,
    "lng": 128.842814453,
    "region": "경상북도",
    "district": "경산시"
  },
  {
    "name": "경산중방DT점",
    "address": "경상북도 경산시 경안로 235",
    "phone": "053-710-4448",
    "lat": 35.8283577,
    "lng": 128.7364283,
    "region": "경상북도",
    "district": "경산시"
  },
  {
    "name": "경산진량DT점",
    "address": "경상북도 경산시 진량읍 다문로 53",
    "phone": "070-7462-6756",
    "lat": 35.87515860205697,
    "lng": 128.81676162069942,
    "region": "경상북도",
    "district": "경산시"
  },
  {
    "name": "영천DT점",
    "address": "경상북도 영천시 조교동 695-2",
    "phone": "070-7459-7024",
    "lat": 35.975902,
    "lng": 128.9540619,
    "region": "경상북도",
    "district": "영천시"
  },
  {
    "name": "경산사동점",
    "address": "경상북도 경산시 백자로 55",
    "phone": "053-815-2244",
    "lat": 35.8113345,
    "lng": 128.7539153,
    "region": "경상북도",
    "district": "경산시"
  },
  {
    "name": "광주월계점",
    "address": "광주광역시 광산구 첨단중앙로 104",
    "phone": "062-973-5599",
    "lat": 35.2146169,
    "lng": 126.8432897,
    "region": "광주",
    "district": "광산구"
  },
  {
    "name": "광주첨단2지구점",
    "address": "광주광역시 북구 첨단연신로91번길 10",
    "phone": "062-574-2457",
    "lat": 35.206545,
    "lng": 126.8632654,
    "region": "광주",
    "district": "북구"
  },
  {
    "name": "광주일곡점",
    "address": "광주광역시 북구 설죽로 495",
    "phone": "062-573-0305",
    "lat": 35.2033538,
    "lng": 126.8980676,
    "region": "광주",
    "district": "북구"
  },
  {
    "name": "광주수완DT점",
    "address": "광주광역시 광산구 임방울대로 499",
    "phone": "070-7462-6758",
    "lat": 35.20353389378798,
    "lng": 126.81922566415336,
    "region": "광주",
    "district": "광산구"
  },
  {
    "name": "광주신창점",
    "address": "광주광역시 광산구 신창로 82",
    "phone": "062-953-8996",
    "lat": 35.1924801,
    "lng": 126.8374111,
    "region": "광주",
    "district": "광산구"
  },
  {
    "name": "광주수완점",
    "address": "광주광역시 광산구 장신로 142",
    "phone": "062-953-0233",
    "lat": 35.1904303708,
    "lng": 126.82560541,
    "region": "광주",
    "district": "광산구"
  },
  {
    "name": "광주두암점",
    "address": "광주광역시 북구 동문대로 181",
    "phone": "070-7459-7276",
    "lat": 35.1786431,
    "lng": 126.9289146,
    "region": "광주",
    "district": "북구"
  },
  {
    "name": "광주운암점",
    "address": "광주광역시 북구 북문대로 101",
    "phone": "070-7462-8654",
    "lat": 35.1785712,
    "lng": 126.8760364,
    "region": "광주",
    "district": "북구"
  },
  {
    "name": "전남대후문점",
    "address": "광주광역시 북구 우치로 76",
    "phone": "062-251-0332",
    "lat": 35.1741881,
    "lng": 126.9129468,
    "region": "광주",
    "district": "북구"
  },
  {
    "name": "광주하남점",
    "address": "광주광역시 광산구 풍영철길로 15",
    "phone": "062-611-7324",
    "lat": 35.1628953,
    "lng": 126.8116598,
    "region": "광주",
    "district": "광산구"
  },
  {
    "name": "광주화정점",
    "address": "광주광역시 서구 죽봉대로 37",
    "phone": "070-7459-6905",
    "lat": 35.15661904210975,
    "lng": 126.88279224521708,
    "region": "광주",
    "district": "서구"
  },
  {
    "name": "광주상무점",
    "address": "광주광역시 서구 치평로 106",
    "phone": "070-7459-7329",
    "lat": 35.1567856,
    "lng": 126.8477842,
    "region": "광주",
    "district": "서구"
  },
  {
    "name": "광주충장점",
    "address": "광주광역시 동구 충장로 101-4",
    "phone": "070-7462-8548",
    "lat": 35.1471592,
    "lng": 126.9181626,
    "region": "광주",
    "district": "동구"
  },
  {
    "name": "한동대점",
    "address": "경상북도 포항시 북구 흥해읍 한동로 558",
    "phone": "070-4140-0109",
    "lat": 36.1023019859,
    "lng": 129.3892650759,
    "region": "경상북도",
    "district": "포항시"
  },
  {
    "name": "호남대점",
    "address": "광주광역시 광산구 어등대로 418-1",
    "phone": "062-946-7700",
    "lat": 35.1488347644,
    "lng": 126.7696072228,
    "region": "광주",
    "district": "광산구"
  },
  {
    "name": "포항법원앞DT점",
    "address": "경상북도 포항시 북구 신덕로 257",
    "phone": "054-256-0332",
    "lat": 36.0874157008,
    "lng": 129.3879262343,
    "region": "경상북도",
    "district": "포항시"
  },
  {
    "name": "포항공대점",
    "address": "경상북도 포항시 남구 청암로 77",
    "phone": "054-279-2585",
    "lat": 36.015659,
    "lng": 129.322455,
    "region": "경상북도",
    "district": "포항시"
  },
  {
    "name": "광주주월에스오일점",
    "address": "광주광역시 남구 회재로 1190",
    "phone": "070-7438-8609",
    "lat": 35.1317604219,
    "lng": 126.8915665447,
    "region": "광주",
    "district": "남구"
  },
  {
    "name": "포항두호DT점",
    "address": "경상북도 포항시 북구 두호로 39",
    "phone": "070-7462-8629",
    "lat": 36.0599693,
    "lng": 129.374097,
    "region": "경상북도",
    "district": "포항시"
  },
  {
    "name": "광주봉선점",
    "address": "광주광역시 남구 봉선로 180",
    "phone": "062-671-0331",
    "lat": 35.1228357,
    "lng": 126.914829,
    "region": "광주",
    "district": "남구"
  },
  {
    "name": "광주진월점",
    "address": "광주광역시 남구 서문대로 683",
    "phone": "062-412-3015",
    "lat": 35.12023487721112,
    "lng": 126.89865131795553,
    "region": "광주",
    "district": "남구"
  },
  {
    "name": "포항버스터미널점",
    "address": "경상북도 포항시 남구 중흥로 96",
    "phone": "054-274-0332",
    "lat": 36.0135076756,
    "lng": 129.3510222981,
    "region": "경상북도",
    "district": "포항시"
  },
  {
    "name": "포항대도DT점",
    "address": "경상북도 포항시 남구 희망대로 843",
    "phone": "070-7459-7018",
    "lat": 36.0109843,
    "lng": 129.3647282,
    "region": "경상북도",
    "district": "포항시"
  },
  {
    "name": "광주효천2지구점",
    "address": "광주광역시 남구 효우2로 34",
    "phone": "062-675-0577",
    "lat": 35.101812,
    "lng": 126.8883664,
    "region": "광주",
    "district": "남구"
  },
  {
    "name": "경주용강DT점",
    "address": "경상북도 경주시 산업로 4494",
    "phone": "070-7462-8519",
    "lat": 35.8806963,
    "lng": 129.2297501,
    "region": "경상북도",
    "district": "경주시"
  },
  {
    "name": "포항철강단지SK점",
    "address": "경상북도 포항시 남구 대송로 290",
    "phone": "070-7462-6722",
    "lat": 36.0022004,
    "lng": 129.3815624,
    "region": "경상북도",
    "district": "포항시"
  },
  {
    "name": "경주터미널FS점",
    "address": "경상북도 경주시 강변로 158-3",
    "phone": "070-7438-6505",
    "lat": 35.8379412,
    "lng": 129.2030693,
    "region": "경상북도",
    "district": "경주시"
  },
  {
    "name": "밀양삼문FS점",
    "address": "경상남도 밀양시 밀양대로 1790",
    "phone": "070-7720-0101",
    "lat": 35.4850957,
    "lng": 128.7512722,
    "region": "경상남도",
    "district": "밀양시"
  },
  {
    "name": "경주보문점",
    "address": "경상북도 경주시 엑스포로 80",
    "phone": "070-8801-5704",
    "lat": 35.834557,
    "lng": 129.289868,
    "region": "경상북도",
    "district": "경주시"
  },
  {
    "name": "진주하대DT점",
    "address": "경상남도 진주시 대신로 345",
    "phone": "070-7459-7020",
    "lat": 35.1913039,
    "lng": 128.1163998,
    "region": "경상남도",
    "district": "진주시"
  },
  {
    "name": "진주평거점",
    "address": "경상남도 진주시 진양호로 221",
    "phone": "070-7462-6879",
    "lat": 35.1744545,
    "lng": 128.0608209,
    "region": "경상남도",
    "district": "진주시"
  },
  {
    "name": "나주빛가람점",
    "address": "전라남도 나주시 전력로 2",
    "phone": "061-333-5597",
    "lat": 35.0215717,
    "lng": 126.785331,
    "region": "전라남도",
    "district": "나주시"
  },
  {
    "name": "진주혁신도시점",
    "address": "경상남도 진주시 사들로 97",
    "phone": "055-761-6363",
    "lat": 35.1762154508,
    "lng": 128.1485617462,
    "region": "경상남도",
    "district": "진주시"
  },
  {
    "name": "진주경상대점",
    "address": "경상남도 진주시 진주대로 540",
    "phone": "055-756-5658",
    "lat": 35.1546133,
    "lng": 128.1072443,
    "region": "경상남도",
    "district": "진주시"
  },
  {
    "name": "순천법원점",
    "address": "전라남도 순천시 왕지로 8-1",
    "phone": "061-727-6006",
    "lat": 34.9696766,
    "lng": 127.5228207,
    "region": "전라남도",
    "district": "순천시"
  },
  {
    "name": "광양LF스퀘어점",
    "address": "전라남도 광양시 광양읍 순광로 466 LF스퀘어",
    "phone": "061-815-4902",
    "lat": 34.9626559238,
    "lng": 127.5663146932,
    "region": "전라남도",
    "district": "광양시"
  },
  {
    "name": "창원유니시티점",
    "address": "경상남도 창원시 의창구 중동북로 23",
    "phone": "070-7459-7594",
    "lat": 35.25788981014966,
    "lng": 128.62750225511903,
    "region": "경상남도",
    "district": "창원시"
  },
  {
    "name": "김해진영FS점",
    "address": "경상남도 김해시 진영읍 김해대로 386-5",
    "phone": "070-7438-6553",
    "lat": 35.305792,
    "lng": 128.7322387,
    "region": "경상남도",
    "district": "김해시"
  },
  {
    "name": "순천신대점",
    "address": "전라남도 순천시 해룡면 향매로 71",
    "phone": "061-723-5162",
    "lat": 34.9342317,
    "lng": 127.547219,
    "region": "전라남도",
    "district": "순천시"
  },
  {
    "name": "마산회원FS점",
    "address": "경상남도 창원시 마산회원구 315대로 522",
    "phone": "070-7462-6872",
    "lat": 35.2208916,
    "lng": 128.5742884,
    "region": "경상남도",
    "district": "창원시"
  },
  {
    "name": "광양중동점",
    "address": "전라남도 광양시 중마중앙로 65",
    "phone": "061-794-0031",
    "lat": 34.9361317067,
    "lng": 127.6977158419,
    "region": "전라남도",
    "district": "광양시"
  },
  {
    "name": "울산구영DT점",
    "address": "울산광역시 울주군 범서읍 구영로 159",
    "phone": "052-245-5400",
    "lat": 35.5686252,
    "lng": 129.2440668,
    "region": "울산",
    "district": "울주군"
  },
  {
    "name": "창원광장점",
    "address": "경상남도 창원시 성산구 용지로133번길 3",
    "phone": "070-7462-6824",
    "lat": 35.2273788,
    "lng": 128.6794586,
    "region": "경상남도",
    "district": "창원시"
  },
  {
    "name": "울산호계DT점",
    "address": "울산광역시 북구 산업로 1426",
    "phone": "070-7462-8544",
    "lat": 35.6332087,
    "lng": 129.3456044,
    "region": "울산",
    "district": "북구"
  },
  {
    "name": "창원상남FS점",
    "address": "경상남도 창원시 성산구 마디미로3번길 18",
    "phone": "070-7438-8228",
    "lat": 35.2227504733,
    "lng": 128.6871523641,
    "region": "경상남도",
    "district": "창원시"
  },
  {
    "name": "울산무거점",
    "address": "울산광역시 남구 대학로 157",
    "phone": "052-249-0332",
    "lat": 35.5486925897,
    "lng": 129.2624127449,
    "region": "울산",
    "district": "남구"
  },
  {
    "name": "울산우정SK점",
    "address": "울산광역시 중구 북부순환도로 323",
    "phone": "052-246-0332",
    "lat": 35.5595073417,
    "lng": 129.2966096117,
    "region": "울산",
    "district": "중구"
  },
  {
    "name": "울산국가정원점",
    "address": "울산광역시 중구 태화로 240",
    "phone": "070-4103-2500",
    "lat": 35.5521981,
    "lng": 129.301963,
    "region": "울산",
    "district": "중구"
  },
  {
    "name": "울산옥동점",
    "address": "울산광역시 남구 문수로 326",
    "phone": "070-7438-6558",
    "lat": 35.5349913,
    "lng": 129.2890015,
    "region": "울산",
    "district": "남구"
  },
  {
    "name": "울산북구청DT점",
    "address": "울산광역시 북구 안기번득길 23",
    "phone": "070-7462-6874",
    "lat": 35.5863315,
    "lng": 129.3585588,
    "region": "울산",
    "district": "북구"
  },
  {
    "name": "울산성남점",
    "address": "울산광역시 중구 만남의거리 15",
    "phone": "070-7438-6529",
    "lat": 35.5543668,
    "lng": 129.3208289,
    "region": "울산",
    "district": "중구"
  },
  {
    "name": "울산신정FS점",
    "address": "울산광역시 남구 봉월로 97",
    "phone": "052-268-5888",
    "lat": 35.5412417,
    "lng": 129.3053894,
    "region": "울산",
    "district": "남구"
  },
  {
    "name": "김해구산DT점",
    "address": "경상남도 김해시 김해대로 1928",
    "phone": "070-7462-8761",
    "lat": 35.2546655,
    "lng": 128.8667821,
    "region": "경상남도",
    "district": "김해시"
  },
  {
    "name": "진해충무DT점",
    "address": "경상남도 창원시 진해구 충장로 103",
    "phone": "070-7462-6771",
    "lat": 35.1526821,
    "lng": 128.6634435,
    "region": "경상남도",
    "district": "창원시"
  },
  {
    "name": "경남삼천포점",
    "address": "경상남도 사천시 주공로 41",
    "phone": "055-832-8585",
    "lat": 34.9421049,
    "lng": 128.0862801,
    "region": "경상남도",
    "district": "사천시"
  },
  {
    "name": "양산터미널점",
    "address": "경상남도 양산시 양산역2길 9",
    "phone": "070-7459-7239",
    "lat": 35.3355354,
    "lng": 129.0282801,
    "region": "경상남도",
    "district": "양산시"
  },
  {
    "name": "울산삼산점",
    "address": "울산광역시 남구 삼산로277번길 8",
    "phone": "070-7462-8589",
    "lat": 35.5401591,
    "lng": 129.3374286,
    "region": "울산",
    "district": "남구"
  },
  {
    "name": "양산물금DT점",
    "address": "경상남도 양산시 물금읍 황산로 372",
    "phone": "070-7462-6873",
    "lat": 35.3095301,
    "lng": 128.9866063,
    "region": "경상남도",
    "district": "양산시"
  },
  {
    "name": "양산웅상DT점",
    "address": "경상남도 양산시 웅상대로 1204",
    "phone": "070-7462-6749",
    "lat": 35.405551974295264,
    "lng": 129.1640191504265,
    "region": "경상남도",
    "district": "양산시"
  },
  {
    "name": "전남도청점",
    "address": "전라남도 무안군 삼향읍 남악3로 71",
    "phone": "061-285-6356",
    "lat": 34.812221625,
    "lng": 126.4597706891,
    "region": "전라남도",
    "district": "무안군"
  },
  {
    "name": "김해내외점",
    "address": "경상남도 김해시 함박로 102",
    "phone": "070-7462-6776",
    "lat": 35.23022409595186,
    "lng": 128.86375761041575,
    "region": "경상남도",
    "district": "김해시"
  },
  {
    "name": "진해자은DT점",
    "address": "경상남도 창원시 진해구 진해대로 940",
    "phone": "070-7462-8637",
    "lat": 35.145726,
    "lng": 128.7068685,
    "region": "경상남도",
    "district": "창원시"
  },
  {
    "name": "서김해DT점",
    "address": "경상남도 김해시 서김해산단안길 100",
    "phone": "070-7459-7015",
    "lat": 35.212708,
    "lng": 128.8451172,
    "region": "경상남도",
    "district": "김해시"
  },
  {
    "name": "김해장유DT점",
    "address": "경상남도 김해시 반룡로 70",
    "phone": "070-7462-6714",
    "lat": 35.1884633144,
    "lng": 128.8054471858,
    "region": "경상남도",
    "district": "김해시"
  },
  {
    "name": "김해아이스퀘어몰점",
    "address": "경상남도 김해시 김해대로 2352",
    "phone": "055-327-0700",
    "lat": 35.225852393,
    "lng": 128.8841862976,
    "region": "경상남도",
    "district": "김해시"
  },
  {
    "name": "목포하당점",
    "address": "전라남도 목포시 비파로 50",
    "phone": "061-287-6356",
    "lat": 34.8031802973,
    "lng": 126.4269887468,
    "region": "전라남도",
    "district": "목포시"
  },
  {
    "name": "동김해DT점",
    "address": "경상남도 김해시 김해대로 2499",
    "phone": "070-7438-6506",
    "lat": 35.2275151,
    "lng": 128.9000746,
    "region": "경상남도",
    "district": "김해시"
  },
  {
    "name": "양산사송점",
    "address": "경상남도 양산시 동면 삼송로 101",
    "phone": "055-367-2477",
    "lat": 35.3173292,
    "lng": 129.0650811,
    "region": "경상남도",
    "district": "양산시"
  },
  {
    "name": "울산동구오일뱅크점",
    "address": "울산광역시 동구 방어진순환도로 1025",
    "phone": "052-232-0331",
    "lat": 35.5326010301,
    "lng": 129.4322384859,
    "region": "울산",
    "district": "동구"
  },
  {
    "name": "부산화명점",
    "address": "부산광역시 북구 화명대로 44",
    "phone": "070-7462-6865",
    "lat": 35.2343701,
    "lng": 129.0129811,
    "region": "부산",
    "district": "북구"
  },
  {
    "name": "부산정관DT점",
    "address": "부산광역시 기장군 정관읍 용수로 48",
    "phone": "070-7438-8624",
    "lat": 35.3272121831,
    "lng": 129.1762887255,
    "region": "부산",
    "district": "기장군"
  },
  {
    "name": "울산일산점",
    "address": "울산광역시 동구 방어진순환도로 626",
    "phone": "070-7459-7555",
    "lat": 35.497642148101704,
    "lng": 129.42815494744175,
    "region": "울산",
    "district": "동구"
  },
  {
    "name": "부산외대점",
    "address": "부산광역시 금정구 금샘로 478",
    "phone": "070-7438-6552",
    "lat": 35.2657589,
    "lng": 129.085711,
    "region": "부산",
    "district": "금정구"
  },
  {
    "name": "부산덕천점",
    "address": "부산광역시 북구 만덕대로 17",
    "phone": "070-7459-7567",
    "lat": 35.210690532853945,
    "lng": 129.00702485435804,
    "region": "부산",
    "district": "북구"
  },
  {
    "name": "김해공항DT점",
    "address": "부산광역시 강서구 공항로 779",
    "phone": "070-7438-8150",
    "lat": 35.1763944,
    "lng": 128.9583651,
    "region": "부산",
    "district": "강서구"
  },
  {
    "name": "여수웅천점",
    "address": "전라남도 여수시 예울마루로 37-15",
    "phone": "010-7368-0162",
    "lat": 34.7469122687,
    "lng": 127.6709425199,
    "region": "전라남도",
    "district": "여수시"
  },
  {
    "name": "부산구서점",
    "address": "부산광역시 금정구 구서로 20",
    "phone": "070-7459-7219",
    "lat": 35.2468795,
    "lng": 129.0890477,
    "region": "부산",
    "district": "금정구"
  },
  {
    "name": "부산대점",
    "address": "부산광역시 금정구 금정로 66",
    "phone": "070-7462-6769",
    "lat": 35.230486367021264,
    "lng": 129.08662207912425,
    "region": "부산",
    "district": "금정구"
  },
  {
    "name": "진해신항DT점",
    "address": "경상남도 창원시 진해구 신항4로 41-31",
    "phone": "070-7461-4705",
    "lat": 35.0865227,
    "lng": 128.8147261,
    "region": "경상남도",
    "district": "창원시"
  },
  {
    "name": "부산백양대로DT점",
    "address": "부산광역시 사상구 백양대로 682",
    "phone": "070-4114-7088",
    "lat": 35.1680695,
    "lng": 128.9892286,
    "region": "부산",
    "district": "사상구"
  },
  {
    "name": "부산서부터미널점",
    "address": "부산광역시 사상구 사상로 201",
    "phone": "051-311-9713",
    "lat": 35.1631462,
    "lng": 128.9809858,
    "region": "부산",
    "district": "사상구"
  },
  {
    "name": "부산사직점",
    "address": "부산광역시 동래구 사직로 58",
    "phone": "070-7462-8664",
    "lat": 35.1956668,
    "lng": 129.0593627,
    "region": "부산",
    "district": "동래구"
  },
  {
    "name": "부산수안역점",
    "address": "부산광역시 동래구 충렬대로 194",
    "phone": "070-7462-9963",
    "lat": 35.2029149,
    "lng": 129.0809893,
    "region": "부산",
    "district": "동래구"
  },
  {
    "name": "부산서동점",
    "address": "부산광역시 금정구 서동로 168",
    "phone": "070-7459-7224",
    "lat": 35.2144461,
    "lng": 129.1047804,
    "region": "부산",
    "district": "금정구"
  },
  {
    "name": "부산안락DT점",
    "address": "부산광역시 동래구 충렬대로 311",
    "phone": "051-556-3800",
    "lat": 35.1998365,
    "lng": 129.0931623,
    "region": "부산",
    "district": "동래구"
  },
  {
    "name": "부산주례점",
    "address": "부산광역시 사상구 가야대로 298",
    "phone": "070-7438-6507",
    "lat": 35.1504101,
    "lng": 129.0051412,
    "region": "부산",
    "district": "사상구"
  },
  {
    "name": "부산연산DT점",
    "address": "부산광역시 연제구 과정로 352",
    "phone": "070-7459-7376",
    "lat": 35.1907272,
    "lng": 129.0900337,
    "region": "부산",
    "district": "연제구"
  },
  {
    "name": "부산연산RFS점",
    "address": "부산광역시 연제구 중앙대로 1087",
    "phone": "051-868-0332",
    "lat": 35.1850169251,
    "lng": 129.0803962318,
    "region": "부산",
    "district": "연제구"
  },