[
  {
    "name": "도미노피자 명동점",
    "address": "서울특별시 중구 마른내로 47 (초동)",
    "phone": "02-2264-3081",
    "lat": 37.564732,
    "lng": 126.993168,
    "region": "서울특별시",
    "district": "중구"
  },
  {
    "name": "도미노피자 신당점",
    "address": "서울특별시 중구 다산로 156 (신당동)",
    "phone": "02-2233-3082",
    "lat": 37.557594,
    "lng": 127.012465,
    "region": "서울특별시",
    "district": "중구"
  },
  {
    "name": "도미노피자 대학로점",
    "address": "서울특별시 종로구 율곡로17길 7-38",
    "phone": "02-3675-3082",
    "lat": 37.5762077,
    "lng": 127.004005,
    "region": "서울특별시",
    "district": "종로구"
  },
  {
    "name": "도미노피자 세종로점",
    "address": "서울특별시 종로구 자하문로 85  1층",
    "phone": "02-723-3082",
    "lat": 37.58355386666154,
    "lng": 126.97008774820917,
    "region": "서울특별시",
    "district": "종로구"
  },
  {
    "name": "도미노피자 서대문점",
    "address": "서울특별시 서대문구 통일로 149-1 (냉천동)",
    "phone": "02-312-3089",
    "lat": 37.567489,
    "lng": 126.964609,
    "region": "서울특별시",
    "district": "서대문구"
  },
  {
    "name": "도미노피자 가좌점",
    "address": "서울특별시 은평구 증산로 303, 상가 104~106호 (증산동, 태광아파트)",
    "phone": "02-305-3082",
    "lat": 37.584091,
    "lng": 126.909524,
    "region": "서울특별시",
    "district": "은평구"
  },
  {
    "name": "도미노피자 홍제점",
    "address": "서울특별시 서대문구 세검정로 72 (홍제동)",
    "phone": "02-739-3082",
    "lat": 37.593942,
    "lng": 126.948252,
    "region": "서울특별시",
    "district": "서대문구"
  },
  {
    "name": "도미노피자 신촌점",
    "address": "서울특별시 마포구 창전로 60, 1층 104~105호 (구수동, 서강빌딩)",
    "phone": "02-714-7555",
    "lat": 37.547757,
    "lng": 126.9329,
    "region": "서울특별시",
    "district": "마포구"
  },
  {
    "name": "도미노피자 마포점",
    "address": "서울특별시 마포구 백범로 123 (염리동, 신양빌딩)",
    "phone": "02-717-3082",
    "lat": 37.546759,
    "lng": 126.944943,
    "region": "서울특별시",
    "district": "마포구"
  },
  {
    "name": "도미노피자 망원점",
    "address": "서울특별시 마포구 월드컵로10길 5 (서교동)",
    "phone": "02-335-2060",
    "lat": 37.554536,
    "lng": 126.912008,
    "region": "서울특별시",
    "district": "마포구"
  },
  {
    "name": "도미노피자 은평점",
    "address": "서울특별시 은평구 연서로 35 (역촌동)",
    "phone": "02-359-3204",
    "lat": 37.602211,
    "lng": 126.915591,
    "region": "서울특별시",
    "district": "은평구"
  },
  {
    "name": "도미노피자 장안점",
    "address": "서울특별시 동대문구 한천로 95 (답십리동)",
    "phone": "02-2249-5462",
    "lat": 37.570038,
    "lng": 127.064293,
    "region": "서울특별시",
    "district": "동대문구"
  },
  {
    "name": "도미노피자 이문점",
    "address": "서울특별시 동대문구 휘경로 5-1 (이문동) 2층",
    "phone": "02-959-3127",
    "lat": 37.596329,
    "lng": 127.060904,
    "region": "서울특별시",
    "district": "동대문구"
  },
  {
    "name": "도미노피자 고대점",
    "address": "서울특별시 동대문구 안암로 82 (제기동)",
    "phone": "02-966-3082",
    "lat": 37.583161,
    "lng": 127.030284,
    "region": "서울특별시",
    "district": "동대문구"
  },
  {
    "name": "도미노피자 중랑점",
    "address": "서울특별시 중랑구 망우로 377 (상봉동, 성환빌딩)",
    "phone": "02-436-3082",
    "lat": 37.598701,
    "lng": 127.094017,
    "region": "서울특별시",
    "district": "중랑구"
  },
  {
    "name": "도미노피자 면목점",
    "address": "서울특별시 중랑구 용마산로86길 9-27, 상가 104호 (면목동, 신성미소지움아파트)",
    "phone": "02-435-3098",
    "lat": 37.587417,
    "lng": 127.096016,
    "region": "서울특별시",
    "district": "중랑구"
  },
  {
    "name": "도미노피자 쌍문점",
    "address": "서울특별시 도봉구 해등로 139 (창동, 미소애아파트)",
    "phone": "02-991-5815",
    "lat": 37.655855,
    "lng": 127.040211,
    "region": "서울특별시",
    "district": "도봉구"
  },
  {
    "name": "도미노피자 도봉점",
    "address": "서울특별시 도봉구 도봉로 775 (도봉동)",
    "phone": "02-3491-5252",
    "lat": 37.673705,
    "lng": 127.043989,
    "region": "서울특별시",
    "district": "도봉구"
  },
  {
    "name": "도미노피자 금호옥수점",
    "address": "서울특별시 성동구 금호로 54  1층",
    "phone": "02-2294-0273",
    "lat": 37.54831,
    "lng": 127.026015,
    "region": "서울특별시",
    "district": "성동구"
  },
  {
    "name": "도미노피자 행당점",
    "address": "서울특별시 성동구 고산자로 308 (마장동)",
    "phone": "02-2291-3082",
    "lat": 37.566981,
    "lng": 127.037004,
    "region": "서울특별시",
    "district": "성동구"
  },
  {
    "name": "도미노피자 길동점",
    "address": "서울특별시 강동구 천중로 200 (길동, 다성이즈빌)",
    "phone": "02-3426-0454",
    "lat": 37.540604,
    "lng": 127.142437,
    "region": "서울특별시",
    "district": "강동구"
  },
  {
    "name": "도미노피자 둔촌점",
    "address": "서울특별시 강동구 풍성로 186 교유빌딩",
    "phone": "02-478-0337",
    "lat": 37.5297923,
    "lng": 127.132352,
    "region": "서울특별시",
    "district": "강동구"
  },
  {
    "name": "도미노피자 천호암사점",
    "address": "서울특별시 강동구 올림픽로 738 (천호동)",
    "phone": "02-475-3082",
    "lat": 37.547027,
    "lng": 127.126681,
    "region": "서울특별시",
    "district": "강동구"
  },
  {
    "name": "도미노피자 개포점",
    "address": "서울특별시 강남구 논현로 58 (개포동, 동진빌딩)",
    "phone": "02-575-9333",
    "lat": 37.475556,
    "lng": 127.04717,
    "region": "서울특별시",
    "district": "강남구"
  },
  {
    "name": "도미노피자 역삼점",
    "address": "서울특별시 강남구 역삼로  146 청오빌딩",
    "phone": "02-564-0554",
    "lat": 37.4944764,
    "lng": 127.035337,
    "region": "서울특별시",
    "district": "강남구"
  },
  {
    "name": "도미노피자 일원점",
    "address": "서울특별시 강남구 일원로9길 18, 태경빌딩 102호 (일원동)",
    "phone": "02-3411-9700",
    "lat": 37.489617,
    "lng": 127.083111,
    "region": "서울특별시",
    "district": "강남구"
  },
  {
    "name": "도미노피자 압구정점",
    "address": "서울특별시 강남구 압구정로 306 (신사동)",
    "phone": "02-544-3626",
    "lat": 37.528845,
    "lng": 127.034738,
    "region": "서울특별시",
    "district": "강남구"
  },
  {
    "name": "도미노피자 논현점",
    "address": "서울특별시 강남구 언주로 604 ACROHILLS논현",
    "phone": "02-546-3082",
    "lat": 37.5095247,
    "lng": 127.038955,
    "region": "서울특별시",
    "district": "강남구"
  },
  {
    "name": "도미노피자 삼성점",
    "address": "서울특별시 강남구 봉은사로 451 (삼성동)",
    "phone": "02-3442-4677",
    "lat": 37.512047,
    "lng": 127.049004,
    "region": "서울특별시",
    "district": "강남구"
  },
  {
    "name": "도미노피자 동소문점",
    "address": "서울특별시 성북구 아리랑로 37-2 (동소문동7가)",
    "phone": "02-928-0192",
    "lat": 37.596067,
    "lng": 127.015345,
    "region": "서울특별시",
    "district": "성북구"
  },
  {
    "name": "도미노피자 월계점",
    "address": "서울특별시 노원구 광운로 52 (월계동)",
    "phone": "02-915-3082",
    "lat": 37.621914,
    "lng": 127.059655,
    "region": "서울특별시",
    "district": "노원구"
  },
  {
    "name": "도미노피자 정릉점",
    "address": "서울특별시 성북구 보국문로 27, 1층 (정릉동)",
    "phone": "02-916-3082",
    "lat": 37.606943,
    "lng": 127.010458,
    "region": "서울특별시",
    "district": "성북구"
  },
  {
    "name": "도미노피자 신사점",
    "address": "서울특별시 강남구 압구정로 114 신사빌딩 1층",
    "phone": "02-533-7878",
    "lat": 37.5232774,
    "lng": 127.021304,
    "region": "서울특별시",
    "district": "강남구"
  },
  {
    "name": "도미노피자 서초점",
    "address": "서울특별시 서초구 사임당로 115  1층 도미노피자 서초점",
    "phone": "02-587-7742",
    "lat": 37.491103,
    "lng": 127.021531,
    "region": "서울특별시",
    "district": "서초구"
  },
  {
    "name": "도미노피자 방배점",
    "address": "서울특별시 서초구 방배로 254 (방배동)",
    "phone": "02-595-8787",
    "lat": 37.495788,
    "lng": 126.988813,
    "region": "서울특별시",
    "district": "서초구"
  },
  {
    "name": "도미노피자 양재점",
    "address": "서울특별시 서초구 바우뫼로 198, 1층 (양재동, 신우빌딩)",
    "phone": "02-578-3080",
    "lat": 37.479656,
    "lng": 127.041199,
    "region": "서울특별시",
    "district": "서초구"
  },
  {
    "name": "도미노피자 오금점",
    "address": "서울특별시 송파구 중대로 314-1 (오금동)",
    "phone": "02-449-3032",
    "lat": 37.508219,
    "lng": 127.133695,
    "region": "서울특별시",
    "district": "송파구"
  },
  {
    "name": "도미노피자 잠실점",
    "address": "서울특별시 송파구 백제고분로 490 거보산업(주)",
    "phone": "02-2203-0029",
    "lat": 37.5138636,
    "lng": 127.114836,
    "region": "서울특별시",
    "district": "송파구"
  },
  {
    "name": "도미노피자 가락점",
    "address": "서울특별시 송파구 오금로36길 65",
    "phone": "02-403-3082",
    "lat": 37.498442,
    "lng": 127.121743,
    "region": "서울특별시",
    "district": "송파구"
  },
  {
    "name": "도미노피자 잠실본점",
    "address": "서울특별시 송파구 백제고분로 184 (잠실동)",
    "phone": "02-415-3082",
    "lat": 37.504351,
    "lng": 127.087062,
    "region": "서울특별시",
    "district": "송파구"
  },
  {
    "name": "도미노피자 중계점",
    "address": "서울특별시 노원구 한글비석로8길 41, 상가 102호 (중계동, 주공6단지아파트)",
    "phone": "02-930-3032",
    "lat": 37.648223,
    "lng": 127.078487,
    "region": "서울특별시",
    "district": "노원구"
  },
  {
    "name": "도미노피자 상계점",
    "address": "서울특별시 노원구 노원로 558 (상계동)",
    "phone": "02-931-3306",
    "lat": 37.661563,
    "lng": 127.05711,
    "region": "서울특별시",
    "district": "노원구"
  },
  {
    "name": "도미노피자 공릉점",
    "address": "서울특별시 노원구 화랑로 465, 101,102호 (공릉동, 엘네스트빌오피스텔)",
    "phone": "02-948-3082",
    "lat": 37.619118,
    "lng": 127.078884,
    "region": "서울특별시",
    "district": "노원구"
  },
  {
    "name": "도미노피자 이촌점",
    "address": "서울특별시 용산구 서빙고로 40 (한강로3가)",
    "phone": "02-795-4673",
    "lat": 37.523971,
    "lng": 126.968747,
    "region": "서울특별시",
    "district": "용산구"
  },
  {
    "name": "도미노피자 후암점",
    "address": "서울특별시 용산구 두텁바위로 13, 102호 (갈월동, 그린빌파크오피스텔)",
    "phone": "02-757-4513",
    "lat": 37.545485,
    "lng": 126.973919,
    "region": "서울특별시",
    "district": "용산구"
  },
  {
    "name": "도미노피자 용산점",
    "address": "서울특별시 용산구 원효로 210-1, 1층 (원효로2가)",
    "phone": "02-718-0041",
    "lat": 37.537359,
    "lng": 126.965497,
    "region": "서울특별시",
    "district": "용산구"
  },
  {
    "name": "도미노피자 수유점",
    "address": "서울시 강북구 노해로 70, 우림빌딩 1층 도미노피자",
    "phone": "02-907-7145",
    "lat": 37.6418278,
    "lng": 127.02267,
    "region": "서울특별시",
    "district": "강북구"
  },
  {
    "name": "도미노피자 구의광장점",
    "address": "서울특별시 광진구 광나루로 562",
    "phone": "02-456-1585",
    "lat": 37.544015,
    "lng": 127.091887,
    "region": "서울특별시",
    "district": "광진구"
  },
  {
    "name": "도미노피자 군자점",
    "address": "서울특별시 광진구 능동로 253 태영빌딩 1층",
    "phone": "02-464-9119",
    "lat": 37.5527337,
    "lng": 127.076642,
    "region": "서울특별시",
    "district": "광진구"
  },
  {
    "name": "도미노피자 중곡점",
    "address": "서울특별시 광진구 용마산로 39 (중곡동)",
    "phone": "02-499-3082",
    "lat": 37.557136,
    "lng": 127.087639,
    "region": "서울특별시",
    "district": "광진구"
  },
  {
    "name": "도미노피자 여의도점",
    "address": "서울특별시 영등포구 국제금융로 78 (여의도동, 홍우빌딩)",
    "phone": "02-780-2012",
    "lat": 37.520874,
    "lng": 126.931304,
    "region": "서울특별시",
    "district": "영등포구"
  },
  {
    "name": "도미노피자 영등포점",
    "address": "서울특별시 영등포구 문래북로 108 (문래동3가, 문래동태영데시앙)",
    "phone": "02-848-4568",
    "lat": 37.519694,
    "lng": 126.897281,
    "region": "서울특별시",
    "district": "영등포구"
  },
  {
    "name": "도미노피자 대림점",
    "address": "서울특별시 영등포구 신길로 39, 1층 (대림동, 썬프라자)",
    "phone": "02-841-3082",
    "lat": 37.4962,
    "lng": 126.907928,
    "region": "서울특별시",
    "district": "영등포구"
  },
  {
    "name": "도미노피자 당산점",
    "address": "서울특별시 영등포구 영중로 145, 상가동 101호 (영등포동8가, 삼환아파트)",
    "phone": "02-2634-3083",
    "lat": 37.529068,
    "lng": 126.905479,
    "region": "서울특별시",
    "district": "영등포구"
  },
  {
    "name": "도미노피자 신림점",
    "address": "서울특별시 관악구 신림로 123 (신림동)",
    "phone": "02-882-3081",
    "lat": 37.470735,
    "lng": 126.93563,
    "region": "서울특별시",
    "district": "관악구"
  },
  {
    "name": "도미노피자 독산난곡점",
    "address": "서울특별시 관악구 난곡로 276  도미노피자 독산난곡점",
    "phone": "02-863-3045",
    "lat": 37.478642,
    "lng": 126.915386,
    "region": "서울특별시",
    "district": "관악구"
  },
  {
    "name": "도미노피자 낙성대점",
    "address": "서울특별시 관악구 남부순환로 1862 (봉천동, 일송빌딩)",
    "phone": "02-872-3063",
    "lat": 37.479522,
    "lng": 126.956549,
    "region": "서울특별시",
    "district": "관악구"
  },
  {
    "name": "도미노피자 구로점",
    "address": "서울특별시 구로구 구로동로 218 (구로동)",
    "phone": "02-859-3082",
    "lat": 37.497987,
    "lng": 126.882724,
    "region": "서울특별시",
    "district": "구로구"
  },
  {
    "name": "도미노피자 개봉점",
    "address": "서울특별시 구로구 중앙로8길 11, 상가 104호 (고척동, 고척월드메르디앙)",
    "phone": "02-2611-3496",
    "lat": 37.5028458,
    "lng": 126.863053,
    "region": "서울특별시",
    "district": "구로구"
  },
  {
    "name": "도미노피자 시흥점",
    "address": "서울특별시 금천구 독산로 3 (시흥동)",
    "phone": "02-806-3088",
    "lat": 37.448715,
    "lng": 126.903571,
    "region": "서울특별시",
    "district": "금천구"
  },
  {
    "name": "도미노피자 사당점",
    "address": "서울특별시 동작구 사당로 155  1층",
    "phone": "02-3482-3084",
    "lat": 37.4877458,
    "lng": 126.966697,
    "region": "서울특별시",
    "district": "동작구"
  },
  {
    "name": "도미노피자 대방점",
    "address": "서울특별시 영등포구 여의대방로 209 (신길동)",
    "phone": "02-821-3082",
    "lat": 37.505573,
    "lng": 126.922265,
    "region": "서울특별시",
    "district": "영등포구"
  },
  {
    "name": "도미노피자 상도점",
    "address": "서울특별시 동작구 상도로 302 (상도동)",
    "phone": "02-825-3192",
    "lat": 37.50073,
    "lng": 126.949382,
    "region": "서울특별시",
    "district": "동작구"
  },
  {
    "name": "도미노피자 방화점",
    "address": "서울특별시 강서구 금낭화로 69 (방화동)",
    "phone": "02-2666-9127",
    "lat": 37.571503,
    "lng": 126.811331,
    "region": "서울특별시",
    "district": "강서구"
  },
  {
    "name": "도미노피자 화곡점",
    "address": "서울특별시 강서구 곰달래로 66 (화곡동)",
    "phone": "02-2694-3082",
    "lat": 37.530025,
    "lng": 126.840079,
    "region": "서울특별시",
    "district": "강서구"
  },
  {
    "name": "도미노피자 등촌가양점",
    "address": "서울특별시 강서구 강서로 447",
    "phone": "02-3663-1747",
    "lat": 37.565368,
    "lng": 126.840086,
    "region": "서울특별시",
    "district": "강서구"
  },
  {
    "name": "도미노피자 목동점",
    "address": "서울특별시 양천구 목동중앙로 85, 금호종합상가 (목동)",
    "phone": "02-2642-0354",
    "lat": 37.537,
    "lng": 126.871504,
    "region": "서울특별시",
    "district": "양천구"
  },
  {
    "name": "도미노피자 양천점",
    "address": "서울특별시 양천구 신월로 371 (신정동)",
    "phone": "02-2604-1306",
    "lat": 37.522384,
    "lng": 126.862269,
    "region": "서울특별시",
    "district": "양천구"
  },
  {
    "name": "도미노피자 신월점",
    "address": "서울특별시 양천구 신월로 224 (신월동)",
    "phone": "02-2692-3728",
    "lat": 37.521912,
    "lng": 126.846716,
    "region": "서울특별시",
    "district": "양천구"
  },
  {
    "name": "도미노피자 부평점",
    "address": "인천광역시 부평구 부평대로 114 (부평동, 부평타워큐아파트)",
    "phone": "032-519-2307",
    "lat": 37.502463,
    "lng": 126.722019,
    "region": "인천광역시",
    "district": "부평구"
  },
  {
    "name": "도미노피자 동인천역점",
    "address": "인천광역시 중구 참외전로 188 도미노피자",
    "phone": "032-761-3094",
    "lat": 37.471382,
    "lng": 126.636452,
    "region": "인천광역시",
    "district": "중구"
  },
  {
    "name": "도미노피자 용현점",
    "address": "인천광역시 미추홀구 인하로133번길 4 현진원룸주택 1층",
    "phone": "032-868-3083",
    "lat": 37.449699,
    "lng": 126.662966,
    "region": "인천광역시",
    "district": "미추홀구"
  },
  {
    "name": "도미노피자 연수점",
    "address": "인천광역시 연수구 용담로 93",
    "phone": "032-818-0030",
    "lat": 37.4163472,
    "lng": 126.675948,
    "region": "인천광역시",
    "district": "연수구"
  },
  {
    "name": "도미노피자 간석점",
    "address": "인천광역시 남동구 주안로 259번길 6(간석동)",
    "phone": "032-439-3083",
    "lat": 37.463654,
    "lng": 126.698964,
    "region": "인천광역시",
    "district": "남동구"
  },
  {
    "name": "도미노피자 인천만수점",
    "address": "인천광역시 남동구 구월로 318, 1층 (만수동, 대성빌딩)",
    "phone": "032-464-3087",
    "lat": 37.455236,
    "lng": 126.72582,
    "region": "인천광역시",
    "district": "남동구"
  },
  {
    "name": "도미노피자 계양점",
    "address": "인천광역시 계양구 주부토로 463 (작전동)",
    "phone": "032-549-3030",
    "lat": 37.535555,
    "lng": 126.72778,
    "region": "인천광역시",
    "district": "계양구"
  },
  {
    "name": "도미노피자 인천석남점",
    "address": "인천광역시 서구 길주로 60 (석남동)",
    "phone": "032-574-3082",
    "lat": 37.506407,
    "lng": 126.668499,
    "region": "인천광역시",
    "district": "서구"
  },
  {
    "name": "도미노피자 옥련점",
    "address": "인천광역시 연수구 청량로184번길 52 (옥련동, 삼선프라자)",
    "phone": "032-831-6677",
    "lat": 37.425402,
    "lng": 126.654671,
    "region": "인천광역시",
    "district": "연수구"
  },
  {
    "name": "도미노피자 주안점",
    "address": "인천광역시 미추홀구 인주대로 410 탑클래시아",
    "phone": "032-435-3082",
    "lat": 37.45097,
    "lng": 126.68197,
    "region": "인천광역시",
    "district": "미추홀구"
  },
  {
    "name": "도미노피자 삼산점",
    "address": "인천광역시 부평구 주부토로 295, 1층 (갈산동)",
    "phone": "032-508-3084",
    "lat": 37.520889,
    "lng": 126.728808,
    "region": "인천광역시",
    "district": "부평구"
  },
  {
    "name": "도미노피자 신연수점",
    "address": "인천광역시 연수구 함박로91번길 4, 1층 (연수동)",
    "phone": "032-817-4592",
    "lat": 37.424258,
    "lng": 126.686238,
    "region": "인천광역시",
    "district": "연수구"
  },
  {
    "name": "도미노피자 인천연희점",
    "address": "인천광역시 서구 탁옥로 90 (심곡동, 덕산빌딩)",
    "phone": "032-563-3087",
    "lat": 37.543539,
    "lng": 126.679476,
    "region": "인천광역시",
    "district": "서구"
  },
  {
    "name": "도미노피자 검단점",
    "address": "인천광역시 서구 완정로92번길 41, 101, 102호 (마전동, 인천검단힐스테이트2차)",
    "phone": "032-568-3083",
    "lat": 37.6002172,
    "lng": 126.662149,
    "region": "인천광역시",
    "district": "서구"
  },
  {
    "name": "도미노피자 과천점",
    "address": "경기도 과천시 새술막길 14, 1층 (중앙동, 과천농협)",
    "phone": "02-504-2070",
    "lat": 37.428936,
    "lng": 126.99054,
    "region": "경기도",
    "district": "과천시"
  },
  {
    "name": "도미노피자 서현점",
    "address": "경기도 성남시 분당구 서현로 377  거송빌딩 1층",
    "phone": "031-702-3006",
    "lat": 37.376597,
    "lng": 127.139727,
    "region": "경기도",
    "district": "성남시"
  },
  {
    "name": "도미노피자 평촌점",
    "address": "경기도 안양시 동안구 귀인로 198, 베스트타운 101호 (평촌동)",
    "phone": "031-382-1477",
    "lat": 37.385446,
    "lng": 126.961079,
    "region": "경기도",
    "district": "안양시"
  },
  {
    "name": "도미노피자 수내정자점",
    "address": "경기도 성남시 분당구 내정로113번길 4, 정자프라자 107호 (정자동)",
    "phone": "031-711-5267",
    "lat": 37.370639,
    "lng": 127.114842,
    "region": "경기도",
    "district": "성남시"
  },
  {
    "name": "도미노피자 광명점",
    "address": "경기도 광명시 하안로 361, 한마음문화센터 (하안동)",
    "phone": "02-891-3131",
    "lat": 37.466747,
    "lng": 126.875774,
    "region": "경기도",
    "district": "광명시"
  },
  {
    "name": "도미노피자 성남상대원점",
    "address": "경기도 성남시 중원구 금상로 27",
    "phone": "031-749-3082",
    "lat": 37.4385096,
    "lng": 127.160075,
    "region": "경기도",
    "district": "성남시"
  },
  {
    "name": "도미노피자 중동점",
    "address": "경기도 부천시 길주로 352  1층",
    "phone": "032-668-3082",
    "lat": 37.502287,
    "lng": 126.781604,
    "region": "경기도",
    "district": "부천시"
  },
  {
    "name": "도미노피자 마두백석점",
    "address": "경기도 고양시 일산동구 중앙로 1080 남정골드프라자 1층",
    "phone": "031-903-6703",
    "lat": 37.645737,
    "lng": 126.785275,
    "region": "경기도",
    "district": "고양시"
  },
  {
    "name": "도미노피자 야탑점",
    "address": "경기도 성남시 분당구 매화로 43",
    "phone": "031-704-3082",
    "lat": 37.4114489,
    "lng": 127.133599,
    "region": "경기도",
    "district": "성남시"
  },
  {
    "name": "도미노피자 후곡점",
    "address": "경기도 고양시 일산서구 일산로 511, 1층 (일산동, 태성프라자)",
    "phone": "031-917-6000",
    "lat": 37.676099,
    "lng": 126.770623,
    "region": "경기도",
    "district": "고양시"
  },
  {
    "name": "도미노피자 화정점",
    "address": "경기도 고양시 덕양구 은빛로 53 (화정동)",
    "phone": "031-964-0545",
    "lat": 37.637988,
    "lng": 126.833613,
    "region": "경기도",
    "district": "고양시"
  },
  {
    "name": "도미노피자 미금오리점",
    "address": "경기 성남시 분당구 성남대로 52 (103호, 104호)",
    "phone": "031-719-0417",
    "lat": 37.340538,
    "lng": 127.109239,
    "region": "경기도",
    "district": "성남시"
  },
  {
    "name": "도미노피자 부천점",
    "address": "경기도 부천시 부흥로 181 세민메가트랜스 1층 도미노피자 부천점",
    "phone": "032-323-1511",
    "lat": 37.4965696,
    "lng": 126.762707,
    "region": "경기도",
    "district": "부천시"
  },
  {
    "name": "도미노피자 의왕오전점",
    "address": "경기도 의왕시 효행로 54 (오전동)",
    "phone": "031-456-9044",
    "lat": 37.352019,
    "lng": 126.972337,
    "region": "경기도",
    "district": "의왕시"
  },
  {
    "name": "도미노피자 안산성포점",
    "address": "경기도 안산시 상록구 예술광장1로 94 (성포동)",
    "phone": "031-485-3082",
    "lat": 37.32641,
    "lng": 126.847029,
    "region": "경기도",
    "district": "안산시"
  },
  {
    "name": "도미노피자 행신점",
    "address": "경기도 고양시 덕양구 충경로 29, 1층 (행신동)",
    "phone": "031-970-3082",
    "lat": 37.615621,
    "lng": 126.832915,
    "region": "경기도",
    "district": "고양시"
  },
  {
    "name": "도미노피자 중산탄현점",
    "address": "경기도 고양시 일산서구 일중로 46 (일산동)",
    "phone": "031-923-5200",
    "lat": 37.683464,
    "lng": 126.775349,
    "region": "경기도",
    "district": "고양시"
  },
  {
    "name": "도미노피자 수지점",
    "address": "경기도 용인시 수지구 문인로13번길 21-2 (풍덕천동, 도미노피자)",
    "phone": "031-262-3082",
    "lat": 37.331006,
    "lng": 127.101479,
    "region": "경기도",
    "district": "용인시"
  },
  {
    "name": "도미노피자 구리점",
    "address": "경기도 구리시 벌말로 185, 상가 110~111호 (수택동, 구리태영데시앙아파트)",
    "phone": "031-553-5253",
    "lat": 37.594317,
    "lng": 127.149848,
    "region": "경기도",
    "district": "구리시"
  },
  {
    "name": "도미노피자 안양중앙점",
    "address": "경기도 안양시 만안구 만안로 284, 마인빌오피스텔 103호 (안양동, 마인빌)",
    "phone": "031-468-3082",
    "lat": 37.405018,
    "lng": 126.919416,
    "region": "경기도",
    "district": "안양시"
  },
  {
    "name": "도미노피자 영통점",
    "address": "경기도 수원시 영통구 청명로 65 (영통동)",
    "phone": "031-205-3083",
    "lat": 37.253118,
    "lng": 127.079718,
    "region": "경기도",
    "district": "수원시"
  },
  {
    "name": "도미노피자 의정부호원점",
    "address": "경기도 의정부시 평화로 271-9, 상가동 110~111호 (호원동, 신도아파트)",
    "phone": "031-855-3087",
    "lat": 37.715594,
    "lng": 127.046789,
    "region": "경기도",
    "district": "의정부시"
  },
  {
    "name": "도미노피자 북수원점",
    "address": "경기도 수원시 장안구 송원로 8 (송죽동, 웰가아파트)",
    "phone": "031-256-7014",
    "lat": 37.296345,
    "lng": 127.005144,
    "region": "경기도",
    "district": "수원시"
  },
  {
    "name": "도미노피자 산본점",
    "address": "경기도 군포시 산본로431번안길 3-7 (산본동)",
    "phone": "031-391-3162",
    "lat": 37.367284,
    "lng": 126.926237,
    "region": "경기도",
    "district": "군포시"
  },
  {
    "name": "도미노피자 하남미사점",
    "address": "경기도 하남시 미사강변서로 30 (매장뒷편 주차장 30분 무료주차 가능)",
    "phone": "031-796-0461",
    "lat": 37.552712,
    "lng": 127.184255,
    "region": "경기도",
    "district": "하남시"
  },
  {
    "name": "도미노피자 평택비전점",
    "address": "경기도 평택시 평택2로 118 (비전동)",
    "phone": "031-618-3082",
    "lat": 36.999719,
    "lng": 127.094865,
    "region": "경기도",
    "district": "평택시"
  },
  {
    "name": "도미노피자 김포사우점",
    "address": "경기도 김포시 돌문로 95, 1층 104호 (사우동)",
    "phone": "031-998-3082",
    "lat": 37.621663,
    "lng": 126.713232,
    "region": "경기도",
    "district": "김포시"
  },
  {
    "name": "도미노피자 이천창전점",
    "address": "경기도 이천시 영창로 228 (창전동)",
    "phone": "031-631-3030",
    "lat": 37.280611,
    "lng": 127.44775,
    "region": "경기도",
    "district": "이천시"
  },
  {
    "name": "도미노피자 송탄점",
    "address": "경기도 평택시 지산로 58번지 1층 지산로 58번지 1층 도미노피자",
    "phone": "031-665-3034",
    "lat": 37.079528,
    "lng": 127.061472,
    "region": "경기도",
    "district": "평택시"
  },
  {
    "name": "도미노피자 오산원동점",
    "address": "경기도 오산시 원동로 6, 102호 (원동, 파크스퀘어)",
    "phone": "031-377-3083",
    "lat": 37.142085,
    "lng": 127.069609,
    "region": "경기도",
    "district": "오산시"
  },
  {
    "name": "도미노피자 상록수점",
    "address": "경기도 안산시 상록구 석호로 225 (사동)",
    "phone": "031-502-3082",
    "lat": 37.29396,
    "lng": 126.855545,
    "region": "경기도",
    "district": "안산시"
  },
  {
    "name": "도미노피자 시화점",
    "address": "경기도 시흥시 봉우재로 32 (정왕동)",
    "phone": "031-433-3288",
    "lat": 37.345676,
    "lng": 126.744571,
    "region": "경기도",
    "district": "시흥시"
  },
  {
    "name": "도미노피자 권선점",
    "address": "경기도 수원시 권선구 권선로 746 (권선동, 효명빌딩)",
    "phone": "031-238-3082",
    "lat": 37.257384,
    "lng": 127.03252,
    "region": "경기도",
    "district": "수원시"
  },
  {
    "name": "도미노피자 덕소점",
    "address": "경기도 남양주시 와부읍 수레로 49, 104~105호 (덕소리, 마이다스빌딩)",
    "phone": "031-577-3088",
    "lat": 37.588406,
    "lng": 127.216779,
    "region": "경기도",
    "district": "남양주시"
  },
  {
    "name": "도미노피자 소사역곡점",
    "address": "경기도 부천시 지봉로 43-3  1층",
    "phone": "032-342-3082",
    "lat": 37.485613,
    "lng": 126.804587,
    "region": "경기도",
    "district": "부천시"
  },
  {
    "name": "도미노피자 용인점",
    "address": "경기도 용인시 처인구 금령로12번길 6-1 1층(김량장동, 도미노피자)",
    "phone": "031-322-3083",
    "lat": 37.234173,
    "lng": 127.197723,
    "region": "경기도",
    "district": "용인시"
  },
  {
    "name": "도미노피자 수지상현점",
    "address": "경기도 용인시 수지구 성복2로 17, 1층 (성복동, 수지골드프라자)",
    "phone": "031-265-8155",
    "lat": 37.310949,
    "lng": 127.081263,
    "region": "경기도",
    "district": "용인시"
  },
  {
    "name": "도미노피자 경기광주점",
    "address": "경기도 광주시 역동로 47 (역동, 대복빌딩)",
    "phone": "031-768-3084",
    "lat": 37.404,
    "lng": 127.256487,
    "region": "경기도",
    "district": "광주시"
  },
  {
    "name": "도미노피자 인덕원점",
    "address": "경기도 안양시 동안구 관악대로 407 (관양동)",
    "phone": "031-423-3088",
    "lat": 37.405055,
    "lng": 126.968026,
    "region": "경기도",
    "district": "안양시"
  },
  {
    "name": "도미노피자 금촌점",
    "address": "경기도 파주시 시청로 21 (금촌동)",
    "phone": "031-946-8230",
    "lat": 37.759027,
    "lng": 126.775982,
    "region": "경기도",
    "district": "파주시"
  },
  {
    "name": "도미노피자 철산점",
    "address": "경기도 광명시 시청로 32 (철산동)",
    "phone": "02-2684-5122",
    "lat": 37.479537,
    "lng": 126.864096,
    "region": "경기도",
    "district": "광명시"
  },
  {
    "name": "도미노피자 안성금산점",
    "address": "경기도 안성시 대학로 84-1 (금산동)",
    "phone": "031-677-3034",
    "lat": 37.015716,
    "lng": 127.267173,
    "region": "경기도",
    "district": "안성시"
  },
  {
    "name": "도미노피자 서수원점",
    "address": "경기도 수원시 권선구 호매실로218번길 122  1층",
    "phone": "031-298-3082",
    "lat": 37.266251,
    "lng": 126.961449,
    "region": "경기도",
    "district": "수원시"
  },
  {
    "name": "도미노피자 마석점",
    "address": "경기도 남양주시 화도읍 경춘로1876번길  3",
    "phone": "031-595-3082",
    "lat": 37.652545,
    "lng": 127.297072,
    "region": "경기도",
    "district": "남양주시"
  },
  {
    "name": "도미노피자 고잔점",
    "address": "경기도 안산시 단원구 광덕대로 137, 상가 101~102호 (고잔동, 밀레니엄1)",
    "phone": "031-401-0162",
    "lat": 37.308726,
    "lng": 126.828924,
    "region": "경기도",
    "district": "안산시"
  },
  {
    "name": "도미노피자 여주점",
    "address": "경기도 여주시 세종로 32  (홍문동)",
    "phone": "031-884-3082",
    "lat": 37.294988,
    "lng": 127.636022,
    "region": "경기도",
    "district": "여주시"
  },
  {
    "name": "도미노피자 상동점",
    "address": "경기도 부천시 상이로39번길 7-7  1층",
    "phone": "032-328-3684",
    "lat": 37.491981,
    "lng": 126.743791,
    "region": "경기도",
    "district": "부천시"
  },
  {
    "name": "도미노피자 양주점",
    "address": "경기도 양주시 독바위로 36-1 (덕정동)",
    "phone": "031-858-9475",
    "lat": 37.8378916,
    "lng": 127.062478,
    "region": "경기도",
    "district": "양주시"
  },
  {
    "name": "도미노피자 군포점",
    "address": "경기도 군포시 금당로 23 (당동)",
    "phone": "031-457-3331",
    "lat": 37.350245,
    "lng": 126.940586,
    "region": "경기도",
    "district": "군포시"
  },
  {
    "name": "도미노피자 신영통점",
    "address": "경기도 수원시 영통구 영통로112번길 30 (망포동)",
    "phone": "031-203-3294",
    "lat": 37.239188,
    "lng": 127.056673,
    "region": "경기도",
    "district": "수원시"
  },
  {
    "name": "도미노피자 선부점",
    "address": "경기도 안산시 단원구 지곡로 29 (선부동)",
    "phone": "031-411-8182",
    "lat": 37.337368,
    "lng": 126.803891,
    "region": "경기도",
    "district": "안산시"
  },
  {
    "name": "도미노피자 동두천점",
    "address": "경기도 동두천시 삼육사로 945 (생연동)",
    "phone": "031-866-3085",
    "lat": 37.899013,
    "lng": 127.054685,
    "region": "경기도",
    "district": "동두천시"
  },
  {
    "name": "도미노피자 성남수진점",
    "address": "경기도 성남시 중원구 산성대로 200 (성남동)",
    "phone": "031-752-5071",
    "lat": 37.436886,
    "lng": 127.140564,
    "region": "경기도",
    "district": "성남시"
  },
  {
    "name": "도미노피자 동수원점",
    "address": "경기도 수원시 팔달구 세지로 394(우만동)",
    "phone": "031-234-3084",
    "lat": 37.284888,
    "lng": 127.028526,
    "region": "경기도",
    "district": "수원시"
  },
  {
    "name": "도미노피자 구성점",
    "address": "경기도 용인시 기흥구 용구대로 2440, 1층 (마북동)",
    "phone": "031-284-3082",
    "lat": 37.303627,
    "lng": 127.106127,
    "region": "경기도",
    "district": "용인시"
  },
  {
    "name": "도미노피자 구리인창점",
    "address": "경기도 구리시 동구릉로 79 (인창동)",
    "phone": "031-552-3081",
    "lat": 37.607156,
    "lng": 127.13406,
    "region": "경기도",
    "district": "구리시"
  },
  {
    "name": "도미노피자 안양석수점",
    "address": "경기도 안양시 만안구 경수대로 1213 (석수동, 문화빌딩)",
    "phone": "031-474-3082",
    "lat": 37.41667,
    "lng": 126.913247,
    "region": "경기도",
    "district": "안양시"
  },
  {
    "name": "도미노피자 남양주점",
    "address": "경기도 남양주시 진접읍 진건오남로 998 (연평리)",
    "phone": "031-571-3082",
    "lat": 37.710171,
    "lng": 127.185624,
    "region": "경기도",
    "district": "남양주시"
  },
  {
    "name": "도미노피자 고강원종점",
    "address": "경기도 부천시 역곡로 448 (고강동)",
    "phone": "032-676-3082",
    "lat": 37.524454,
    "lng": 126.815907,
    "region": "경기도",
    "district": "부천시"
  },
  {
    "name": "도미노피자 신갈점",
    "address": "경기도 용인시 기흥구 금화로 3, 주공프라자 110호 (상갈동)",
    "phone": "031-287-3083",
    "lat": 37.261724,
    "lng": 127.104483,
    "region": "경기도",
    "district": "용인시"
  },
  {
    "name": "도미노피자 원주점",
    "address": "강원특별자치도 원주시 천사로 155-1 (일산동)",
    "phone": "033-744-3030",
    "lat": 37.349414,
    "lng": 127.941633,
    "region": "강원특별자치도",
    "district": "원주시"
  },
  {
    "name": "도미노피자 춘천후평점",
    "address": "강원특별자치도 춘천시 춘천로 247 (효자동)",
    "phone": "033-241-3046",
    "lat": 37.879174,
    "lng": 127.741017,
    "region": "강원특별자치도",
    "district": "춘천시"
  },
  {
    "name": "도미노피자 속초점",
    "address": "강원특별자치도 속초시 온천로 287",
    "phone": "033-637-3088",
    "lat": 38.193024,
    "lng": 128.573808,
    "region": "강원특별자치도",
    "district": "속초시"
  },
  {
    "name": "도미노피자 강릉점",
    "address": "강원특별자치도 강릉시 성덕포남로 169 (포남동)",
    "phone": "033-643-3082",
    "lat": 37.767059,
    "lng": 128.909669,
    "region": "강원특별자치도",
    "district": "강릉시"
  },
  {
    "name": "도미노피자 동해점",
    "address": "강원특별자치도 동해시 감추로 42 (천곡동)",
    "phone": "033-535-1017",
    "lat": 37.516049,
    "lng": 129.123548,
    "region": "강원특별자치도",
    "district": "동해시"
  },
  {
    "name": "도미노피자 홍천점",
    "address": "강원특별자치도 홍천군 홍천읍 홍천로 327 (희망리)",
    "phone": "033-434-3082",
    "lat": 37.688783,
    "lng": 127.883402,
    "region": "강원특별자치도",
    "district": "홍천군"
  },
  {
    "name": "도미노피자 영월점",
    "address": "강원특별자치도 영월군 영월읍 하송로 138",
    "phone": "033-375-3081",
    "lat": 37.178735,
    "lng": 128.457414,
    "region": "강원특별자치도",
    "district": "영월군"
  },
  {
    "name": "도미노피자 태백점",
    "address": "강원특별자치도 태백시 황지로 36",
    "phone": "033-554-3082",
    "lat": 37.161924,
    "lng": 128.99102,
    "region": "강원특별자치도",
    "district": "태백시"
  },
  {
    "name": "도미노피자 춘천석사점",
    "address": "강원특별자치도 춘천시 공지로 220 (효자동)",
    "phone": "033-264-3082",
    "lat": 37.86306,
    "lng": 127.739367,
    "region": "강원특별자치도",
    "district": "춘천시"
  },
  {
    "name": "도미노피자 원주명륜점",
    "address": "강원특별자치도 원주시 남원로 623 (명륜동)",
    "phone": "033-765-3030",
    "lat": 37.338922,
    "lng": 127.951656,
    "region": "강원특별자치도",
    "district": "원주시"
  },
  {
    "name": "도미노피자 성정점",
    "address": "충청남도 천안시 서북구 서부대로 578, 1층 (성정동, 우정주택)",
    "phone": "041-575-3083",
    "lat": 36.818639,
    "lng": 127.13141,
    "region": "충청남도",
    "district": "천안시"
  },
  {
    "name": "도미노피자 천안쌍용점",
    "address": "충청남도 천안시 서북구 불당5길 19 (불당동, 다리타운빌딩)",
    "phone": "041-578-3082",
    "lat": 36.803125,
    "lng": 127.10939,
    "region": "충청남도",
    "district": "천안시"
  },
  {
    "name": "도미노피자 천안원성점",
    "address": "충청남도 천안시 동남구 충절로 128, 원흥빌딩 1층 (원성동)",
    "phone": "041-552-3083",
    "lat": 36.807485,
    "lng": 127.15831,
    "region": "충청남도",
    "district": "천안시"
  },
  {
    "name": "도미노피자 아산온양점",
    "address": "충청남도 아산시 용화고길55번길 25",
    "phone": "041-541-3084",
    "lat": 36.77337464610654,
    "lng": 127.00923736833299,
    "region": "충청남도",
    "district": "아산시"
  },
  {
    "name": "도미노피자 공주점",
    "address": "충청남도 공주시 신관로 31 (신관동)",
    "phone": "041-853-3081",
    "lat": 36.470676,
    "lng": 127.131955,
    "region": "충청남도",
    "district": "공주시"
  },
  {
    "name": "도미노피자 서산점",
    "address": "충청남도 서산시 안견로 274",
    "phone": "041-669-3082",
    "lat": 36.77736052778623,
    "lng": 126.45316422549286,
    "region": "충청남도",
    "district": "서산시"
  },
  {
    "name": "도미노피자 청주충북대점",
    "address": "충청북도 청주시 서원구 1순환로 684 (사창동)",
    "phone": "043-262-3083",
    "lat": 36.632611,
    "lng": 127.46063,
    "region": "충청북도",
    "district": "청주시"
  },
  {
    "name": "도미노피자 충주점",
    "address": "충청북도 충주시 갱고개로 158",
    "phone": "043-854-3082",
    "lat": 36.985113,
    "lng": 127.938963,
    "region": "충청북도",
    "district": "충주시"
  },
  {
    "name": "도미노피자 제천점",
    "address": "충청북도 제천시 용두천로 140 (교동)",
    "phone": "043-652-3082",
    "lat": 37.139605,
    "lng": 128.214403,
    "region": "충청북도",
    "district": "제천시"
  },
  {
    "name": "도미노피자 상당점",
    "address": "충청북도 청주시 청원구 공항로 101, 1층 103호 (율량동, 은곡빌딩)",
    "phone": "043-212-3083",
    "lat": 36.666151,
    "lng": 127.486145,
    "region": "충청북도",
    "district": "청주시"
  },
  {
    "name": "도미노피자 둔산점",
    "address": "대전광역시 서구 문정로 170 (둔산동)",
    "phone": "042-487-3052",
    "lat": 36.349399,
    "lng": 127.39546,
    "region": "대전광역시",
    "district": "서구"
  },
  {
    "name": "도미노피자 송촌점",
    "address": "대전광역시 대덕구 계족산로 25 (중리동)",
    "phone": "042-637-3080",
    "lat": 36.362159,
    "lng": 127.434408,
    "region": "대전광역시",
    "district": "대덕구"
  },
  {
    "name": "도미노피자 유성점",
    "address": "대전광역시 유성구 어은로 44 (어은동)",
    "phone": "042-861-3085",
    "lat": 36.362345,
    "lng": 127.357566,
    "region": "대전광역시",
    "district": "유성구"
  },
  {
    "name": "도미노피자 대전대동점",
    "address": "대전광역시 동구 계족로 194-37 (대동)",
    "phone": "042-673-3083",
    "lat": 36.330999,
    "lng": 127.443715,
    "region": "대전광역시",
    "district": "동구"
  },
  {
    "name": "도미노피자 대전유천점",
    "address": "대전광역시 중구 계백로 1606-1",
    "phone": "042-222-0064",
    "lat": 36.31840417931115,
    "lng": 127.39856332540512,
    "region": "대전광역시",
    "district": "중구"
  },
  {
    "name": "도미노피자 대전월평점",
    "address": "대전광역시 서구 월평로 69, 1층 (월평동)",
    "phone": "042-482-3033",
    "lat": 36.356334,
    "lng": 127.364947,
    "region": "대전광역시",
    "district": "서구"
  },
  {
    "name": "도미노피자 대전도안점",
    "address": "대전광역시 서구 도안동로 31번길 11-15",
    "phone": "042-586-3082",
    "lat": 36.307028,
    "lng": 127.352087,
    "region": "대전광역시",
    "district": "서구"
  },
  {
    "name": "도미노피자 진주교대점",
    "address": "경상남도 진주시 진양호로 392 (신안동)",
    "phone": "055-746-3042",
    "lat": 35.187266,
    "lng": 128.070338,
    "region": "경상남도",
    "district": "진주시"
  },
  {
    "name": "도미노피자 창원상남점",
    "address": "경상남도 창원시 성산구 마디미동로 58, 103호 (상남동, 골든벨II빌딩)",
    "phone": "055-284-3082",
    "lat": 35.21917,
    "lng": 128.683209,
    "region": "경상남도",
    "district": "창원시"
  },
  {
    "name": "도미노피자 통영서호점",
    "address": "경상남도 통영시 중앙로 100-1 (서호동)",
    "phone": "055-641-3082",
    "lat": 34.841921,
    "lng": 128.420109,
    "region": "경상남도",
    "district": "통영시"
  },
  {
    "name": "도미노피자 옥포아주점",
    "address": "경상남도 거제시 거제대로 3587",
    "phone": "055-950-0171",
    "lat": 34.878298741747216,
    "lng": 128.69389746293177,
    "region": "경상남도",
    "district": "거제시"
  },
  {
    "name": "도미노피자 거제고현점",
    "address": "경상남도 거제시 거제중앙로 1808-1  1층",
    "phone": "055-638-0082",
    "lat": 34.880204,
    "lng": 128.627522,
    "region": "경상남도",
    "district": "거제시"
  },
  {
    "name": "도미노피자 진해충무점",
    "address": "경상남도 창원시 진해구 충장로 164 (충무동, 도미노피자)",
    "phone": "055-542-3082",
    "lat": 35.151898,
    "lng": 128.669858,
    "region": "경상남도",
    "district": "창원시"
  },
  {
    "name": "도미노피자 포항학산점",
    "address": "경상북도 포항시 북구 학산로 65-1 65-1 (학산동)",
    "phone": "054-254-3082",
    "lat": 36.050176,
    "lng": 129.369413,
    "region": "경상북도",
    "district": "포항시"
  },
  {
    "name": "도미노피자 안동점",
    "address": "경상북도 안동시 경동로 638 (천리동)",
    "phone": "054-854-3082",
    "lat": 36.563063,
    "lng": 128.727662,
    "region": "경상북도",
    "district": "안동시"
  },
  {
    "name": "도미노피자 영주점",
    "address": "경상북도 영주시 구성로 325 (영주동, 도미노피자)",
    "phone": "054-638-7982",
    "lat": 36.82141,
    "lng": 128.625006,
    "region": "경상북도",
    "district": "영주시"
  },
  {
    "name": "도미노피자 포항시청점",
    "address": "경상북도 포항시 남구 대이로 68",
    "phone": "054-272-3082",
    "lat": 36.0212363,
    "lng": 129.340629,
    "region": "경상북도",
    "district": "포항시"
  },
  {
    "name": "도미노피자 경산중방점",
    "address": "경상북도 경산시 경안로 249 (중방동)",
    "phone": "053-814-3082",
    "lat": 35.829681,
    "lng": 128.735615,
    "region": "경상북도",
    "district": "경산시"
  },
  {
    "name": "도미노피자 김천성내점",
    "address": "경상북도 김천시 자산로 188-1 (성내동)",
    "phone": "054-911-3080",
    "lat": 36.127065,
    "lng": 128.118313,
    "region": "경상북도",
    "district": "김천시"
  },
  {
    "name": "도미노피자 상인점",
    "address": "대구광역시 달서구 월배로 52",
    "phone": "053-634-6600",
    "lat": 35.813182,
    "lng": 128.52037,
    "region": "대구광역시",
    "district": "달서구"
  },
  {
    "name": "도미노피자 지산범물점",
    "address": "대구광역시 수성구 지범로 11  1층",
    "phone": "053-781-3082",
    "lat": 35.829245,
    "lng": 128.624138,
    "region": "대구광역시",
    "district": "수성구"
  },
  {
    "name": "도미노피자 대구용산점",
    "address": "대구광역시 달서구 달구벌대로 1565 (죽전동)",
    "phone": "053-523-3082",
    "lat": 35.85092,
    "lng": 128.537824,
    "region": "대구광역시",
    "district": "달서구"
  },
  {
    "name": "도미노피자 봉덕점",
    "address": "대구광역시 남구 봉덕로 66 (봉덕동)",
    "phone": "053-472-3089",
    "lat": 35.844669,
    "lng": 128.597666,
    "region": "대구광역시",
    "district": "남구"
  },
  {
    "name": "도미노피자 칠곡점",
    "address": "대구광역시 북구 구암로 139-1 (동천동)",
    "phone": "053-326-3082",
    "lat": 35.932049,
    "lng": 128.556307,
    "region": "대구광역시",
    "district": "북구"
  },
  {
    "name": "도미노피자 순천조례점",
    "address": "전라남도 순천시 이수로 284 (조례동)",
    "phone": "061-721-0656",
    "lat": 34.951845,
    "lng": 127.515503,
    "region": "전라남도",
    "district": "순천시"
  },
  {
    "name": "도미노피자 목포하당점",
    "address": "전라남도 목포시 백년대로 393",
    "phone": "061-283-3082",
    "lat": 34.80838,
    "lng": 126.429262,
    "region": "전라남도",
    "district": "목포시"
  },
  {
    "name": "도미노피자 전주금암점",
    "address": "전북특별자치도 전주시 덕진구 백제대로 658 (금암동, 도미노피자)",
    "phone": "063-273-3084",
    "lat": 35.8428999,
    "lng": 127.141176,
    "region": "전북특별자치도",
    "district": "전주시"
  },
  {
    "name": "도미노피자 전주효자점",
    "address": "전북특별자치도 전주시 완산구 백제대로 133 (효자동1가, 도미노피자)",
    "phone": "063-222-3480",
    "lat": 35.804747,
    "lng": 127.123299,
    "region": "전북특별자치도",
    "district": "전주시"
  },
  {
    "name": "도미노피자 익산영등점",
    "address": "전북특별자치도 익산시 고봉로 18길 1(영등동)",
    "phone": "063-854-3085",
    "lat": 35.953393,
    "lng": 126.969434,
    "region": "전북특별자치도",
    "district": "익산시"
  },
  {
    "name": "도미노피자 군산점",
    "address": "전북특별자치도 군산시 백토로 142, A동 101호 (나운동)",
    "phone": "063-471-3332",
    "lat": 35.966606,
    "lng": 126.705493,
    "region": "전북특별자치도",
    "district": "군산시"
  },
  {
    "name": "도미노피자 정읍점",
    "address": "전북특별자치도 정읍시 우암로 88 (장명동)",
    "phone": "063-531-8222",
    "lat": 35.56643,
    "lng": 126.860545,
    "region": "전북특별자치도",
    "district": "정읍시"
  },
  {
    "name": "도미노피자 전주서신점",
    "address": "전북특별자치도 전주시 완산구 전룡로 32 (서신동)",
    "phone": "063-278-3082",
    "lat": 35.82633,
    "lng": 127.116674,
    "region": "전북특별자치도",
    "district": "전주시"
  },
  {
    "name": "도미노피자 광주금호점",
    "address": "광주광역시 서구 운천로 117 1층",
    "phone": "062-383-3082",
    "lat": 35.142999,
    "lng": 126.857485,
    "region": "광주광역시",
    "district": "서구"
  },
  {
    "name": "도미노피자 광주금남로점",
    "address": "광주광역시 동구 중앙로 214 (궁동)",
    "phone": "062-233-3082",
    "lat": 35.15052158019203,
    "lng": 126.91932016370492,
    "region": "광주광역시",
    "district": "동구"
  },
  {
    "name": "도미노피자 광주문흥점",
    "address": "광주광역시 북구 서하로 339 (문흥동)",
    "phone": "062-267-3082",
    "lat": 35.187026,
    "lng": 126.917718,
    "region": "광주광역시",
    "district": "북구"
  },
  {
    "name": "도미노피자 광주광산점",
    "address": "광주광역시 광산구 목련로 138 (월곡동)",
    "phone": "062-959-3083",
    "lat": 35.171688,
    "lng": 126.812895,
    "region": "광주광역시",
    "district": "광산구"
  },
  {
    "name": "도미노피자 울산달동점",
    "address": "울산광역시 남구 번영로 53  1층 도미노피자",
    "phone": "052-261-3084",
    "lat": 35.5306238,
    "lng": 129.329897,
    "region": "울산광역시",
    "district": "남구"
  },
  {
    "name": "도미노피자 울산병영점",
    "address": "울산광역시 중구 평산1길 2 (약사동)",
    "phone": "052-286-9780",
    "lat": 35.567664,
    "lng": 129.341258,
    "region": "울산광역시",
    "district": "중구"
  },
  {
    "name": "도미노피자 대연점",
    "address": "부산광역시 남구 수영로 256 (대연동)",
    "phone": "051-624-9333",
    "lat": 35.135159,
    "lng": 129.094607,
    "region": "부산광역시",
    "district": "남구"
  },
  {
    "name": "도미노피자 해운대점",
    "address": "부산광역시 해운대구 해운대로 793 부산자생한방병원 상가 108호",
    "phone": "051-702-7080",
    "lat": 35.1696583,
    "lng": 129.175188,
    "region": "부산광역시",
    "district": "해운대구"
  },
  {
    "name": "도미노피자 연산점",
    "address": "부산 연제구 중앙대로 1173 (1층)",
    "phone": "051-851-7555",
    "lat": 35.192281,
    "lng": 129.079737,
    "region": "부산광역시",
    "district": "연제구"
  },
  {
    "name": "도미노피자 구서점",
    "address": "부산광역시 금정구 금샘로 377",
    "phone": "051-581-3339",
    "lat": 35.2568588,
    "lng": 129.084268,
    "region": "부산광역시",
    "district": "금정구"
  },
  {
    "name": "도미노피자 부산개금점",
    "address": "부산광역시 부산진구 가야대로 467, 1층 (개금동)",
    "phone": "051-896-1588",
    "lat": 35.153534,
    "lng": 129.023172,
    "region": "부산광역시",
    "district": "부산진구"
  },
  {
    "name": "도미노피자 하단점",
    "address": "부산광역시 사하구 하신중앙로 333 (하단동)",
    "phone": "051-203-2030",
    "lat": 35.105423,
    "lng": 128.966414,
    "region": "부산광역시",
    "district": "사하구"
  },
  {
    "name": "도미노피자 울산공업탑점",
    "address": "울산광역시 남구 수암로 24",
    "phone": "052-265-3099",
    "lat": 35.5314664,
    "lng": 129.310743,
    "region": "울산광역시",
    "district": "남구"
  },
  {
    "name": "도미노피자 여수문수점",
    "address": "전라남도 여수시 문수로 76 (문수동)",
    "phone": "061-651-8700",
    "lat": 34.753681,
    "lng": 127.703528,
    "region": "전라남도",
    "district": "여수시"
  },
  {
    "name": "도미노피자 의정부가능점",
    "address": "경기도 의정부시 평화로 640, 105동 101호 (의정부동, 한진그랑빌)",
    "phone": "031-848-3082",
    "lat": 37.749092,
    "lng": 127.045287,
    "region": "경기도",
    "district": "의정부시"
  },
  {
    "name": "도미노피자 연희점",
    "address": "서울특별시 서대문구 연희로 95 (연희동)",
    "phone": "02-326-3083",
    "lat": 37.566598,
    "lng": 126.9304,
    "region": "서울특별시",
    "district": "서대문구"
  },
  {
    "name": "도미노피자 김해어방점",
    "address": "경상남도 김해시 인제로 146, 1층 (어방동)",
    "phone": "055-329-3042",
    "lat": 35.241715,
    "lng": 128.904168,
    "region": "경상남도",
    "district": "김해시"
  },
  {
    "name": "도미노피자 울산무거점",
    "address": "울산광역시 남구 삼호로 3 (무거동)",
    "phone": "052-223-7082",
    "lat": 35.550001,
    "lng": 129.264678,
    "region": "울산광역시",
    "district": "남구"
  },
  {
    "name": "도미노피자 양산물금점",
    "address": "경상남도 양산시 물금읍 범구로 42 (범어리)",
    "phone": "055-365-3082",
    "lat": 35.325939,
    "lng": 129.015213,
    "region": "경상남도",
    "district": "양산시"
  },
  {
    "name": "도미노피자 화명점",
    "address": "부산광역시 북구 화명신도시로 77 (화명동)",
    "phone": "051-365-3082",
    "lat": 35.231029,
    "lng": 129.009975,
    "region": "부산광역시",
    "district": "북구"
  },
  {
    "name": "도미노피자 대화점",
    "address": "경기도 고양시 일산서구 송포로 26, 117호 (대화동, 현대플라자)",
    "phone": "031-919-3084",
    "lat": 37.669253,
    "lng": 126.733193,
    "region": "경기도",
    "district": "고양시"
  },
  {
    "name": "도미노피자 다대포점",
    "address": "부산광역시 사하구 다대로 328 사하 리버팰리스 103동 107호",
    "phone": "051-261-6629",
    "lat": 35.073465,
    "lng": 128.976164,
    "region": "부산광역시",
    "district": "사하구"
  },
  {
    "name": "도미노피자 산격점",
    "address": "대구광역시 북구 동북로 138-1 (산격동)",
    "phone": "053-942-3082",
    "lat": 35.900507,
    "lng": 128.608473,
    "region": "대구광역시",
    "district": "북구"
  },
  {
    "name": "도미노피자 울산호계점",
    "address": "울산광역시 북구 동대로 69-1 (호계동)",
    "phone": "052-281-3082",
    "lat": 35.629266,
    "lng": 129.359075,
    "region": "울산광역시",
    "district": "북구"
  },
  {
    "name": "도미노피자 가산점",
    "address": "서울특별시 금천구 가산로 146 (가산동)",
    "phone": "02-864-3082",
    "lat": 37.478323,
    "lng": 126.891025,
    "region": "서울특별시",
    "district": "금천구"
  },
  {
    "name": "도미노피자 염창점",
    "address": "서울특별시 강서구 양천로 683  1층",
    "phone": "02-2658-3254",
    "lat": 37.5509264,
    "lng": 126.872262,
    "region": "서울특별시",
    "district": "강서구"
  },
  {
    "name": "도미노피자 병점점",
    "address": "경기도 화성시 병점중앙로 156 (진안동, 드림빌딩)",
    "phone": "031-222-3087",
    "lat": 37.211687,
    "lng": 127.038506,
    "region": "경기도",
    "district": "화성시"
  },
  {
    "name": "도미노피자 구미인동점",
    "address": "경상북도 구미시 삼일로 12 (진평동)",
    "phone": "054-472-3088",
    "lat": 36.105922,
    "lng": 128.417816,
    "region": "경상북도",
    "district": "구미시"
  },
  {
    "name": "도미노피자 노량진점",
    "address": "서울특별시 동작구 노량진로 188 한성빌딩 1층 도미노피자 노량진점(흑석동에서 노량진동으로 이전)",
    "phone": "02-815-3082",
    "lat": 37.513171,
    "lng": 126.946736,
    "region": "서울특별시",
    "district": "동작구"
  },
  {
    "name": "도미노피자 자양점",
    "address": "서울특별시 광진구 아차산로 312, 101호 (자양동, 드림타운)",
    "phone": "02-446-3083",
    "lat": 37.537733,
    "lng": 127.077377,
    "region": "서울특별시",
    "district": "광진구"
  },
  {
    "name": "도미노피자 수영점",
    "address": "부산광역시 수영구 수영로 640-1, 1층 (광안동)",
    "phone": "051-754-3085",
    "lat": 35.162788,
    "lng": 129.114464,
    "region": "부산광역시",
    "district": "수영구"
  },
  {
    "name": "도미노피자 대구성서점",
    "address": "대구광역시 달서구 이곡공원로1길 108",
    "phone": "053-581-3080",
    "lat": 35.8556953,
    "lng": 128.508783,
    "region": "대구광역시",
    "district": "달서구"
  },
  {
    "name": "도미노피자 울산전하점",
    "address": "울산광역시 동구 방어진순환도로 735 (전하동)",
    "phone": "052-235-3082",
    "lat": 35.507529,
    "lng": 129.429776,
    "region": "울산광역시",
    "district": "동구"
  },
  {
    "name": "도미노피자 김해내동점",
    "address": "경상남도 김해시 금관대로 1340, 1층 (내동)",
    "phone": "055-334-3082",
    "lat": 35.242502,
    "lng": 128.865184,
    "region": "경상남도",
    "district": "김해시"
  },
  {
    "name": "도미노피자 원당점",
    "address": "경기도 고양시 덕양구 고양대로 1375 (성사동)",
    "phone": "031-963-1956",
    "lat": 37.654594,
    "lng": 126.836954,
    "region": "경기도",
    "district": "고양시"
  },
  {
    "name": "도미노피자 동래점",
    "address": "부산광역시 동래구 아시아드대로 203 (온천동, 도미노피자)",
    "phone": "051-507-3084",
    "lat": 35.202478,
    "lng": 129.065645,
    "region": "부산광역시",
    "district": "동래구"
  },
  {
    "name": "도미노피자 경주성건점",
    "address": "경상북도 경주시 금성로395번길 3 (성건동, 서라벌빌딩)",
    "phone": "054-748-3081",
    "lat": 35.85325,
    "lng": 129.204854,
    "region": "경상북도",
    "district": "경주시"
  },
  {
    "name": "도미노피자 호평평내점",
    "address": "경기도 남양주시 경춘로 1324",
    "phone": "031-594-3044",
    "lat": 37.651086,
    "lng": 127.239198,
    "region": "경기도",
    "district": "남양주시"
  },
  {
    "name": "도미노피자 마산월영점",
    "address": "경상남도 창원시 마산합포구 월영남로 2",
    "phone": "055-221-3082",
    "lat": 35.178584,
    "lng": 128.55817,
    "region": "경상남도",
    "district": "창원시"
  },
  {
    "name": "도미노피자 영천점",
    "address": "경상북도 영천시 망정1길 4 (망정동) 망정동 175-15",
    "phone": "054-332-3081",
    "lat": 35.975538,
    "lng": 128.948675,
    "region": "경상북도",
    "district": "영천시"
  },
  {
    "name": "도미노피자 서면점",
    "address": "부산광역시 부산진구 전포대로 195 (전포동)",
    "phone": "051-818-3098",
    "lat": 35.154155,
    "lng": 129.064966,
    "region": "부산광역시",
    "district": "부산진구"
  },
  {
    "name": "도미노피자 대천점",
    "address": "충청남도 보령시 작은오랏1길 27 (동대동)",
    "phone": "041-936-4010",
    "lat": 36.346332,
    "lng": 126.602937,
    "region": "충청남도",
    "district": "보령시"
  },
  {
    "name": "도미노피자 동서초점",
    "address": "서울특별시 서초구 서운로 220, 1층 2,3호 (서초동, 대지스포츠플라자)",
    "phone": "02-532-3085",
    "lat": 37.502681,
    "lng": 127.021767,
    "region": "서울특별시",
    "district": "서초구"
  },
  {
    "name": "도미노피자 안중점",
    "address": "경기도 평택시 안중읍 안현로 372",
    "phone": "031-682-3095",
    "lat": 36.983208,
    "lng": 126.929211,
    "region": "경기도",
    "district": "평택시"
  },
  {
    "name": "도미노피자 덕천점",
    "address": "부산광역시 북구 만덕대로 116 (덕천동)",
    "phone": "051-334-3082",
    "lat": 35.212919,
    "lng": 129.017391,
    "region": "부산광역시",
    "district": "북구"
  },
  {
    "name": "도미노피자 인천운서점",
    "address": "인천광역시 중구 모랫말로5번길 1(운서동)",
    "phone": "032-751-3046",
    "lat": 37.489247,
    "lng": 126.496197,
    "region": "인천광역시",
    "district": "중구"
  },
  {
    "name": "도미노피자 범어점",
    "address": "대구광역시 수성구 동대구로 240, 상가 106호 (범어동, 청구푸른마을아파트)",
    "phone": "053-752-8496",
    "lat": 35.851729,
    "lng": 128.625733,
    "region": "대구광역시",
    "district": "수성구"
  },
  {
    "name": "도미노피자 광주운암점",
    "address": "광주광역시 북구 서암대로 28  1층",
    "phone": "062-531-3084",
    "lat": 35.172412,
    "lng": 126.887841,
    "region": "광주광역시",
    "district": "북구"
  },
  {
    "name": "도미노피자 대구시지점",
    "address": "대구광역시 수성구 달구벌대로 3076 (시지동)",
    "phone": "053-794-3082",
    "lat": 35.842699,
    "lng": 128.693554,
    "region": "대구광역시",
    "district": "수성구"
  },
  {
    "name": "도미노피자 구미도량점",
    "address": "경상북도 구미시 야은로 413 (도량동)",
    "phone": "054-444-3083",
    "lat": 36.137177,
    "lng": 128.328183,
    "region": "경상북도",
    "district": "구미시"
  },
  {
    "name": "도미노피자 창원소답점",
    "address": "경상남도 창원시 의창구 의안로2번길 5",
    "phone": "055-298-3085",
    "lat": 35.261801,
    "lng": 128.624427,
    "region": "경상남도",
    "district": "창원시"
  },
  {
    "name": "도미노피자 학장점",
    "address": "부산광역시 사상구 학감대로 226",
    "phone": "051-313-3081",
    "lat": 35.15106,
    "lng": 128.99011,
    "region": "부산광역시",
    "district": "사상구"
  },
  {
    "name": "도미노피자 대구효목점",
    "address": "대구광역시 동구 동부로 204",
    "phone": "053-742-3082",
    "lat": 35.878392,
    "lng": 128.63444,
    "region": "대구광역시",
    "district": "동구"
  },
  {
    "name": "도미노피자 마산산호점",
    "address": "경상남도 창원시 마산합포구 합포로 242",
    "phone": "055-245-3082",
    "lat": 35.218818,
    "lng": 128.587377,
    "region": "경상남도",
    "district": "창원시"
  },
  {
    "name": "도미노피자 서방배점",
    "address": "서울특별시 서초구 효령로 22 멤버스뷰",
    "phone": "02-592-3118",
    "lat": 37.477374,
    "lng": 126.987474,
    "region": "서울특별시",
    "district": "서초구"
  },
  {
    "name": "도미노피자 부산대점",
    "address": "부산광역시 금정구 금정로 54",
    "phone": "051-517-3082",
    "lat": 35.229416,
    "lng": 129.086409,
    "region": "부산광역시",
    "district": "금정구"
  },
  {
    "name": "도미노피자 장유점",
    "address": "경상남도 김해시 능동로 15-1 (삼문동)",
    "phone": "055-314-3082",
    "lat": 35.196223,
    "lng": 128.79527,
    "region": "경상남도",
    "district": "김해시"
  },
  {
    "name": "도미노피자 침산점",
    "address": "대구광역시 북구 침산남로 165-2, 1층 (침산동)",
    "phone": "053-352-3852",
    "lat": 35.887612,
    "lng": 128.594244,
    "region": "대구광역시",
    "district": "북구"
  },
  {
    "name": "도미노피자 광주첨단점",
    "address": "광주광역시 광산구 월계로 223-7",
    "phone": "062-974-3083",
    "lat": 35.2141313,
    "lng": 126.849644,
    "region": "광주광역시",
    "district": "광산구"
  },
  {
    "name": "도미노피자 광주주월점",
    "address": "광주광역시 남구 봉선로 2, 1층 (주월동, 창신빌딩)",
    "phone": "062-673-3083",
    "lat": 35.132591,
    "lng": 126.901716,
    "region": "광주광역시",
    "district": "남구"
  },
  {
    "name": "도미노피자 포천송우점",
    "address": "경기도 포천시 소흘읍 솔모루로 114 (송우리)",
    "phone": "031-544-3083",
    "lat": 37.830936,
    "lng": 127.149225,
    "region": "경기도",
    "district": "포천시"
  },
  {
    "name": "도미노피자 충렬사역점",
    "address": "부산광역시 동래구 반송로  217",
    "phone": "051-531-3088",
    "lat": 35.2003045,
    "lng": 129.097609,
    "region": "부산광역시",
    "district": "동래구"
  },
  {
    "name": "도미노피자 모라점",
    "address": "부산광역시 사상구 사상로 520 (모라동, 도미노피자)",
    "phone": "051-303-3031",
    "lat": 35.190535,
    "lng": 128.989459,
    "region": "부산광역시",
    "district": "사상구"
  },
  {
    "name": "도미노피자 장항점",
    "address": "경기도 고양시 일산동구 호수로 606, B동 106~107호 (장항동, 코오롱레이크폴리스I)",
    "phone": "031-901-3812",
    "lat": 37.655978,
    "lng": 126.769121,
    "region": "경기도",
    "district": "고양시"
  },
  {
    "name": "도미노피자 영도점",
    "address": "부산광역시 영도구 태종로 329-1 (청학동)",
    "phone": "051-417-3082",
    "lat": 35.096351,
    "lng": 129.061895,
    "region": "부산광역시",
    "district": "영도구"
  },
  {
    "name": "도미노피자 당진점",
    "address": "충청남도 당진시 무수동로 230 (읍내동, 도미노피자)",
    "phone": "041-357-3082",
    "lat": 36.895702,
    "lng": 126.637328,
    "region": "충청남도",
    "district": "당진시"
  },
  {
    "name": "도미노피자 홍성점",
    "address": "충청남도 홍성군 홍성읍 홍성천길 318 (대교리)",
    "phone": "041-631-6082",
    "lat": 36.603832,
    "lng": 126.67091,
    "region": "충청남도",
    "district": "홍성군"
  },
  {
    "name": "도미노피자 풍동식사점",
    "address": "경기도 고양시 일산동구 고양대로 1025  SK 풍동충전소 건너편",
    "phone": "031-907-3087",
    "lat": 37.672688,
    "lng": 126.806981,
    "region": "경기도",
    "district": "고양시"
  },
  {
    "name": "도미노피자 반여재송점",
    "address": "부산광역시 해운대구 반여로 23 (반여동, 도미노피자)",
    "phone": "051-525-5225",
    "lat": 35.194844,
    "lng": 129.119495,
    "region": "부산광역시",
    "district": "해운대구"
  },
  {
    "name": "도미노피자 하양점",
    "address": "경상북도 경산시 하양읍 대경로 657 (금락리)",
    "phone": "053-856-3084",
    "lat": 35.9072487,
    "lng": 128.813537,
    "region": "경상북도",
    "district": "경산시"
  },
  {
    "name": "도미노피자 마산내서점",
    "address": "경상남도 창원시 마산회원구 내서읍 경남대로 987-1 도미노피자",
    "phone": "055-232-9082",
    "lat": 35.238318,
    "lng": 128.503944,
    "region": "경상남도",
    "district": "창원시"
  },
  {
    "name": "도미노피자 대신점",
    "address": "부산광역시 서구 구덕로 303-1, 1층 (서대신동2가)",
    "phone": "051-255-3082",
    "lat": 35.110974,
    "lng": 129.017131,
    "region": "부산광역시",
    "district": "서구"
  },
  {
    "name": "도미노피자 창원반송점",
    "address": "경상남도 창원시 성산구 반송로 44-1",
    "phone": "055-237-3082",
    "lat": 35.241048,
    "lng": 128.662003,
    "region": "경상남도",
    "district": "창원시"
  },
  {
    "name": "도미노피자 발산점",
    "address": "서울특별시 강서구 강서로 211  1층",
    "phone": "02-2661-3085",
    "lat": 37.544543,
    "lng": 126.837204,
    "region": "서울특별시",
    "district": "강서구"
  },
  {
    "name": "도미노피자 수원중앙점",
    "address": "경기도 수원시 팔달구 매산로 46, 1층 (매산로2가)",
    "phone": "031-254-3082",
    "lat": 37.268286,
    "lng": 127.006336,
    "region": "경기도",
    "district": "수원시"
  },
  {
    "name": "도미노피자 울산성안점",
    "address": "울산광역시 중구 성안로 134",
    "phone": "052-245-3087",
    "lat": 35.572374,
    "lng": 129.315042,
    "region": "울산광역시",
    "district": "중구"
  },
  {
    "name": "도미노피자 강서구청점",
    "address": "서울특별시 강서구 까치산로 189-1",
    "phone": "02-2606-3082",
    "lat": 37.554108,
    "lng": 126.853941,
    "region": "서울특별시",
    "district": "강서구"
  },
  {
    "name": "도미노피자 계룡점",
    "address": "충청남도 계룡시 엄사면 번영로 12, 1층 103호 (엄사리, 계룡오피스텔)",
    "phone": "042-841-3062",
    "lat": 36.288267,
    "lng": 127.243786,
    "region": "충청남도",
    "district": "계룡시"
  },
  {
    "name": "도미노피자 반야월점",
    "address": "대구광역시 동구 이노밸리로56길 3-3  1층",
    "phone": "053-964-3084",
    "lat": 35.878,
    "lng": 128.7272,
    "region": "대구광역시",
    "district": "동구"
  },
  {
    "name": "도미노피자 초읍점",
    "address": "부산광역시 부산진구 성지로 58  1층",
    "phone": "051-806-3082",
    "lat": 35.175875,
    "lng": 129.054942,
    "region": "부산광역시",
    "district": "부산진구"
  },
  {
    "name": "도미노피자 오창점",
    "address": "충청북도 청주시 청원구 오창읍 과학산업2로 363 신우에비뉴엘빌딩 103호",
    "phone": "043-218-3082",
    "lat": 36.714944,
    "lng": 127.422065,
    "region": "충청북도",
    "district": "청주시"
  },
  {
    "name": "도미노피자 조치원점",
    "address": "세종특별자치시 조치원읍 문화길 39  1층",
    "phone": "044-867-3082",
    "lat": 36.602917,
    "lng": 127.289298,
    "region": "세종특별자치시",
    "district": "조치원읍"
  },
  {
    "name": "도미노피자 미아점",
    "address": "서울특별시 강북구 삼양로24길 19, 102동 101호 (미아동, 현대성우아파트)",
    "phone": "02-989-3044",
    "lat": 37.617359,
    "lng": 127.021967,
    "region": "서울특별시",
    "district": "강북구"
  },
  {
    "name": "도미노피자 송산점",
    "address": "경기도 의정부시 용현로 97",
    "phone": "031-852-3087",
    "lat": 37.741358,
    "lng": 127.086844,
    "region": "경기도",
    "district": "의정부시"
  },
  {
    "name": "도미노피자 잠실야구장점",
    "address": "서울특별시 송파구 올림픽로 25, 야구장내1호점 (잠실동, 서울종합운동장)",
    "phone": "02-422-3082",
    "lat": 37.512773,
    "lng": 127.072356,
    "region": "서울특별시",
    "district": "송파구"
  },
  {
    "name": "도미노피자 센텀점",
    "address": "부산광역시 해운대구 해운대로 535 (우동)",
    "phone": "051-747-8114",
    "lat": 35.160291,
    "lng": 129.150708,
    "region": "부산광역시",
    "district": "해운대구"
  },
  {
    "name": "도미노피자 양평점",
    "address": "경기도 양평군 양평읍 중앙로 63",
    "phone": "031-775-4311",
    "lat": 37.4956088,
    "lng": 127.495889,
    "region": "경기도",
    "district": "양평군"
  },
  {
    "name": "도미노피자 죽전점",
    "address": "경기도 용인시 수지구 현암로 111, 1층 104호 (죽전동)",
    "phone": "031-897-3083",
    "lat": 37.331908,
    "lng": 127.121623,
    "region": "경기도",
    "district": "용인시"
  },
  {
    "name": "도미노피자 여천점",
    "address": "전라남도 여수시 도원로 277 (학동)",
    "phone": "061-691-3084",
    "lat": 34.761475,
    "lng": 127.661549,
    "region": "전라남도",
    "district": "여수시"
  },
  {
    "name": "도미노피자 발안향남점",
    "address": "경기도 화성시 향남읍 삼천병마로 275 (진천동)",
    "phone": "031-8059-3083",
    "lat": 37.137593,
    "lng": 126.912209,
    "region": "경기도",
    "district": "화성시"
  },
  {
    "name": "도미노피자 대덕점",
    "address": "대전광역시 유성구 와룡로 3, 비씨엠빌딩 1층 (송강동)",
    "phone": "042-934-3088",
    "lat": 36.428424,
    "lng": 127.385458,
    "region": "대전광역시",
    "district": "유성구"
  },
  {
    "name": "도미노피자 동탄점",
    "address": "경기도 화성시 동탄지성로 84, 101~102호 (반송동, PARKPLAZA)",
    "phone": "031-8003-3327",
    "lat": 37.207186,
    "lng": 127.065613,
    "region": "경기도",
    "district": "화성시"
  },
  {
    "name": "도미노피자 동백점",
    "address": "경기도 용인시 기흥구 동백중앙로 191 씨티프라자 1층 101호~102호",
    "phone": "031-287-9045",
    "lat": 37.270891,
    "lng": 127.152864,
    "region": "경기도",
    "district": "용인시"
  },
  {
    "name": "도미노피자 문산점",
    "address": "경기도 파주시 문산읍 문산역로 75 (문산리, 삼문빌딩)",
    "phone": "031-954-3083",
    "lat": 37.852927,
    "lng": 126.787013,
    "region": "경기도",
    "district": "파주시"
  },
  {
    "name": "도미노피자 곤지암점",
    "address": "경기도 광주시 곤지암읍 경충대로 772 (삼리, 다모아빌딩)",
    "phone": "031-798-3013",
    "lat": 37.356362,
    "lng": 127.324843,
    "region": "경기도",
    "district": "광주시"
  },
  {
    "name": "도미노피자 상암점",
    "address": "서울특별시 마포구 월드컵북로 336 (상암동)",
    "phone": "02-302-3051",
    "lat": 37.575988,
    "lng": 126.894633,
    "region": "서울특별시",
    "district": "마포구"
  },
  {
    "name": "도미노피자 문막점",
    "address": "강원특별자치도 원주시 문막읍 원문로 1832 (문막리)",
    "phone": "033-735-3083",
    "lat": 37.309865,
    "lng": 127.818342,
    "region": "강원특별자치도",
    "district": "원주시"
  },
  {
    "name": "도미노피자 대전노은점",
    "address": "대전광역시 유성구 노은동로240번길 67 (지족동)",
    "phone": "042-824-3061",
    "lat": 36.383268,
    "lng": 127.320857,
    "region": "대전광역시",
    "district": "유성구"
  },
  {
    "name": "도미노피자 청주가경점",
    "address": "충청북도 청주시 흥덕구 2순환로 1130 스타쁠레르빌딩 1층 도미노피자",
    "phone": "043-238-3087",
    "lat": 36.634066,
    "lng": 127.424168,
    "region": "충청북도",
    "district": "청주시"
  },
  {
    "name": "도미노피자 인천논현점",
    "address": "인천광역시 남동구 소래역로 28, 조은프라자 112호 (논현동)",
    "phone": "032-423-3082",
    "lat": 37.399721,
    "lng": 126.736039,
    "region": "인천광역시",
    "district": "남동구"
  },
  {
    "name": "도미노피자 신탄진점",
    "address": "대전광역시 대덕구 신탄진로 800-1 (신탄진동)",
    "phone": "042-935-3081",
    "lat": 36.448949,
    "lng": 127.429513,
    "region": "대전광역시",
    "district": "대덕구"
  },
  {
    "name": "도미노피자 배방점",
    "address": "충청남도 아산시 배방읍 월천2길 78 1층",
    "phone": "041-547-3082",
    "lat": 36.771425,
    "lng": 127.07744,
    "region": "충청남도",
    "district": "아산시"
  },
  {
    "name": "도미노피자 진주초전점",
    "address": "경상남도 진주시 대신로 476",
    "phone": "055-754-5819",
    "lat": 35.2031255,
    "lng": 128.116327,
    "region": "경상남도",
    "district": "진주시"
  },
  {
    "name": "도미노피자 청주용암점",
    "address": "충청북도 청주시 상당구 단재로 123 (영운동)",
    "phone": "043-223-3082",
    "lat": 36.618492,
    "lng": 127.498218,
    "region": "충청북도",
    "district": "청주시"
  },
  {
    "name": "도미노피자 연신내점",
    "address": "서울특별시 은평구 통일로 797 (대조동)",
    "phone": "02-351-3082",
    "lat": 37.615304,
    "lng": 126.924933,
    "region": "서울특별시",
    "district": "은평구"
  },
  {
    "name": "도미노피자 시흥은행점",
    "address": "경기도 시흥시 은행로 180 (대야동)",
    "phone": "031-313-2092",
    "lat": 37.446601,
    "lng": 126.797671,
    "region": "경기도",
    "district": "시흥시"
  },
  {
    "name": "도미노피자 구미상모점",
    "address": "경상북도 구미시 상모로 29 (상모동)",
    "phone": "054-463-3088",
    "lat": 36.089197,
    "lng": 128.3534,
    "region": "경상북도",
    "district": "구미시"
  },
  {
    "name": "도미노피자 월성점",
    "address": "대구광역시 달서구 조암로 85-1",
    "phone": "053-638-3082",
    "lat": 35.822656,
    "lng": 128.521069,
    "region": "대구광역시",
    "district": "달서구"
  },
  {
    "name": "도미노피자 봉담점",
    "address": "경기도 화성시 봉담읍 동화역말길 29-13 (동화리)",
    "phone": "031-278-6611",
    "lat": 37.215529,
    "lng": 126.96272,
    "region": "경기도",
    "district": "화성시"
  },
  {
    "name": "도미노피자 비발디파크점",
    "address": "강원특별자치도 홍천군 서면 한치골길 262 소노벨 B동 지하 1층(팔봉리,비발디파크)",
    "phone": "033-439-7370",
    "lat": 37.645768,
    "lng": 127.679801,
    "region": "강원특별자치도",
    "district": "홍천군"
  },
  {
    "name": "도미노피자 대치점",
    "address": "서울특별시 강남구 대치동  역삼로 444",
    "phone": "02-569-3082",
    "lat": 37.501855,
    "lng": 127.055673,
    "region": "서울특별시",
    "district": "강남구"
  },
  {
    "name": "도미노피자 공도점",
    "address": "경기도 안성시 공도읍 공도4로 21 (만정리)",
    "phone": "031-654-3083",
    "lat": 37.001741,
    "lng": 127.171077,
    "region": "경기도",
    "district": "안성시"
  },
  {
    "name": "도미노피자 용인포곡점",
    "address": "경기도 용인시 처인구 포곡읍 포곡로 80 (둔전리, 청석빌딩)",
    "phone": "031-334-3081",
    "lat": 37.267677,
    "lng": 127.214894,
    "region": "경기도",
    "district": "용인시"
  },
  {
    "name": "도미노피자 용호남천점",
    "address": "부산광역시 남구 수영로 346  1층",
    "phone": "051-611-3087",
    "lat": 35.1386712,
    "lng": 129.103429,
    "region": "부산광역시",
    "district": "남구"
  },
  {
    "name": "도미노피자 왜관점",
    "address": "경상북도 칠곡군 왜관읍 중앙로 109 (왜관리)",
    "phone": "054-973-3082",
    "lat": 35.98452,
    "lng": 128.398346,
    "region": "경상북도",
    "district": "칠곡군"
  },
  {
    "name": "도미노피자 부평산곡점",
    "address": "인천광역시 부평구 마장로 168 (산곡동)",
    "phone": "032-515-3907",
    "lat": 37.493267,
    "lng": 126.704252,
    "region": "인천광역시",
    "district": "부평구"
  },
  {
    "name": "도미노피자 괴정점",
    "address": "부산 사하구 사하로 169 (괴정동)",
    "phone": "051-293-2030",
    "lat": 35.096911,
    "lng": 128.993633,
    "region": "부산광역시",
    "district": "사하구"
  },
  {
    "name": "도미노피자 대구중앙점",
    "address": "대구광역시 중구 달구벌대로 1965 (대신동)",
    "phone": "053-253-3039",
    "lat": 35.864183,
    "lng": 128.579154,
    "region": "대구광역시",
    "district": "중구"
  },
  {
    "name": "도미노피자 알펜시아점",
    "address": "강원특별자치도 평창군 대관령면 솔봉로 325, 101동 (용산리, 알펜시아리조트)",
    "phone": "033-339-3082",
    "lat": 37.657925,
    "lng": 128.673197,
    "region": "강원특별자치도",
    "district": "평창군"
  },
  {
    "name": "도미노피자 별내점",
    "address": "경기 남양주시 송산로 153 오토스퀘어 빌딩",
    "phone": "031-571-8230",
    "lat": 37.656116,
    "lng": 127.129748,
    "region": "경기도",
    "district": "남양주시"
  },
  {
    "name": "도미노피자 고촌점",
    "address": "경기도 김포시 고촌읍 은행영사정로 41 (신곡리)",
    "phone": "031-987-3082",
    "lat": 37.602764,
    "lng": 126.774808,
    "region": "경기도",
    "district": "김포시"
  },
  {
    "name": "도미노피자 오포점",
    "address": "경기도 광주시 오포읍 오포로 116, 106~107호 (능평리, 한산빌딩)",
    "phone": "031-797-1082",
    "lat": 37.343712,
    "lng": 127.179129,
    "region": "경기도",
    "district": "광주시"
  },
  {
    "name": "도미노피자 사천점",
    "address": "경상남도 사천시 사천읍 진삼로 1389 (사주리)",
    "phone": "055-855-3082",
    "lat": 35.075841,
    "lng": 128.083868,
    "region": "경상남도",
    "district": "사천시"
  },
  {
    "name": "도미노피자 제주이도점",
    "address": "제주 제주시 승천로  70 (1층)",
    "phone": "064-751-3084",
    "lat": 33.492505,
    "lng": 126.542316,
    "region": "제주특별자치도",
    "district": "제주시"
  },
  {
    "name": "도미노피자 제주노형점",
    "address": "제주특별자치도 제주시 연북로 18 (노형동)",
    "phone": "064-742-3087",
    "lat": 33.481797,
    "lng": 126.483176,
    "region": "제주특별자치도",
    "district": "제주시"
  },
  {
    "name": "도미노피자 포항오천점",
    "address": "경상북도 포항시 남구 오천읍 북원로 10",
    "phone": "054-252-3082",
    "lat": 35.980952,
    "lng": 129.404151,
    "region": "경상북도",
    "district": "포항시"
  },
  {
    "name": "도미노피자 부천심곡점",
    "address": "경기도 부천시 부일로 429 다온하브 1층",
    "phone": "032-665-3081",
    "lat": 37.486834,
    "lng": 126.777743,
    "region": "경기도",
    "district": "부천시"
  },
  {
    "name": "도미노피자 전주인후점",
    "address": "전북특별자치도 전주시 덕진구 견훤로 146 (인후동1가)",
    "phone": "063-247-3082",
    "lat": 35.825266,
    "lng": 127.161539,
    "region": "전북특별자치도",
    "district": "전주시"
  },
  {
    "name": "도미노피자 광주화정점",
    "address": "광주광역시 서구 상무대로 1070 (화정동)",
    "phone": "062-351-3083",
    "lat": 35.15214,
    "lng": 126.879044,
    "region": "광주광역시",
    "district": "서구"
  },
  {
    "name": "도미노피자 화성남양점",
    "address": "경기도 화성시 남양읍 남양시장로 105, 덕왕빌딩 101호(남양리)",
    "phone": "031-366-7664",
    "lat": 37.21093,
    "lng": 126.82055,
    "region": "경기도",
    "district": "화성시"
  },
  {
    "name": "도미노피자 울산범서점",
    "address": "울산광역시 울주군 범서읍 대리로 105 (구영리)",
    "phone": "052-212-3082",
    "lat": 35.565698,
    "lng": 129.249532,
    "region": "울산광역시",
    "district": "울주군"
  },
  {
    "name": "도미노피자 밀양점",
    "address": "경상남도 밀양시 백민로1길 1 (내이동)",
    "phone": "055-351-3082",
    "lat": 35.49318,
    "lng": 128.747929,
    "region": "경상남도",
    "district": "밀양시"
  },
  {
    "name": "도미노피자 포항죽도점",
    "address": "경상북도 포항시 북구 양학천로 179-1 (죽도동)",
    "phone": "054-282-3082",
    "lat": 36.027983,
    "lng": 129.364405,
    "region": "경상북도",
    "district": "포항시"
  },
  {
    "name": "도미노피자 시흥연성점",
    "address": "경기도 시흥시 승지로69번길 7 (능곡동)",
    "phone": "031-316-3082",
    "lat": 37.370213,
    "lng": 126.809655,
    "region": "경기도",
    "district": "시흥시"
  },
  {
    "name": "도미노피자 무안남악점",
    "address": "전라남도 무안군 삼향읍 남악5로72번길 24 (남악리)",
    "phone": "061-284-3089",
    "lat": 34.81174,
    "lng": 126.473791,
    "region": "전라남도",
    "district": "무안군"
  },
  {
    "name": "도미노피자 김포장기점",
    "address": "경기도 김포시 김포한강1로78번길 62-15 (장기동)",
    "phone": "031-985-3081",
    "lat": 37.642576,
    "lng": 126.672449,
    "region": "경기도",
    "district": "김포시"
  },
  {
    "name": "도미노피자 파주교하점",
    "address": "경기도 파주시 숲속노을로 265, 105~106호 (문발동, 토우프라자)",
    "phone": "031-946-9682",
    "lat": 37.724056,
    "lng": 126.711127,
    "region": "경기도",
    "district": "파주시"
  },
  {
    "name": "도미노피자 광명일직점",
    "address": "경기도 광명시 일직로 28 광명트리플타워 122호",
    "phone": "02-6672-0787",
    "lat": 37.421845,
    "lng": 126.884802,
    "region": "경기도",
    "district": "광명시"
  },
  {
    "name": "도미노피자 상주서문점",
    "address": "경상북도 상주시 삼백로 120 (서문동)",
    "phone": "054-533-3082",
    "lat": 36.418274,
    "lng": 128.156789,
    "region": "경상북도",
    "district": "상주시"
  },
  {
    "name": "도미노피자 보라매점",
    "address": "서울특별시 관악구 봉천로 283-1 (봉천동)",
    "phone": "02-883-3085",
    "lat": 37.487542,
    "lng": 126.93287,
    "region": "서울특별시",
    "district": "관악구"
  },
  {
    "name": "도미노피자 홍릉점",
    "address": "서울특별시 동대문구 회기로 30, 1층 (제기동)",
    "phone": "02-963-3082",
    "lat": 37.591041,
    "lng": 127.039804,
    "region": "서울특별시",
    "district": "동대문구"
  },
  {
    "name": "도미노피자 강일점",
    "address": "서울특별시 강동구 상일로 127 (고덕동)",
    "phone": "02-3426-3083",
    "lat": 37.558482,
    "lng": 127.170881,
    "region": "서울특별시",
    "district": "강동구"
  },
  {
    "name": "도미노피자 고양점",
    "address": "경기도 고양시 덕양구 혜음로 68 (고양동, 중부대학교 근처)",
    "phone": "031-966-3084",
    "lat": 37.706557,
    "lng": 126.902947,
    "region": "경기도",
    "district": "고양시"
  },
  {
    "name": "도미노피자 범계점",
    "address": "경기도 안양시 동안구 평촌대로243번길 30, 1층 (비산동, 샤크존)",
    "phone": "031-388-3027",
    "lat": 37.392834,
    "lng": 126.953024,
    "region": "경기도",
    "district": "안양시"
  },
  {
    "name": "도미노피자 부천약대점",
    "address": "경기도 부천시 도약로 213  1층",
    "phone": "032-673-3082",
    "lat": 37.510596,
    "lng": 126.773322,
    "region": "경기도",
    "district": "부천시"
  },
  {
    "name": "도미노피자 임학점",
    "address": "인천광역시 계양구 장제로 889",
    "phone": "032-556-3082",
    "lat": 37.546965,
    "lng": 126.740105,
    "region": "인천광역시",
    "district": "계양구"
  },
  {
    "name": "도미노피자 순천중앙점",
    "address": "전라남도 순천시 중앙로 181 (매곡동)",
    "phone": "061-746-3082",
    "lat": 34.961994,
    "lng": 127.48426,
    "region": "전라남도",
    "district": "순천시"
  },
  {
    "name": "도미노피자 광양점",
    "address": "전라남도 광양시 사동로 93-1 (중동)",
    "phone": "061-794-3082",
    "lat": 34.94779,
    "lng": 127.687496,
    "region": "전라남도",
    "district": "광양시"
  },
  {
    "name": "도미노피자 구파발점",
    "address": "서울특별시 은평구 진관4로 17, 820동 상가 101호 (진관동, 은평뉴타운상림마을)",
    "phone": "02-384-3082",
    "lat": 37.643678,
    "lng": 126.921774,
    "region": "서울특별시",
    "district": "은평구"
  },
  {
    "name": "도미노피자 양산웅상점",
    "address": "경상남도 양산시 웅상대로 1257 (삼호동)",
    "phone": "055-366-3082",
    "lat": 35.410244,
    "lng": 129.164827,
    "region": "경상남도",
    "district": "양산시"
  },
  {
    "name": "도미노피자 장지점",
    "address": "서울특별시 송파구 송이로32길 37 (문정동)",
    "phone": "02-401-3082",
    "lat": 37.486805,
    "lng": 127.127202,
    "region": "서울특별시",
    "district": "송파구"
  },
  {
    "name": "도미노피자 논산점",
    "address": "충청남도 논산시 중앙로 219 (내동)",
    "phone": "041-734-3082",
    "lat": 36.187395,
    "lng": 127.101562,
    "region": "충청남도",
    "district": "논산시"
  },
  {
    "name": "도미노피자 성남태평점",
    "address": "경기도 성남시 수정구 성남대로 1276, 1층 (태평동)",
    "phone": "031-759-3082",
    "lat": 37.443622,
    "lng": 127.127387,
    "region": "경기도",
    "district": "성남시"
  },
  {
    "name": "도미노피자 가오점",
    "address": "대전광역시 동구 은어송로 75 (가오동)",
    "phone": "042-286-3084",
    "lat": 36.30737,
    "lng": 127.457081,
    "region": "대전광역시",
    "district": "동구"
  },
  {
    "name": "도미노피자 증평점",
    "address": "충청북도 증평군 증평읍 중앙로 179 (창동리)",
    "phone": "043-836-3083",
    "lat": 36.78252,
    "lng": 127.579226,
    "region": "충청북도",
    "district": "증평군"
  },
  {
    "name": "도미노피자 정관점",
    "address": "부산광역시 기장군 정관읍 용수로 23",
    "phone": "051-728-4282",
    "lat": 35.325805,
    "lng": 129.178319,
    "region": "부산광역시",
    "district": "기장군"
  },
  {
    "name": "도미노피자 흥덕점",
    "address": "경기도 용인시 기흥구 흥덕1로 97",
    "phone": "031-215-5941",
    "lat": 37.274808,
    "lng": 127.073321,
    "region": "경기도",
    "district": "용인시"
  },
  {
    "name": "도미노피자 송도점",
    "address": "인천광역시 연수구 컨벤시아대로 송도동 21-60 힐스테이트 4단지 116호",
    "phone": "032-859-0877",
    "lat": 37.395631,
    "lng": 126.649077,
    "region": "인천광역시",
    "district": "연수구"
  },
  {
    "name": "도미노피자 의왕포일점",
    "address": "경기도 의왕시 성고개로 53 에이스청계타워 212호",
    "phone": "031-423-3082",
    "lat": 37.3973742,
    "lng": 126.985188,
    "region": "경기도",
    "district": "의왕시"
  },
  {
    "name": "도미노피자 판교점",
    "address": "경기도 성남시 분당구 서판교로 160, 106~108호 (판교동, 스타식스밸리)",
    "phone": "031-8017-9096",
    "lat": 37.400224,
    "lng": 127.094787,
    "region": "경기도",
    "district": "성남시"
  },
  {
    "name": "도미노피자 서창점",
    "address": "인천광역시 남동구 장아산로 130 (서창동)",
    "phone": "032-468-3081",
    "lat": 37.439301,
    "lng": 126.749163,
    "region": "인천광역시",
    "district": "남동구"
  },
  {
    "name": "도미노피자 왕십리점",
    "address": "서울특별시 성동구 난계로 81 (하왕십리동)",
    "phone": "02-2297-3082",
    "lat": 37.559161,
    "lng": 127.023556,
    "region": "서울특별시",
    "district": "성동구"
  },
  {
    "name": "도미노피자 청라점",
    "address": "인천광역시 서구 청라라임로138번길 4-4 (연희동)",
    "phone": "032-565-3081",
    "lat": 37.539605,
    "lng": 126.653438,
    "region": "인천광역시",
    "district": "서구"
  },
  {
    "name": "도미노피자 기장점",
    "address": "부산광역시 기장군 기장읍 차성동로154번길 2 (교리)",
    "phone": "051-724-3084",
    "lat": 35.251439,
    "lng": 129.217552,
    "region": "부산광역시",
    "district": "기장군"
  },
  {
    "name": "도미노피자 울산화봉점",
    "address": "울산광역시 북구 화봉로 143 (연암동)",
    "phone": "052-288-3084",
    "lat": 35.584074,
    "lng": 129.370276,
    "region": "울산광역시",
    "district": "북구"
  },
  {
    "name": "도미노피자 나주점",
    "address": "전라남도 나주시 나주로 208 (성북동)",
    "phone": "061-336-3082",
    "lat": 35.034947,
    "lng": 126.721922,
    "region": "전라남도",
    "district": "나주시"
  },
  {
    "name": "도미노피자 명지점",
    "address": "부산광역시 강서구 명지오션시티10로 16, 201호 (명지동, 퀸덤1차링컨타운)",
    "phone": "051-205-3082",
    "lat": 35.086418,
    "lng": 128.896773,
    "region": "부산광역시",
    "district": "강서구"
  },
  {
    "name": "도미노피자 석촌점",
    "address": "서울특별시 송파구 백제고분로 285 (석촌동, 조광빌딩)",
    "phone": "02-2202-3082",
    "lat": 37.502747,
    "lng": 127.098325,
    "region": "서울특별시",
    "district": "송파구"
  },
  {
    "name": "도미노피자 구월점",
    "address": "인천광역시 남동구 문화로 111 (구월동)",
    "phone": "032-434-3083",
    "lat": 37.448982,
    "lng": 126.699277,
    "region": "인천광역시",
    "district": "남동구"
  },
  {
    "name": "도미노피자 오산세교점",
    "address": "경기도 오산시 수청로 18",
    "phone": "031-378-8762",
    "lat": 37.171643,
    "lng": 127.058918,
    "region": "경기도",
    "district": "오산시"
  },
  {
    "name": "도미노피자 대구다사점",
    "address": "대구광역시 달성군 다사읍 왕선로 54 (매곡리)",
    "phone": "053-592-3082",
    "lat": 35.864504,
    "lng": 128.4649,
    "region": "대구광역시",
    "district": "달성군"
  },
  {
    "name": "도미노피자 언양점",
    "address": "울산광역시 울주군 언양읍 북문5길 7, 2호 (신화빌라)",
    "phone": "052-254-3083",
    "lat": 35.570651,
    "lng": 129.125028,
    "region": "울산광역시",
    "district": "울주군"
  },
  {
    "name": "도미노피자 김해진영점",
    "address": "경상남도 김해시 진영읍 장등로19번길 85, 1층 (진영리)",
    "phone": "055-342-3082",
    "lat": 35.310177,
    "lng": 128.727187,
    "region": "경상남도",
    "district": "김해시"
  },
  {
    "name": "도미노피자 포천시청점",
    "address": "경기도 포천시 중앙로 24 (신읍동)",
    "phone": "031-533-3082",
    "lat": 37.889782,
    "lng": 127.196992,
    "region": "경기도",
    "district": "포천시"
  },
  {
    "name": "도미노피자 천왕점",
    "address": "서울특별시 구로구 오류동 오리로 1160, 101호 (오류동)",
    "phone": "02-2060-3272",
    "lat": 37.487716,
    "lng": 126.838263,
    "region": "서울특별시",
    "district": "구로구"
  },
  {
    "name": "도미노피자 진해용원점",
    "address": "경상남도 창원시 진해구 용원로 55 (용원동)",
    "phone": "055-552-3082",
    "lat": 35.099556,
    "lng": 128.815335,
    "region": "경상남도",
    "district": "창원시"
  },
  {
    "name": "도미노피자 문경점촌점",
    "address": "경상북도 문경시 모전로 108 (모전동)",
    "phone": "054-552-3082",
    "lat": 36.590928,
    "lng": 128.189527,
    "region": "경상북도",
    "district": "문경시"
  },
  {
    "name": "도미노피자 김포통진점",
    "address": "경기도 김포시 통진읍 조강로 24 (서암리)",
    "phone": "031-985-3092",
    "lat": 37.688672,
    "lng": 126.602458,
    "region": "경기도",
    "district": "김포시"
  },
  {
    "name": "도미노피자 진주경상대점",
    "address": "경상남도 진주시 진주대로 624-4 (가좌동)",
    "phone": "055-753-4879",
    "lat": 35.162063,
    "lng": 128.106906,
    "region": "경상남도",
    "district": "진주시"
  },
  {
    "name": "도미노피자 오송점",
    "address": "충청북도 청주시 흥덕구 오송읍 오송생명로 208-9 리움갤러리96 102,103호",
    "phone": "043-238-9670",
    "lat": 36.630157,
    "lng": 127.332787,
    "region": "충청북도",
    "district": "청주시"
  },
  {
    "name": "도미노피자 음성금왕점",
    "address": "충청북도 음성군 금왕읍 무극로 200 (무극리)",
    "phone": "043-882-3082",
    "lat": 36.990628,
    "lng": 127.583957,
    "region": "충청북도",
    "district": "음성군"
  },
  {
    "name": "도미노피자 울산온산점",
    "address": "울산광역시 울주군 온산읍 신경3길 55 (덕신리)",
    "phone": "052-239-3081",
    "lat": 35.4304,
    "lng": 129.306904,
    "region": "울산광역시",
    "district": "울주군"
  },
  {
    "name": "도미노피자 율천점",
    "address": "경기도 수원시 장안구 하률로 3, 1층 (천천동)",
    "phone": "031-269-3008",
    "lat": 37.303169,
    "lng": 126.973642,
    "region": "경기도",
    "district": "수원시"
  },
  {
    "name": "도미노피자 거창점",
    "address": "경상남도 거창군 거창읍 중앙로 182 (대동리)",
    "phone": "055-944-3082",
    "lat": 35.688036,
    "lng": 127.918315,
    "region": "경상남도",
    "district": "거창군"
  },
  {
    "name": "도미노피자 이태원점",
    "address": "서울특별시 용산구 보광로 112-3, 2층 (이태원동)",
    "phone": "02-790-3082",
    "lat": 37.532844,
    "lng": 126.994641,
    "region": "서울특별시",
    "district": "용산구"
  },
  {
    "name": "도미노피자 서울숲점",
    "address": "서울특별시 성동구 성수일로 1, 1층 (성수동1가)",
    "phone": "02-462-3081",
    "lat": 37.54091,
    "lng": 127.047883,
    "region": "서울특별시",
    "district": "성동구"
  },
  {
    "name": "도미노피자 경주보문점",
    "address": "경상북도 경주시 보문로 549, 보문프라자 104호 (천군동)",
    "phone": "054-775-3082",
    "lat": 35.835724,
    "lng": 129.284912,
    "region": "경상북도",
    "district": "경주시"
  },
  {
    "name": "도미노피자 번동점",
    "address": "서울특별시 강북구 덕릉로 147 (번동, 선경빌딩)",
    "phone": "02-904-3084",
    "lat": 37.635322,
    "lng": 127.030114,
    "region": "서울특별시",
    "district": "강북구"
  },
  {
    "name": "도미노피자 평택소사벌점",
    "address": "경기도 평택시 평남로 1025 (동삭동)",
    "phone": "031-655-3081",
    "lat": 37.0095506,
    "lng": 127.097489,
    "region": "경기도",
    "district": "평택시"
  },
  {
    "name": "도미노피자 울산삼산점",
    "address": "울산광역시 남구 돋질로 246, 1층 (달동)",
    "phone": "052-268-3082",
    "lat": 35.543033,
    "lng": 129.331981,
    "region": "울산광역시",
    "district": "남구"
  },
  {
    "name": "도미노피자 당고개점",
    "address": "서울특별시 노원구 덕릉로 740 (상계동, 정진빌딩)",
    "phone": "02-930-3082",
    "lat": 37.663627,
    "lng": 127.076386,
    "region": "서울특별시",
    "district": "노원구"
  },
  {
    "name": "도미노피자 삼척점",
    "address": "강원특별자치도 삼척시 중앙로 264 (당저동)",
    "phone": "033-575-3082",
    "lat": 37.446794,
    "lng": 129.167595,
    "region": "강원특별자치도",
    "district": "삼척시"
  },
  {
    "name": "도미노피자 통영죽림점",
    "address": "경상남도 통영시 광도면 신죽2길 4 (죽림리, 위너스빌딩)",
    "phone": "055-646-3082",
    "lat": 34.876779,
    "lng": 128.418772,
    "region": "경상남도",
    "district": "통영시"
  },
  {
    "name": "도미노피자 포항장량점",
    "address": "경상북도 포항시 북구 새천년대로1249번길 46 (장성동)",
    "phone": "054-249-3082",
    "lat": 36.077473,
    "lng": 129.380873,
    "region": "경상북도",
    "district": "포항시"
  },
  {
    "name": "도미노피자 전주송천점",
    "address": "전북특별자치도 전주시 덕진구 송천중앙로 56 (송천동1가)",
    "phone": "063-246-3084",
    "lat": 35.852029,
    "lng": 127.12018,
    "region": "전북특별자치도",
    "district": "전주시"
  },
  {
    "name": "도미노피자 수지신봉점",
    "address": "경기도 용인시 수지구 신봉1로 84 (신봉동, 상록신봉종합상가)",
    "phone": "031-898-3083",
    "lat": 37.323681,
    "lng": 127.076405,
    "region": "경기도",
    "district": "용인시"
  },
  {
    "name": "도미노피자 응암점",
    "address": "서울특별시 은평구 백련산로 160 (응암동, 녹번역센트레빌)",
    "phone": "02-353-3082",
    "lat": 37.598617,
    "lng": 126.925938,
    "region": "서울특별시",
    "district": "은평구"
  },
  {
    "name": "도미노피자 광교점",
    "address": "경기도 수원시 영통구 센트럴타운로 92 (이의동)",
    "phone": "031-217-3086",
    "lat": 37.291954,
    "lng": 127.050815,
    "region": "경기도",
    "district": "수원시"
  },
  {
    "name": "도미노피자 이매점",
    "address": "경기도 성남시 분당구 성남대로779번길 22 (이매동, 이매상가)",
    "phone": "031-8017-3082",
    "lat": 37.399417,
    "lng": 127.125925,
    "region": "경기도",
    "district": "성남시"
  },
  {
    "name": "도미노피자 남수원점",
    "address": "경기도 수원시 권선구 경수대로 349, 1층 (권선동)",
    "phone": "031-225-3082",
    "lat": 37.257914,
    "lng": 127.022361,
    "region": "경기도",
    "district": "수원시"
  },
  {
    "name": "도미노피자 구미옥계점",
    "address": "경상북도 구미시 옥계북로 86 (옥계동)",
    "phone": "054-472-3078",
    "lat": 36.138098,
    "lng": 128.427047,
    "region": "경상북도",
    "district": "구미시"
  },
  {
    "name": "도미노피자 광주양산점",
    "address": "광주광역시 북구 하서로 344 (양산동)",
    "phone": "062-574-3083",
    "lat": 35.205729,
    "lng": 126.873777,
    "region": "광주광역시",
    "district": "북구"
  },
  {
    "name": "도미노피자 양산중부점",
    "address": "경상남도 양산시 양산역로 103 (중부동)",
    "phone": "055-386-3082",
    "lat": 35.338529,
    "lng": 129.029109,
    "region": "경상남도",
    "district": "양산시"
  },
  {
    "name": "도미노피자 세종아름점",
    "address": "세종특별자치시 보듬3로 91, 115~116호 (아름동, 해피라움4)",
    "phone": "044-864-4082",
    "lat": 36.5113505,
    "lng": 127.249574,
    "region": "세종특별자치시",
    "district": "보듬3로"
  },
  {
    "name": "도미노피자 거제수양점",
    "address": "경상남도 거제시 해명로 22-10, 1층101호 (수월동)",
    "phone": "055-634-3082",
    "lat": 34.894489,
    "lng": 128.642306,
    "region": "경상남도",
    "district": "거제시"
  },
  {
    "name": "도미노피자 창원성주점",
    "address": "경상남도 창원시 성산구 삼정자로72번길 29-1 (성주동, 창원 LAIM PLAZA 빌딩)",
    "phone": "055-274-3081",
    "lat": 35.195157,
    "lng": 128.714198,
    "region": "경상남도",
    "district": "창원시"
  },
  {
    "name": "도미노피자 광주송정점",
    "address": "광주광역시 광산구 상무대로 305 (소촌동)",
    "phone": "062-942-3082",
    "lat": 35.143796,
    "lng": 126.799078,
    "region": "광주광역시",
    "district": "광산구"
  },
  {
    "name": "도미노피자 천안청당점",
    "address": "충청남도 천안시 동남구 광풍로 1863 (청당동)",
    "phone": "041-553-3084",
    "lat": 36.784708,
    "lng": 127.145952,
    "region": "충청남도",
    "district": "천안시"
  },
  {
    "name": "도미노피자 대전용문점",
    "address": "대전광역시 서구 도산로 335, 1층 (용문동)",
    "phone": "042-524-3082",
    "lat": 36.335412,
    "lng": 127.389135,
    "region": "대전광역시",
    "district": "서구"
  },
  {
    "name": "도미노피자 철원점",
    "address": "강원특별자치도 철원군 갈말읍 삼부연로7번길 6 (신철원리)",
    "phone": "033-452-3083",
    "lat": 38.145346,
    "lng": 127.308755,
    "region": "강원특별자치도",
    "district": "철원군"
  },
  {
    "name": "도미노피자 부산반송점",
    "address": "부산광역시 해운대구 아랫반송로21번길 106 (반송동)",
    "phone": "051-542-3082",
    "lat": 35.228152,
    "lng": 129.148759,
    "region": "부산광역시",
    "district": "해운대구"
  },
  {
    "name": "도미노피자 김포구래점",
    "address": "경기도 김포시 김포한강9로12번길 97-10",
    "phone": "031-996-3025",
    "lat": 37.640884,
    "lng": 126.627232,
    "region": "경기도",
    "district": "김포시"
  },
  {
    "name": "도미노피자 창원북면점",
    "address": "경상남도 창원시 의창구 북면 동전로110번길 4 우리마트 감계점 앞(감계리 56-11)",
    "phone": "055-251-3082",
    "lat": 35.305713,
    "lng": 128.596463,
    "region": "경상남도",
    "district": "창원시"
  },
  {
    "name": "도미노피자 대구대봉점",
    "address": "대구광역시 중구 동덕로 86 (대봉동)",
    "phone": "053-423-3084",
    "lat": 35.862458,
    "lng": 128.603307,
    "region": "대구광역시",
    "district": "중구"
  },
  {
    "name": "도미노피자 제주화북점",
    "address": "제주도 제주시 화삼로 19 (화북1동)",
    "phone": "064-759-3084",
    "lat": 33.51436,
    "lng": 126.575426,
    "region": "제주특별자치도",
    "district": "제주시"
  },
  {
    "name": "도미노피자 천안신방점",
    "address": "충청남도 천안시 신촌로 41",
    "phone": "041-579-3084",
    "lat": 36.788129,
    "lng": 127.123088,
    "region": "충청남도",
    "district": "천안시"
  },
  {
    "name": "도미노피자 신동탄점",
    "address": "경기도 화성시 동탄순환대로 706  1층",
    "phone": "031-373-3094",
    "lat": 37.208144,
    "lng": 127.110595,
    "region": "경기도",
    "district": "화성시"
  },
  {
    "name": "도미노피자 마산교방점",
    "address": "경상남도 창원시 마산합포구 북성로 48 리바트오피스 1층",
    "phone": "055-223-3082",
    "lat": 35.2116353,
    "lng": 128.572136,
    "region": "경상남도",
    "district": "창원시"
  },
  {
    "name": "도미노피자 전주혁신점",
    "address": "전북특별자치도 완주군 이서면 안전로 141  기연빌딩 103호",
    "phone": "063-224-3082",
    "lat": 35.836726,
    "lng": 127.058219,
    "region": "전북특별자치도",
    "district": "완주군"
  },
  {
    "name": "도미노피자 청주산남점",
    "address": "충청북도 청주시 서원구 구룡산로 237",
    "phone": "043-292-3082",
    "lat": 36.6160999,
    "lng": 127.471548,
    "region": "충청북도",
    "district": "청주시"
  },
  {
    "name": "도미노피자 인제원통점",
    "address": "강원특별자치도 인제군 인제읍  인제로206번길 38",
    "phone": "033-462-3083",
    "lat": 38.0664054,
    "lng": 128.175152,
    "region": "강원특별자치도",
    "district": "인제군"
  },
  {
    "name": "도미노피자 횡성점",
    "address": "강원특별자치도 횡성군 횡성읍 문정로 57 (읍상리 306-1)",
    "phone": "033-344-3082",
    "lat": 37.488712,
    "lng": 127.989508,
    "region": "강원특별자치도",
    "district": "횡성군"
  },
  {
    "name": "도미노피자 경산사동점",
    "address": "경상북도 경산시 원효로 202(사동)",
    "phone": "053-801-3082",
    "lat": 35.8185612,
    "lng": 128.758217,
    "region": "경상북도",
    "district": "경산시"
  },
  {
    "name": "도미노피자 제주서귀포점",
    "address": "제주도 서귀포시 신서귀로 118",
    "phone": "064-739-3086",
    "lat": 33.2589312,
    "lng": 126.510677,
    "region": "제주특별자치도",
    "district": "서귀포시"
  },
  {
    "name": "도미노피자 목포북항점",
    "address": "전라남도 목포시 청호로 175",
    "phone": "061-273-3082",
    "lat": 34.8061652,
    "lng": 126.373225,
    "region": "전라남도",
    "district": "목포시"
  },
  {
    "name": "도미노피자 원주혁신점",
    "address": "강원특별자치도 원주시 미래로 37 1층 104호",
    "phone": "033-731-3083",
    "lat": 37.327125,
    "lng": 127.987821,
    "region": "강원특별자치도",
    "district": "원주시"
  },
  {
    "name": "도미노피자 김천혁신점",
    "address": "경상북도 김천시 혁신6로 63 106호,107호",
    "phone": "054-433-3082",
    "lat": 36.124412,
    "lng": 128.188276,
    "region": "경상북도",
    "district": "김천시"
  },
  {
    "name": "도미노피자 이천부발점",
    "address": "경기도 이천시 부발읍 경충대로2050번길 15-88 1층",
    "phone": "031-636-3082",
    "lat": 37.252377,
    "lng": 127.492229,
    "region": "경기도",
    "district": "이천시"
  },
  {
    "name": "도미노피자 남원점",
    "address": "전북특별자치도 남원시 용성로 166  1층",
    "phone": "063-635-7310",
    "lat": 35.413298,
    "lng": 127.392854,
    "region": "전북특별자치도",
    "district": "남원시"
  },
  {
    "name": "도미노피자 광주진월점",
    "address": "광주광역시 남구 효덕로 310  1층",
    "phone": "062-674-3082",
    "lat": 35.1110613,
    "lng": 126.89643,
    "region": "광주광역시",
    "district": "남구"
  },
  {
    "name": "도미노피자 대구화원점",
    "address": "대구광역시 달성군 화원읍 명천로 255",
    "phone": "053-644-3082",
    "lat": 35.79782,
    "lng": 128.491123,
    "region": "대구광역시",
    "district": "달성군"
  },
  {
    "name": "도미노피자 연제토곡점",
    "address": "부산광역시 연제구 과정로 156, 1층",
    "phone": "051-753-3082",
    "lat": 35.18534,
    "lng": 129.107453,
    "region": "부산광역시",
    "district": "연제구"
  },
  {
    "name": "도미노피자 김제점",
    "address": "전북특별자치도 김제시 동서로 284",
    "phone": "063-920-3081",
    "lat": 35.803375,
    "lng": 126.897827,
    "region": "전북특별자치도",
    "district": "김제시"
  },
  {
    "name": "도미노피자 대구현풍점",
    "address": "대구광역시 달성군 현풍면 테크노대로 24, 1층 108,109호(테크노플라자1)",
    "phone": "053-269-3082",
    "lat": 35.688835,
    "lng": 128.449284,
    "region": "대구광역시",
    "district": "달성군"
  },
  {
    "name": "도미노피자 부천옥길점",
    "address": "경기도 부천시 양지로 125 예품빌딩 1층",
    "phone": "02-6402-3083",
    "lat": 37.471701,
    "lng": 126.81694,
    "region": "경기도",
    "district": "부천시"
  },
  {
    "name": "도미노피자 팽성점",
    "address": "경기도 평택시 부용로 56번길 29, 1층",
    "phone": "031-8094-4684",
    "lat": 36.963104,
    "lng": 127.063573,
    "region": "경기도",
    "district": "평택시"
  },
  {
    "name": "도미노피자 만촌점",
    "address": "대구광역시 수성구 무열로 113-1, 1층",
    "phone": "053-213-3082",
    "lat": 35.868463,
    "lng": 128.648834,
    "region": "대구광역시",
    "district": "수성구"
  },
  {
    "name": "도미노피자 신도림점",
    "address": "서울특별시 구로구 경인로61길 21 1층  103,104호 (신도림동, 신도림 크라운빌)",
    "phone": "02-6739-3083",
    "lat": 37.507594,
    "lng": 126.883995,
    "region": "서울특별시",
    "district": "구로구"
  },
  {
    "name": "도미노피자 위례점",
    "address": "서울시 송파구 위례광장로 290 제상가동 1층 138,139호 (장지동 위례중앙푸르지오 2단지)",
    "phone": "02-6734-3082",
    "lat": 37.474783,
    "lng": 127.14313,
    "region": "서울특별시",
    "district": "송파구"
  },
  {
    "name": "도미노피자 김해율하점",
    "address": "경상남도 김해시 율하2로 122 122",
    "phone": "055-902-5100",
    "lat": 35.16916,
    "lng": 128.814139,
    "region": "경상남도",
    "district": "김해시"
  },
  {
    "name": "도미노피자 충북혁신점",
    "address": "충북 음성군 맹동면 두레로 23",
    "phone": "043-927-3082",
    "lat": 36.911853,
    "lng": 127.547898,
    "region": "충청북도",
    "district": "음성군"
  },
  {
    "name": "도미노피자 전농점",
    "address": "서울시 동대문구 서울시립대로 75 102동 106호(전농동, 전농동신성미소지움아파트)",
    "phone": "02-6463-3082",
    "lat": 37.578545,
    "lng": 127.048418,
    "region": "서울특별시",
    "district": "동대문구"
  },
  {
    "name": "도미노피자 경북신도청점",
    "address": "경북 예천군 호명면 수변로 125 (서진타워) 106호",
    "phone": "054-988-9851",
    "lat": 36.577912,
    "lng": 128.482675,
    "region": "경상북도",
    "district": "예천군"
  },
  {
    "name": "도미노피자 파주운정점",
    "address": "경기도 파주시 경의로 1114(야당동) 에펠타워 103,104호",
    "phone": "031-8035-7081",
    "lat": 37.716907,
    "lng": 126.760336,
    "region": "경기도",
    "district": "파주시"
  },
  {
    "name": "도미노피자 배곧신도시점",
    "address": "경기도 시흥시 배곧4로 32-28 (정왕동) 그랜드프라자 101,102호",
    "phone": "031-509-5025",
    "lat": 37.37811144218524,
    "lng": 126.72606168241191,
    "region": "경기도",
    "district": "시흥시"
  },
  {
    "name": "도미노피자 시흥목감점",
    "address": "경기도 시흥시 남왕길 48-12(목감동)",
    "phone": "031-507-2503",
    "lat": 37.382607,
    "lng": 126.863455,
    "region": "경기도",
    "district": "시흥시"
  },
  {
    "name": "도미노피자 홍성내포점",
    "address": "충청남도 홍성군 홍북읍 충남대로 140 SFC타워 101호",
    "phone": "041-977-3083",
    "lat": 36.656146,
    "lng": 126.686555,
    "region": "충청남도",
    "district": "홍성군"
  },
  {
    "name": "도미노피자 익산모현점",
    "address": "전북특별자치도 익산시 군익로 499  (송학동)",
    "phone": "063-918-7081",
    "lat": 35.9418668,
    "lng": 126.940546,
    "region": "전북특별자치도",
    "district": "익산시"
  },
  {
    "name": "도미노피자 천안성성점",
    "address": "충청남도 천안시 서북구 한들1로 152-60",
    "phone": "041-902-3083",
    "lat": 36.834672,
    "lng": 127.12041,
    "region": "충청남도",
    "district": "천안시"
  },
  {
    "name": "도미노피자 완주점",
    "address": "전북특별자치도 완주군 봉동읍 과학로 997  1동 1층 103호",
    "phone": "063-905-8979",
    "lat": 35.9586701,
    "lng": 127.126235,
    "region": "전북특별자치도",
    "district": "완주군"
  },
  {
    "name": "도미노피자 롯데월드점",
    "address": "서울특별시 송파구 올림픽로 240 롯데월드 지하1층",
    "phone": "02-6285-3082",
    "lat": 37.511065,
    "lng": 127.097939,
    "region": "서울특별시",
    "district": "송파구"
  },
  {
    "name": "도미노피자 양주고읍점",
    "address": "경기도 양주시 고읍로 151  현대빌딩 1층",
    "phone": "031-822-7492",
    "lat": 37.792542,
    "lng": 127.086716,
    "region": "경기도",
    "district": "양주시"
  },
  {
    "name": "도미노피자 세종보람점",
    "address": "세종특별자치시 시청대로 209 금강르네상스 1층 107,108호",
    "phone": "044-866-3093",
    "lat": 36.483206,
    "lng": 127.293044,
    "region": "세종특별자치시",
    "district": "시청대로"
  },
  {
    "name": "도미노피자 대구이시아폴리스점",
    "address": "대구광역시 동구 팔공로 241  1층 111호, 112호(봉무동)",
    "phone": "053-219-3083",
    "lat": 35.920218,
    "lng": 128.640587,
    "region": "대구광역시",
    "district": "동구"
  },
  {
    "name": "도미노피자 서산테크노밸리점",
    "address": "충청남도 서산시 성연면 성연4로 27-28  유림빌딩 1층",
    "phone": "041-920-3600",
    "lat": 36.8234171,
    "lng": 126.449407,
    "region": "충청남도",
    "district": "서산시"
  },
  {
    "name": "도미노피자 송도2호점",
    "address": "인천광역시 연수구 송도미래로 47  105호(송도동)",
    "phone": "032-238-3082",
    "lat": 37.367515,
    "lng": 126.6503,
    "region": "인천광역시",
    "district": "연수구"
  },
  {
    "name": "도미노피자 의정부민락점",
    "address": "경기도 의정부시 용민로 249  1층 105,106호 (낙양동,골든타워)",
    "phone": "031-838-6626",
    "lat": 37.749251,
    "lng": 127.09795,
    "region": "경기도",
    "district": "의정부시"
  },
  {
    "name": "도미노피자 평창점",
    "address": "서울특별시 종로구 평창문화로 75 글로리아타운 비동 102,103호",
    "phone": "02-6497-3081",
    "lat": 37.6066675,
    "lng": 126.969084,
    "region": "서울특별시",
    "district": "종로구"
  },
  {
    "name": "도미노피자 순천신대점",
    "address": "전라남도 순천시 해룡면 매안4길 32  1층",
    "phone": "061-902-3082",
    "lat": 34.93234,
    "lng": 127.554141,
    "region": "전라남도",
    "district": "순천시"
  },
  {
    "name": "도미노피자 광양서천점",
    "address": "전라남도 광양시 광양읍 서북로 14  1층",
    "phone": "061-913-1919",
    "lat": 34.972082,
    "lng": 127.579546,
    "region": "전라남도",
    "district": "광양시"
  },
  {
    "name": "도미노피자 고창점",
    "address": "전북특별자치도 고창군 고창읍 월곡로 38",
    "phone": "063-923-9847",
    "lat": 35.435098,
    "lng": 126.711271,
    "region": "전북특별자치도",
    "district": "고창군"
  },
  {
    "name": "도미노피자 태안점",
    "address": "충청남도 태안군 태안읍 후곡로 61  1층, (남문리 704-9)",
    "phone": "041-920-0056",
    "lat": 36.746761,
    "lng": 126.299882,
    "region": "충청남도",
    "district": "태안군"
  },
  {
    "name": "도미노피자 하남신장점",
    "address": "경기도 하남시 하남대로 786-1  1층(신장동)",
    "phone": "031-699-8740",
    "lat": 37.540382,
    "lng": 127.210129,
    "region": "경기도",
    "district": "하남시"
  },
  {
    "name": "도미노피자 화순점",
    "address": "전라남도 화순군 화순읍 만연로 37    1층",
    "phone": "061-927-3592",
    "lat": 35.0591203,
    "lng": 126.987888,
    "region": "전라남도",
    "district": "화순군"
  },
  {
    "name": "도미노피자 남동탄점",
    "address": "경기도 화성시 동탄순환대로 127-5  1층 108~109호",
    "phone": "031-8043-5888",
    "lat": 37.165935,
    "lng": 127.107247,
    "region": "경기도",
    "district": "화성시"
  },
  {
    "name": "도미노피자 송산그린시티점",
    "address": "경기도 화성시 수노을2로 36  드림디자인센터 1층 105,106호",
    "phone": "031-8043-5949",
    "lat": 37.2803919,
    "lng": 126.816438,
    "region": "경기도",
    "district": "화성시"
  },
  {
    "name": "도미노피자 용인남사점",
    "address": "경기도 용인시 처인구 남사면 한숲로57번길 15-1  1층",
    "phone": "031-8097-3081",
    "lat": 37.153239,
    "lng": 127.169729,
    "region": "경기도",
    "district": "용인시"
  },
  {
    "name": "도미노피자 서충주신도시점",
    "address": "충청북도 충주시 중앙탑면 기업도시로 189 미진이지비아 120(상가)동 1층 105,106호",
    "phone": "043-910-3082",
    "lat": 37.013943,
    "lng": 127.826525,
    "region": "충청북도",
    "district": "충주시"
  },
  {
    "name": "도미노피자 인천하늘도시점",
    "address": "인천광역시 중구 영종진로66번길 15  1층 101호(중산동)",
    "phone": "032-751-3082",
    "lat": 37.4992748,
    "lng": 126.576235,
    "region": "인천광역시",
    "district": "중구"
  },
  {
    "name": "도미노피자 세종다정점",
    "address": "세종특별자치시 한누리대로 331 SR파크센텀 103호,104호",
    "phone": "044-998-3082",
    "lat": 36.493566,
    "lng": 127.255829,
    "region": "세종특별자치시",
    "district": "한누리대로"
  },
  {
    "name": "도미노피자 진천점",
    "address": "충청북도 진천군 진천읍 원덕로 313  1층 104,105호",
    "phone": "043-930-3181",
    "lat": 36.854304,
    "lng": 127.448957,
    "region": "충청북도",
    "district": "진천군"
  },
  {
    "name": "도미노피자 갈매점",
    "address": "경기도 구리시 갈매순환로 206  1층 109호, 110호",
    "phone": "031-516-3082",
    "lat": 37.637665,
    "lng": 127.121255,
    "region": "경기도",
    "district": "구리시"
  },
  {
    "name": "도미노피자 포항흥해점",
    "address": "경상북도 포항시 북구 흥해읍 초곡지구로 68, 1층 103호,104호",
    "phone": "054-612-3082",
    "lat": 36.0955523,
    "lng": 129.339478,
    "region": "경상북도",
    "district": "포항시"
  },
  {
    "name": "도미노피자 태전점",
    "address": "경기도 광주시 고불로 84  2동 1층 4,5호(태전동)",
    "phone": "031-699-5438",
    "lat": 37.3929503,
    "lng": 127.228959,
    "region": "경기도",
    "district": "광주시"
  },
  {
    "name": "도미노피자 부여점",
    "address": "충청남도 부여군 부여읍 성왕로 318  도미노피자 부여점",
    "phone": "041-965-9834",
    "lat": 36.283397,
    "lng": 126.922284,
    "region": "충청남도",
    "district": "부여군"
  },
  {
    "name": "도미노피자 군포송정점",
    "address": "경기도 군포시 송부로33번길 3-23  1층",
    "phone": "031-502-1116",
    "lat": 37.315377,
    "lng": 126.916263,
    "region": "경기도",
    "district": "군포시"
  },
  {
    "name": "도미노피자 다산진건점",
    "address": "경기도 남양주시 다산순환로 118-83  106호,107호(다산동)",
    "phone": "031-510-6145",
    "lat": 37.620433,
    "lng": 127.147968,
    "region": "경기도",
    "district": "남양주시"
  },
  {
    "name": "도미노피자 다산지금점",
    "address": "경기도 남양주시 다산지금로146번길 18-18  1층(다산동)",
    "phone": "031-510-5450",
    "lat": 37.601042,
    "lng": 127.172191,
    "region": "경기도",
    "district": "남양주시"
  },
  {
    "name": "도미노피자 양구점",
    "address": "강원특별자치도 양구군 양구읍 양록길 68",
    "phone": "033-938-9898",
    "lat": 38.1064,
    "lng": 127.9877,
    "region": "강원특별자치도",
    "district": "양구군"
  },
  {
    "name": "도미노피자 해남점",
    "address": "전라남도 해남군 해남읍 해남로 12 대흥마트 1층",
    "phone": "061-958-9900",
    "lat": 34.5707892,
    "lng": 126.608435,
    "region": "전라남도",
    "district": "해남군"
  },
  {
    "name": "도미노피자 예산점",
    "address": "충청남도 예산군 예산읍 발연로 63  1층 104호",
    "phone": "041-967-4081",
    "lat": 36.6982,
    "lng": 126.8357,
    "region": "충청남도",
    "district": "예산군"
  },
  {
    "name": "도미노피자 인천도화점",
    "address": "인천광역시 미추홀구 송림로 255  1층 110호(도화동,위너프라자)",
    "phone": "032-235-3082",
    "lat": 37.4753017,
    "lng": 126.66129,
    "region": "인천광역시",
    "district": "미추홀구"
  },
  {
    "name": "도미노피자 군산조촌점",
    "address": "전북특별자치도 군산시 궁포안2길 27  1동 113호",
    "phone": "063-910-7080",
    "lat": 35.976657,
    "lng": 126.744973,
    "region": "전북특별자치도",
    "district": "군산시"
  },
  {
    "name": "도미노피자 하남감일점",
    "address": "경기도 하남시 감일로88번길 20 서울빌딩 1층",
    "phone": "02-6397-3082",
    "lat": 37.508488,
    "lng": 127.152353,
    "region": "경기도",
    "district": "하남시"
  },
  {
    "name": "도미노피자 충북음성점",
    "address": "충청북도 음성군 음성읍 음성천서길 157  1층",
    "phone": "043-927-4082",
    "lat": 36.936066,
    "lng": 127.691065,
    "region": "충청북도",
    "district": "음성군"
  },
  {
    "name": "도미노피자 동탄테크노밸리점",
    "address": "경기도 화성시 동탄기흥로520번가길 11  1층 102, 103호(영천동)",
    "phone": "031-8043-3048",
    "lat": 37.2080926,
    "lng": 127.093294,
    "region": "경기도",
    "district": "화성시"
  },
  {
    "name": "도미노피자 인천아라점",
    "address": "인천광역시 서구 고산로 21  1층",
    "phone": "032-266-3082",
    "lat": 37.594809,
    "lng": 126.701409,
    "region": "인천광역시",
    "district": "서구"
  },
  {
    "name": "도미노피자 아산탕정점",
    "address": "충청남도 아산시 탕정면 탕정면로22번길 15-15  1층 102호",
    "phone": "041-910-3080",
    "lat": 36.797457,
    "lng": 127.061349,
    "region": "충청남도",
    "district": "아산시"
  },
  {
    "name": "도미노피자 영광점",
    "address": "전라남도 영광군 영광읍 옥당로 155  105호",
    "phone": "061-945-9882",
    "lat": 35.2758215,
    "lng": 126.500773,
    "region": "전라남도",
    "district": "영광군"
  },
  {
    "name": "도미노피자 대전상대점",
    "address": "대전광역시 유성구 상대동로 20  1층(상대동)",
    "phone": "042-364-3081",
    "lat": 36.3447666,
    "lng": 127.339002,
    "region": "대전광역시",
    "district": "유성구"
  },
  {
    "name": "도미노피자 삼천포점",
    "address": "경상남도 사천시 중앙로 256-24  주2동 105호(용강동)",
    "phone": "055-957-7082",
    "lat": 34.9482373,
    "lng": 128.080915,
    "region": "경상남도",
    "district": "사천시"
  },
  {
    "name": "도미노피자 양평용문점",
    "address": "경기도 양평군 용문면 다문북길 13  1층",
    "phone": "031-773-3082",
    "lat": 37.48196,
    "lng": 127.588345,
    "region": "경기도",
    "district": "양평군"
  },
  {
    "name": "도미노피자 가평점",
    "address": "경기도 가평군 가평읍 중앙로 29  1층",
    "phone": "031-5175-9959",
    "lat": 37.82725,
    "lng": 127.515042,
    "region": "경기도",
    "district": "가평군"
  },
  {
    "name": "도미노피자 원주기업도시점",
    "address": "강원특별자치도 원주시 지정면 무릉로 39-1 J SQUARE A 105호,106호",
    "phone": "033-900-8908",
    "lat": 37.3754198,
    "lng": 127.877184,
    "region": "강원특별자치도",
    "district": "원주시"
  }
]