[{"name": "성남중원구청옆점", "address": "경기도 성남시 중원구 성남동 3126  금호어울림상가  3호", "phone": "031-722-5549", "lat": 37.4306598, "lng": 127.1383942, "region": "경기도", "district": "성남시"}, {"name": "대곡지구점", "address": "대구광역시 달서구 도원동 1436번지 대방 골든 프라자 제상가 B동1층102호", "phone": "053-637-6114", "lat": 35.8076146, "lng": 128.5360686, "region": "대구광역시", "district": "달서구"}, {"name": "천안신불당점", "address": "충청남도 천안시 서북구 불당 25로 146", "phone": "041-574-3514", "lat": 36.8146885, "lng": 127.10827440000003, "region": "충청남도", "district": "천안시"}, {"name": "온산덕신점", "address": "울산광역시 울주군 온산읍 덕신리 266-1", "phone": "052-716-7200", "lat": 35.433394, "lng": 129.3094986, "region": "울산광역시", "district": "울주군"}, {"name": "신림고시촌점", "address": "서울특별시 관악구 대학동 1517-17", "phone": "02-886-9949", "lat": 37.4693493, "lng": 126.9376136, "region": "서울특별시", "district": "관악구"}, {"name": "영남대학교원룸촌점", "address": "경상북도 경산시 대학로61길 34, 1층", "phone": "053-818-4937", "lat": 35.8404216, "lng": 128.7528494, "region": "경상북도", "district": "경산시"}, {"name": "노원역점", "address": "서울특별시 노원구 상계동 726-1 상가1층 5호", "phone": "02-934-0603", "lat": 37.6539175, "lng": 127.0619357, "region": "서울특별시", "district": "노원구"}, {"name": "여수전남대점", "address": "전라남도 여수시 미평동 756-4", "phone": "061-655-1116", "lat": 34.7731035, "lng": 127.7022268, "region": "전라남도", "district": "여수시"}, {"name": "경북대정문점", "address": "대구광역시 동구 신암동 705-41번지", "phone": "053-358-1446", "lat": 35.8849356, "lng": 128.61468209999998, "region": "대구광역시", "district": "동구"}, {"name": "대전대점", "address": "대전광역시 동구 용운동 174-15", "phone": "042-283-4723", "lat": 36.3312719, "lng": 127.4607848, "region": "대전광역시", "district": "동구"}, {"name": "상주시청점", "address": "경상북도 상주시 남성동 115번지 한솥도시락 상주시청점", "phone": "054-533-7060", "lat": 36.4125474, "lng": 128.1599152, "region": "경상북도", "district": "상주시"}, {"name": "대학로점", "address": "서울특별시 종로구 연건동 134-2", "phone": "02-742-9251", "lat": 37.5782334, "lng": 127.0019428, "region": "서울특별시", "district": "종로구"}, {"name": "인하대후문점", "address": "인천광역시 남구 용현4동 198-32", "phone": "032-875-0235", "lat": 37.4516049, "lng": 126.6558187, "region": "인천광역시", "district": "남구"}, {"name": "부천중동위브앞점", "address": "경기도 부천시 원미구 중동 1131-2 미림프라자오피스텔 107호", "phone": "032-321-0770", "lat": 37.4987492, "lng": 126.7768467, "region": "경기도", "district": "부천시"}, {"name": "수원영통경희대점", "address": "경기도 용인시 기흥구 서천동 7-3 B동 1호", "phone": "031-203-1133", "lat": 37.2472182, "lng": 127.0761187, "region": "경기도", "district": "용인시"}, {"name": "김해내외동점", "address": "경상남도 김해시 내동  1142-1 풍림마이다스 2  103호", "phone": "055-333-2741", "lat": 35.2366873, "lng": 128.8678427, "region": "경상남도", "district": "김해시"}, {"name": "화성봉담2지구", "address": "경기도 화성시 봉담읍 15-36", "phone": "031-298-7926", "lat": 37.2164405, "lng": 126.951972, "region": "경기도", "district": "화성시"}, {"name": "용인기흥구청점", "address": "경기도 용인시 기흥구 구갈동 354-4 금강프라자 110호", "phone": "031-275-8506", "lat": 37.2799256, "lng": 127.1134853, "region": "경기도", "district": "용인시"}, {"name": "주안역점", "address": "인천광역시 남구 주안로90번길 4", "phone": "032-868-7573", "lat": 37.4638902, "lng": 126.6794942, "region": "인천광역시", "district": "남구"}, {"name": "조선대점", "address": "광주광역시 동구 지산1동 473-8", "phone": "062-234-1000", "lat": 35.144516, "lng": 126.9299415, "region": "광주광역시", "district": "동구"}, {"name": "거제삼성중공업후문점", "address": "경상남도 거제시 장평동 346-25", "phone": "055-638-1224", "lat": 34.8927282, "lng": 128.604604, "region": "경상남도", "district": "거제시"}, {"name": "송파나루역점", "address": "송파구 백제고분로 432 1층", "phone": "02-415-0252", "lat": 37.5092061, "lng": 127.1118818, "region": "송파구", "district": ""}, {"name": "진주들말점", "address": "경상남도 진주시 신안동 760-4", "phone": "055-748-0556", "lat": 35.1788089, "lng": 128.064116, "region": "경상남도", "district": "진주시"}, {"name": "산본역점", "address": "경기도 군포시 산본동 1144-1 유공B/D 108호", "phone": "031-397-9948", "lat": 37.3594566, "lng": 126.9301766, "region": "경기도", "district": "군포시"}, {"name": "목포대점", "address": "전라남도 무안군 청계면 도림리 325-1", "phone": "061-454-6004", "lat": 34.9094567, "lng": 126.4334884, "region": "전라남도", "district": "무안군"}, {"name": "전남대점", "address": "광주광역시 북구 용봉동 300번지 학생생활관 1층", "phone": "062-460-5000", "lat": 35.1746986, "lng": 126.9085677, "region": "광주광역시", "district": "북구"}, {"name": "군산대점", "address": "전라북도 군산시 미룡동 866-1 굿모닝 빌딩 103호", "phone": "063-461-0158", "lat": 35.9472768, "lng": 126.6855314, "region": "전라북도", "district": "군산시"}, {"name": "노량진고시촌점", "address": "서울특별시 동작구 노량진동 117-5번지", "phone": "02-3296-1004", "lat": 37.512553, "lng": 126.944882, "region": "서울특별시", "district": "동작구"}, {"name": "성남을지대옆점", "address": "경기도 성남시 수정구 양지동  211번지", "phone": "031-751-1772", "lat": 37.461258, "lng": 127.1667815, "region": "경기도", "district": "성남시"}, {"name": "삼산월드체육관점", "address": "인천광역시 부평구 삼산동 462-3", "phone": "032-266-5400", "lat": 37.5083585, "lng": 126.7336271, "region": "인천광역시", "district": "부평구"}, {"name": "부천카톨릭대앞점", "address": "경기도 부천시 원미구 역곡동   35번지", "phone": "032-341-1588", "lat": 37.4858405, "lng": 126.8050177, "region": "경기도", "district": "부천시"}, {"name": "부산동아대", "address": "부산광역시 사하구 하단동 800-11", "phone": "051-204-6803", "lat": 35.1133601, "lng": 128.9639733, "region": "부산광역시", "district": "사하구"}, {"name": "강동구청점", "address": "서울특별시 강동구 성내동 551-6", "phone": "02-486-4982", "lat": 37.5285384, "lng": 127.1229952, "region": "서울특별시", "district": "강동구"}, {"name": "공주대후문앞점", "address": "충청남도 공주시 신관동 180-6", "phone": "041-858-3939", "lat": 36.4688608, "lng": 127.1373006, "region": "충청남도", "district": "공주시"}, {"name": "가천대점", "address": "경기도 성남시 수정구 태평로 3 SM해그린상가 101호", "phone": "031-721-7748", "lat": 37.44822, "lng": 127.1274596, "region": "경기도", "district": "성남시"}, {"name": "상암DMC점", "address": "서울특별시 마포구 월드컵북로 402 KGIT건물 1층 122호", "phone": "02-306-2009", "lat": 37.5797538, "lng": 126.88878339999997, "region": "서울특별시", "district": "마포구"}, {"name": "장유무계점", "address": "경상남도 김해시 장유면 무계리 191-7  청학프라자 1층 101호", "phone": "055-312-0801", "lat": 35.1999997, "lng": 128.8150757, "region": "경상남도", "district": "김해시"}, {"name": "건지사거리점", "address": "인천광역시 서구 가좌동 122-8 107호", "phone": "032-719-8200", "lat": 37.4953552, "lng": 126.6824053, "region": "인천광역시", "district": "서구"}, {"name": "안성금산점", "address": "경기도 안성시 안성맞춤대로 1087, 1층 좌측3호", "phone": "031-671-0151", "lat": 37.010597, "lng": 127.2703079, "region": "경기도", "district": "안성시"}, {"name": "동서대점", "address": "부산광역시 사상구 주례동  166-50", "phone": "051-311-4008", "lat": 35.1468541, "lng": 129.0101524, "region": "부산광역시", "district": "사상구"}, {"name": "광주대점", "address": "광주광역시 남구 진월동 569번지", "phone": "062-674-1006", "lat": 35.108714, "lng": 126.8973246, "region": "광주광역시", "district": "남구"}, {"name": "시흥은행동점", "address": "경기도 시흥시 은행동 529-6", "phone": "031-312-9238", "lat": 37.4447486, "lng": 126.7995963, "region": "경기도", "district": "시흥시"}, {"name": "보건대사거리점", "address": "대전광역시 동구 가양2동 88-1 조일상가", "phone": "042-628-0668", "lat": 36.3490481, "lng": 127.4520823, "region": "대전광역시", "district": "동구"}, {"name": "창원세광병원후문점", "address": "경상남도 창원시 성산구 상남동 2-5", "phone": "055-275-5521", "lat": 35.2234033, "lng": 128.6866341, "region": "경상남도", "district": "창원시"}, {"name": "칠곡3지구점", "address": "대구광역시 북구 구암동 765-2번지 동재빌딩 106호", "phone": "053-721-6400", "lat": 35.9437437, "lng": 128.5642565, "region": "대구광역시", "district": "북구"}, {"name": "대구두류역점", "address": "대구광역시 서구 내당동 465-7번지", "phone": "053-573-0112", "lat": 35.8568084, "lng": 128.5537333, "region": "대구광역시", "district": "서구"}, {"name": "거제고현중곡점", "address": "경상남도 거제시 고현동 988-10", "phone": "055-637-3400", "lat": 34.8965189, "lng": 128.6298076, "region": "경상남도", "district": "거제시"}, {"name": "순천향대학후문앞점", "address": "충청남도 아산시 신창면 읍내리 582-5 동일빌딩 102호", "phone": "041-542-2085", "lat": 36.7742947, "lng": 126.9338717, "region": "충청남도", "district": "아산시"}, {"name": "나사렛대후문앞점", "address": "충청남도 천안시 쌍용동 703번지", "phone": "041-577-9006", "lat": 36.7976667, "lng": 127.1206671, "region": "충청남도", "district": "천안시"}, {"name": "송파도서관앞점", "address": "서울특별시 송파구 오금동 151-6호 제일B/D1층", "phone": "02-409-2645", "lat": 37.5000555, "lng": 127.1369006, "region": "서울특별시", "district": "송파구"}, {"name": "안산한양대점", "address": "경기도 안산시 상록구 사동 1569-2  한성빌딩 1층 109호", "phone": "031-501-5556", "lat": 37.3007105, "lng": 126.8383811, "region": "경기도", "district": "안산시"}, {"name": "오산역점", "address": "경기도 오산시 원동 813-6", "phone": "031-374-1045", "lat": 37.1465891, "lng": 127.0751281, "region": "경기도", "district": "오산시"}, {"name": "수원중부경찰서옆점", "address": "경기도 수원시 장안구 정자동 878-9  1층 102호", "phone": "031-269-5513", "lat": 37.2953511, "lng": 126.9941676, "region": "경기도", "district": "수원시"}, {"name": "부경대점", "address": "부산광역시 남구 대연 3동 539-15", "phone": "051-621-1928", "lat": 35.1329997, "lng": 129.1008922, "region": "부산광역시", "district": "남구"}, {"name": "대치동삼성APT입구점", "address": "서울특별시 강남구 대치동 1021-14 동원빌딩 1층", "phone": "02-568-9936", "lat": 37.4978367, "lng": 127.0592748, "region": "서울특별시", "district": "강남구"}, {"name": "익산원광대앞점", "address": "전라북도 익산시 신동 762-9", "phone": "063-851-8001", "lat": 35.963961, "lng": 126.9567638, "region": "전라북도", "district": "익산시"}, {"name": "낙성대역점", "address": "서울특별시 관악구 봉천동  1685-31", "phone": "02-873-9290", "lat": 37.4780015, "lng": 126.9624631, "region": "서울특별시", "district": "관악구"}, {"name": "금정역점", "address": "경기도 군포시 산본동  98-1", "phone": "031-396-2276", "lat": 37.3728226, "lng": 126.9423445, "region": "경기도", "district": "군포시"}, {"name": "남영사거리", "address": "서울특별시 용산구 남영동 18-1", "phone": "02-796-8733", "lat": 37.5450441, "lng": 126.9724364, "region": "서울특별시", "district": "용산구"}, {"name": "울산중구청입구점", "address": "울산광역시 중구 반구동 62-4", "phone": "052-293-2252", "lat": 35.563788, "lng": 129.336032, "region": "울산광역시", "district": "중구"}, {"name": "여수KBS앞점", "address": "전라남도 여수시 관문동 673-1", "phone": "061-666-5353", "lat": 34.7429823, "lng": 127.7411037, "region": "전라남도", "district": "여수시"}, {"name": "경복대학앞점", "address": "경기도 남양주시 진접읍 경복대로 414", "phone": "031-572-7637", "lat": 37.7267105, "lng": 127.2074878, "region": "경기도", "district": "남양주시"}, {"name": "아산호서대점", "address": "충청남도 아산시 배방면 세출리 234-4", "phone": "041-548-0612", "lat": 36.739374, "lng": 127.0769748, "region": "충청남도", "district": "아산시"}, {"name": "성균관대앞점", "address": "서울특별시 종로구 명륜2가 122", "phone": "02-744-0762", "lat": 37.5850167, "lng": 126.9973338, "region": "서울특별시", "district": "종로구"}, {"name": "사랑의병원옆점", "address": "서울특별시 관악구 봉천동 1664-16", "phone": "02-885-6303", "lat": 37.479243, "lng": 126.957363, "region": "서울특별시", "district": "관악구"}, {"name": "세명대점", "address": "충청북도 제천시 모산동 105-6", "phone": "043-642-7700", "lat": 37.181017, "lng": 128.202677, "region": "충청북도", "district": "제천시"}, {"name": "순천대학교점", "address": "전라남도 순천시 석현동 99-11", "phone": "061-752-5008", "lat": 34.9670227, "lng": 127.4847671, "region": "전라남도", "district": "순천시"}, {"name": "김해인제대점", "address": "경상남도 김해시 어방동 458-1  우신그린피아아파트 상가동 1층 107호", "phone": "055-332-2161", "lat": 35.2461578, "lng": 128.9029411, "region": "경상남도", "district": "김해시"}, {"name": "경주충효점", "address": "경상북도 경주시 충효동 2991-11", "phone": "054-774-6114", "lat": 35.8427747, "lng": 129.1860191, "region": "경상북도", "district": "경주시"}, {"name": "구로디지털단지벽산 7차점", "address": "서울특별시 구로구 디지털로33길 50 벽산디지털밸리7차", "phone": "02-6099-3868", "lat": 37.4875152, "lng": 126.89406329999997, "region": "서울특별시", "district": "구로구"}, {"name": "죽전단국대점", "address": "경기도 용인시 수지구 죽전로 140 남전빌딩 103호", "phone": "031-889-3353", "lat": 37.3235943, "lng": 127.1232376, "region": "경기도", "district": "용인시"}, {"name": "대구역점", "address": "대구광역시 중구 북성로 1가 90", "phone": "053-426-7363", "lat": 35.8742081, "lng": 128.595382, "region": "대구광역시", "district": "중구"}, {"name": "청주서원대후문앞점", "address": "충청북도 청주시 흥덕구 모충동 245-6", "phone": "043-287-2121", "lat": 36.6221748, "lng": 127.482452, "region": "충청북도", "district": "청주시"}, {"name": "대구지산점", "address": "대구광역시 수성구 지산동  1276-5  지산메디지오 1층 103호", "phone": "053-783-1008", "lat": 35.8224027, "lng": 128.6383097, "region": "대구광역시", "district": "수성구"}, {"name": "외대점", "address": "서울특별시 동대문구 이문동 243의 232", "phone": "02-960-0325", "lat": 37.5982134, "lng": 127.0559104, "region": "서울특별시", "district": "동대문구"}, {"name": "해방촌오거리점", "address": "서울특별시 용산구 용산동2가 17-6 1층", "phone": "02-792-0388", "lat": 37.545484, "lng": 126.9858048, "region": "서울특별시", "district": "용산구"}, {"name": "동대문성곽공원앞점", "address": "서울특별시 종로구 종로6가 17-1", "phone": "02-763-4321", "lat": 37.572492, "lng": 127.0077488, "region": "서울특별시", "district": "종로구"}, {"name": "울산시청앞점", "address": "울산광역시 남구 신정3동 516-13", "phone": "052-266-1118", "lat": 35.5422139, "lng": 129.3115193, "region": "울산광역시", "district": "남구"}, {"name": "아산선문대점", "address": "충청남도 아산시 탕정면 갈산리 81-3 103호", "phone": "041-544-4530", "lat": 36.8016831, "lng": 127.068262, "region": "충청남도", "district": "아산시"}, {"name": "김천신음점", "address": "경상북도 김천시 시청로 95, 상가동 1층", "phone": "054-437-0718", "lat": 36.1369179, "lng": 128.1159501, "region": "경상북도", "district": "김천시"}, {"name": "경주황성공원앞점", "address": "경상북도 경주시 황성동  438-4번지", "phone": "054-741-6114", "lat": 35.8637625, "lng": 129.2127727, "region": "경상북도", "district": "경주시"}, {"name": "국제전자센터옆점", "address": "서울특별시 서초구 서초동 1443-1", "phone": "02-584-2861", "lat": 37.4852643, "lng": 127.0184901, "region": "서울특별시", "district": "서초구"}, {"name": "신림본동점", "address": "서울특별시 관악구 신림동 1641-76호", "phone": "02-871-0792", "lat": 37.4793814, "lng": 126.931712, "region": "서울특별시", "district": "관악구"}, {"name": "분당중탑점", "address": "경기도 성남시 분당구 야탑동 274-1 대원상가 105호", "phone": "031-704-0930", "lat": 37.4113592, "lng": 127.1379719, "region": "경기도", "district": "성남시"}, {"name": "구로디지털1단지점", "address": "서울특별시 구로구 구로3동  212-16 벽산디지털밸리1차 101호", "phone": "02-837-6049", "lat": 37.4834563, "lng": 126.8929538, "region": "서울특별시", "district": "구로구"}, {"name": "종암동점", "address": "서울특별시 성북구 종암동 34-6", "phone": "02-953-8377", "lat": 37.5940564, "lng": 127.0341651, "region": "서울특별시", "district": "성북구"}, {"name": "청주충북대중문앞점", "address": "충청북도 청주시 흥덕구 사창동 466", "phone": "043-272-1184", "lat": 36.6331057, "lng": 127.4533234, "region": "충청북도", "district": "청주시"}, {"name": "명지대앞점", "address": "서울특별시 서대문구 남가좌2동 324-20", "phone": "02-307-3742", "lat": 37.5797879, "lng": 126.9245333, "region": "서울특별시", "district": "서대문구"}, {"name": "대연사거리점", "address": "부산광역시 남구 대연동 1741-17 한울빌딩 1층", "phone": "051-626-3434", "lat": 35.1353696, "lng": 129.0931728, "region": "부산광역시", "district": "남구"}, {"name": "부천상동중앙사거리점", "address": "경기도 부천시 원미구 상동 544-11 새롬프라자 15차 113호", "phone": "032-231-3000", "lat": 37.5036823, "lng": 126.7522882, "region": "경기도", "district": "부천시"}, {"name": "화명신시가지점", "address": "부산광역시 북구 화명동 2275-3 메트로프라자 106호", "phone": "051-337-1202", "lat": 35.234669, "lng": 129.0104753, "region": "부산광역시", "district": "북구"}, {"name": "제주시청앞점", "address": "제주특별자치도 제주시 이도 2동  1186-9", "phone": "064-722-4554", "lat": 33.4980184, "lng": 126.5298976, "region": "제주특별자치도", "district": "제주시"}, {"name": "제주한라병원점", "address": "제주특별자치도 제주시 성신로 15", "phone": "064-742-5425", "lat": 33.4908351, "lng": 126.4855072, "region": "제주특별자치도", "district": "제주시"}, {"name": "제주서귀포점", "address": "제주특별자치도 서귀포시 서귀동  290-13", "phone": "064-732-7211", "lat": 33.2501599, "lng": 126.5616616, "region": "제주특별자치도", "district": "서귀포시"}, {"name": "중앙동2가점", "address": "부산광역시 중구 중앙동 2가 49-26", "phone": "051-246-6668", "lat": 35.1027086, "lng": 129.0351843, "region": "부산광역시", "district": "중구"}, {"name": "구덕운동장점", "address": "부산광역시 서구 서대신 2가 35번지", "phone": "051-242-2381", "lat": 35.1119423, "lng": 129.01667, "region": "부산광역시", "district": "서구"}, {"name": "전북대후문앞점", "address": "전라북도 전주시 덕진구 금암동 1543-8  상가 6호", "phone": "063-275-1189", "lat": 35.8440043, "lng": 127.1371697, "region": "전라북도", "district": "전주시"}, {"name": "대우조선남문점", "address": "경상남도 거제시 두모동 367-3번지", "phone": "055-682-4555", "lat": 34.8669419, "lng": 128.694392, "region": "경상남도", "district": "거제시"}, {"name": "충남대과기대점", "address": "대전광역시 유성구 궁동 404-3", "phone": "042-825-7785", "lat": 36.3626685, "lng": 127.3519491, "region": "대전광역시", "district": "유성구"}, {"name": "신사동현대고앞점", "address": "서울특별시 강남구 신사동 550-9  1층2호", "phone": "02-3443-2444", "lat": 37.5241723, "lng": 127.0240711, "region": "서울특별시", "district": "강남구"}, {"name": "춘천강원대후문앞점", "address": "강원도 춘천시 효자3동 633-15호", "phone": "033-256-4640", "lat": 37.872534, "lng": 127.7459712, "region": "강원도", "district": "춘천시"}, {"name": "경기대앞점", "address": "서울특별시 서대문구 충정로 2가 69-34", "phone": "02-312-1465", "lat": 37.5643845, "lng": 126.9635888, "region": "서울특별시", "district": "서대문구"}, {"name": "잠실아시아선수촌점", "address": "서울특별시 송파구 백제고분로 12길 7-1, 103호", "phone": "02-416-8373", "lat": 37.5063498, "lng": 127.0816726, "region": "서울특별시", "district": "송파구"}, {"name": "춘천한림대앞점", "address": "강원도 춘천시 교동 158-1", "phone": "033-242-4333", "lat": 37.8833254, "lng": 127.7383057, "region": "강원도", "district": "춘천시"}, {"name": "이천중앙로점", "address": "경기도 이천시 창전동164-2 동남B/D1층 113호", "phone": "031-636-3030", "lat": 37.2806571, "lng": 127.4463323, "region": "경기도", "district": "이천시"}, {"name": "인덕대앞점", "address": "서울특별시 노원구 월계4동 633-90호", "phone": "02-900-6110", "lat": 37.629532, "lng": 127.056604, "region": "서울특별시", "district": "노원구"}, {"name": "가양점", "address": "서울특별시 강서구 등촌3동 679-4번지", "phone": "02-3663-6261", "lat": 37.5622074, "lng": 126.8402528, "region": "서울특별시", "district": "강서구"}, {"name": "안산시청점", "address": "경기도 안산시 단원구 고잔동 527-9 101호", "phone": "031-486-4982", "lat": 37.3195653, "lng": 126.8323457, "region": "경기도", "district": "안산시"}, {"name": "전주우석대점", "address": "전라북도 완주군 삼례읍 후정리  13-19", "phone": "063-291-8979", "lat": 35.9150713, "lng": 127.0683701, "region": "전라북도", "district": "완주군"}, {"name": "아주대점", "address": "경기도 수원시 팔달구 우만동 573-8", "phone": "031-215-4600", "lat": 37.2786144, "lng": 127.0434806, "region": "경기도", "district": "수원시"}, {"name": "익산영등학원가점", "address": "전라북도 익산시 영등동 766-1번지", "phone": "063-835-5338", "lat": 35.9563145, "lng": 126.9705704, "region": "전라북도", "district": "익산시"}, {"name": "하동점", "address": "경상남도 하동군 하동읍 읍내리 210-1번지", "phone": "055-883-5456", "lat": 35.0691295, "lng": 127.7502361, "region": "경상남도", "district": "하동군"}, {"name": "여주홍문점", "address": "여주시 여흥로 109번길 1번지", "phone": "031-8853-0289", "lat": 37.298342, "lng": 127.637088, "region": "여주시", "district": ""}, {"name": "경북대북문점", "address": "대구광역시 북구 산격동 1393-25", "phone": "053-954-3944", "lat": 35.892845, "lng": 128.60875299999998, "region": "대구광역시", "district": "북구"}, {"name": "우성아파트사거리점", "address": "서울특별시 강남구 역삼동 831-45  SK허브젠 103호", "phone": "02-3474-0370", "lat": 37.4936644, "lng": 127.0310255, "region": "서울특별시", "district": "강남구"}, {"name": "목동이대병원앞점", "address": "서울특별시 양천구 목동 909-8  이화프라자 104호", "phone": "02-2652-0842", "lat": 37.5368906, "lng": 126.883614, "region": "서울특별시", "district": "양천구"}, {"name": "대구계명대동문점", "address": "대구광역시 달서구 신당동 1721-5", "phone": "053-584-1114", "lat": 35.8563241, "lng": 128.4929157, "region": "대구광역시", "district": "달서구"}, {"name": "연희교차로점", "address": "서울특별시 서대문구 연희동 187-61", "phone": "02-337-5728", "lat": 37.5659092, "lng": 126.930411, "region": "서울특별시", "district": "서대문구"}, {"name": "수원경기대점", "address": "경기도 수원시 장안구 연무동 4-20  1층상가", "phone": "031-245-8249", "lat": 37.3003239, "lng": 127.0311819, "region": "경기도", "district": "수원시"}, {"name": "안산1대학앞점", "address": "경기도 안산시 상록구 일동 609-9", "phone": "031-438-4300", "lat": 37.3094699, "lng": 126.8730666, "region": "경기도", "district": "안산시"}, {"name": "양재교육개발원입구점", "address": "서울특별시 서초구 양재동 5-21", "phone": "02-573-8997", "lat": 37.4789354, "lng": 127.0398883, "region": "서울특별시", "district": "서초구"}, {"name": "보라매삼성점(병원)", "address": "서울특별시 동작구 신대방동 395-62번지 삼성B/D지하1층 121호", "phone": "02-844-3777", "lat": 37.492579, "lng": 126.9236554, "region": "서울특별시", "district": "동작구"}, {"name": "칠곡보건대점", "address": "대구광역시 북구 태전동 964-5", "phone": "053-322-9114", "lat": 35.9276407, "lng": 128.5446062, "region": "대구광역시", "district": "북구"}, {"name": "김포사우점", "address": "경기도 김포시 북변동  829번지 한빛프라자 108호", "phone": "031-983-0929", "lat": 37.6229722, "lng": 126.7212966, "region": "경기도", "district": "김포시"}, {"name": "부천고점", "address": "경기도 부천시 소사구 송내동 433-14", "phone": "032-657-8648", "lat": 37.4800433, "lng": 126.7647369, "region": "경기도", "district": "부천시"}, {"name": "여의도KBS별관옆점", "address": "서울특별시 영등포구 국제금융로 70 미원빌딩 1층", "phone": "02-780-0120", "lat": 37.5215797, "lng": 126.9306995, "region": "서울특별시", "district": "영등포구"}, {"name": "잠실장미상가점", "address": "서울특별시 송파구 신천동 7  장미 B동상가 1동 112-1호", "phone": "02-2203-4653", "lat": 37.519587, "lng": 127.0994131, "region": "서울특별시", "district": "송파구"}, {"name": "상지대점(원주)", "address": "강원도 원주시 우산동 110-30", "phone": "033-746-9335", "lat": 37.3700635, "lng": 127.9357868, "region": "강원도", "district": "원주시"}, {"name": "고대안암점", "address": "서울특별시 성북구 안암5가 94-2 1층", "phone": "02-927-1830", "lat": 37.5861658, "lng": 127.0305463, "region": "서울특별시", "district": "성북구"}, {"name": "용산삼각지점", "address": "서울특별시 용산구 한강로 2가 115-1  전자빌딩 103호", "phone": "02-796-0357", "lat": 37.5310916, "lng": 126.9700764, "region": "서울특별시", "district": "용산구"}, {"name": "천안상명대앞점", "address": "충청남도 천안시 안서동 321-2 영일빌딩 동쪽상가", "phone": "041-553-3669", "lat": 36.8328981, "lng": 127.1761986, "region": "충청남도", "district": "천안시"}, {"name": "남서울대점", "address": "충청남도 천안시 성환읍 성월리 65-5번지", "phone": "041-588-7733", "lat": 36.9120129, "lng": 127.1415565, "region": "충청남도", "district": "천안시"}, {"name": "양재구룡사앞점", "address": "서울특별시 서초구 양재동 290-8", "phone": "02-578-0300", "lat": 37.4727253, "lng": 127.0469264, "region": "서울특별시", "district": "서초구"}, {"name": "충주신연수점", "address": "충청북도 충주시 연수동산로1", "phone": "043-843-5755", "lat": 36.9827401, "lng": 127.9417147, "region": "충청북도", "district": "충주시"}, {"name": "전주대앞점", "address": "전라북도 전주시 완산구 효자동 3가  1173-1번지", "phone": "063-221-7771", "lat": 35.817469, "lng": 127.090201, "region": "전라북도", "district": "전주시"}, {"name": "범냇골로타리점", "address": "부산광역시 부산진구 범천동 877-1번지", "phone": "051-637-6400", "lat": 35.1467436, "lng": 129.0589805, "region": "부산광역시", "district": "부산진구"}, {"name": "양산신도시점", "address": "경상남도 양산시 중부동 697-1  현대아파트상가  109호", "phone": "055-384-5589", "lat": 35.3355346, "lng": 129.0336885, "region": "경상남도", "district": "양산시"}, {"name": "시화중심상가점", "address": "경기도 시흥시 정왕동 1742-17 대원프라자 101호", "phone": "031-319-1144", "lat": 37.3439961, "lng": 126.7360955, "region": "경기도", "district": "시흥시"}, {"name": "용인서천점", "address": "경기도 용인시 기흥구 서천동 813 원희캐슬서천프라자 제1층 111호", "phone": "031-202-2300", "lat": 37.6705119, "lng": 127.0465904, "region": "경기도", "district": "용인시"}, {"name": "울산공업탑점", "address": "울산광역시 남구 신정4동  1233-4번지", "phone": "052-221-9000", "lat": 35.5321181, "lng": 129.3094519, "region": "울산광역시", "district": "남구"}, {"name": "보수사거리점", "address": "부산광역시 중구 보수동 1가  99-30", "phone": "051-241-3838", "lat": 35.1032803, "lng": 129.0257038, "region": "부산광역시", "district": "중구"}, {"name": "부천시청점", "address": "경기도 부천시 원미구 중동 1056 제일프라자 102호", "phone": "032-327-9339", "lat": 37.5044127, "lng": 126.7695395, "region": "경기도", "district": "부천시"}, {"name": "당진신성대점", "address": "충청남도 당진군 정미면 덕마리 336-1", "phone": "041-357-3556", "lat": 36.8538678, "lng": 126.5958787, "region": "충청남도", "district": "당진군"}, {"name": "계명대정문점", "address": "대구광역시 달서구 호산동 352-17", "phone": "053-593-9936", "lat": 35.8519679, "lng": 128.4845614, "region": "대구광역시", "district": "달서구"}, {"name": "울산꽃바위점", "address": "울산광역시 동구 방어동 1149-5", "phone": "052-233-0224", "lat": 35.4833787, "lng": 129.4152457, "region": "울산광역시", "district": "동구"}, {"name": "경남과기대점", "address": "경상남도 진주시 칠암동 490-2", "phone": "055-762-6234", "lat": 35.1786534, "lng": 128.0939016, "region": "경상남도", "district": "진주시"}, {"name": "대구중앙로역점", "address": "대구광역시 중구 남일동  56-5", "phone": "053-295-7914", "lat": 35.870193, "lng": 128.5936263, "region": "대구광역시", "district": "중구"}, {"name": "인천만수3지구점", "address": "인천광역시 남동구 만수동 1019-4 에메랄드B 101", "phone": "032-467-1117", "lat": 37.4436817, "lng": 126.7370048, "region": "인천광역시", "district": "남동구"}, {"name": "수원법원사거리점", "address": "경기도 수원시 영통구 원천동 85-22", "phone": "031-212-3412", "lat": 37.2738738, "lng": 127.0484493, "region": "경기도", "district": "수원시"}, {"name": "분당수내역점", "address": "경기도 성남시 분당구 수내동 33-2 궁전프라자 3-108호", "phone": "031-711-7008", "lat": 37.3774093, "lng": 127.1157723, "region": "경기도", "district": "성남시"}, {"name": "서초역점", "address": "서울특별시 서초구 서초동  1556-9번지 선우빌딩 102호", "phone": "02-585-3341", "lat": 37.4912033, "lng": 127.0104961, "region": "서울특별시", "district": "서초구"}, {"name": "영일고옆점", "address": "서울특별시 강서구 등촌2동 509-8호(1층)", "phone": "02-2653-6121", "lat": 37.5490222, "lng": 126.8629633, "region": "서울특별시", "district": "강서구"}, {"name": "강릉여고앞점", "address": "강원도 강릉시 용지로 121", "phone": "033-653-2018", "lat": 37.7598282, "lng": 128.9038132, "region": "강원도", "district": "강릉시"}, {"name": "수원성대점", "address": "경기도 수원시 장안구 율전동 433-67", "phone": "031-295-5113", "lat": 37.2970701, "lng": 126.9710131, "region": "경기도", "district": "수원시"}, {"name": "역삼세무서점", "address": "서울특별시 강남구 역삼동 751-14", "phone": "02-538-3011", "lat": 37.4947381, "lng": 127.0350445, "region": "서울특별시", "district": "강남구"}, {"name": "수원역점", "address": "경기도 수원시 권선구 매산로2가77-5", "phone": "031-258-0061", "lat": 37.2673355, "lng": 127.0038021, "region": "경기도", "district": "수원시"}, {"name": "연수동춘점", "address": "인천광역시 연수구 동춘동  937-8  103호", "phone": "032-816-1040", "lat": 37.4072931, "lng": 126.670508, "region": "인천광역시", "district": "연수구"}, {"name": "평택여중사거리점", "address": "경기도 평택시 합정동 762-2", "phone": "031-657-7798", "lat": 36.9920549, "lng": 127.1004688, "region": "경기도", "district": "평택시"}, {"name": "수원대점", "address": "경기도 화성군 봉담읍 와우리 45-6", "phone": "031-225-4544", "lat": 37.214735, "lng": 126.9782541, "region": "경기도", "district": "화성군"}, {"name": "나주동신대앞점", "address": "전라남도 나주시 건재로 176-5", "phone": "061-332-3357", "lat": 35.0495872, "lng": 126.7211423, "region": "전라남도", "district": "나주시"}, {"name": "삼성여고삼거리점", "address": "부산광역시 사하구 감천동 661-1", "phone": "051-714-1170", "lat": 35.0906456, "lng": 128.9974899, "region": "부산광역시", "district": "사하구"}, {"name": "성남복정동점(태평역)", "address": "경기도 성남시 수정구 복정동 677-5", "phone": "031-753-7579", "lat": 37.4602864, "lng": 127.1265438, "region": "경기도", "district": "성남시"}, {"name": "산곡고앞점", "address": "인천광역시 부평구 청천동 236-17", "phone": "032-518-6688", "lat": 37.5037914, "lng": 126.7149266, "region": "인천광역시", "district": "부평구"}, {"name": "향남제일점", "address": "경기도 화성시 향남읍 행정리 435-2 성지프라자 110호", "phone": "031-354-6312", "lat": 37.1299481, "lng": 126.91912630000002, "region": "경기도", "district": "화성시"}, {"name": "영대네거리점", "address": "대구광역시 남구 대명5동 30-1번지", "phone": "053-651-6114", "lat": 35.8474772, "lng": 128.5902247, "region": "대구광역시", "district": "남구"}, {"name": "자양고점", "address": "서울특별시 광진구 자양 3동 553-41  우성 5차아파트상가 1층 104호", "phone": "02-455-1150", "lat": 37.534721683749154, "lng": 127.07082731772152, "region": "서울특별시", "district": "광진구"}, {"name": "울산대앞점", "address": "울산광역시 남구 대학로 100", "phone": "052-277-2370", "lat": 35.5437951, "lng": 129.2604153, "region": "울산광역시", "district": "남구"}, {"name": "영월점", "address": "강원도 영월군 영월읍 영흥3리 940-15", "phone": "033-373-1230", "lat": 37.1833353, "lng": 128.4692457, "region": "강원도", "district": "영월군"}, {"name": "구미옥계점", "address": "경상북도 구미시 옥계북로 27", "phone": "054-472-7741", "lat": 36.1391787, "lng": 128.4213751, "region": "경상북도", "district": "구미시"}, {"name": "효성두산아파트앞점", "address": "인천광역시 계양구 효성동 51-10번지", "phone": "032-545-4343", "lat": 37.5341424, "lng": 126.7097849, "region": "인천광역시", "district": "계양구"}, {"name": "센텀벡스코앞점", "address": "부산광역시 해운대구 센텀2로 19 센텀코아빌딩 101호", "phone": "051-791-0101", "lat": 35.1674248, "lng": 129.13257, "region": "부산광역시", "district": "해운대구"}, {"name": "하남아이테코점", "address": "경기도 하남시 덕풍동 762 아이테코 지하1층 108호", "phone": "031-790-0650", "lat": 37.553543, "lng": 127.194736, "region": "경기도", "district": "하남시"}, {"name": "곤지암점", "address": "경기도 광주시 곤지암읍 곤지암로 83, 1층", "phone": "031-761-8668", "lat": 37.348281, "lng": 127.338654, "region": "경기도", "district": "광주시"}, {"name": "강릉교동점", "address": "강원도 강릉시 교1동 1863-2", "phone": "033-643-8600", "lat": 37.7652435, "lng": 128.8783753, "region": "강원도", "district": "강릉시"}, {"name": "부산대북문점", "address": "부산광역시 금정구 장전동 금강로 279번길 81-14", "phone": "051-715-1100", "lat": 35.235911, "lng": 129.0831512, "region": "부산광역시", "district": "금정구"}, {"name": "성서이곡", "address": "대구광역시 달서구 이곡동 1248-5", "phone": "053-584-8884", "lat": 35.8550433, "lng": 128.5113851, "region": "대구광역시", "district": "달서구"}, {"name": "구로호텔점", "address": "서울특별시 구로구 구로동 1128-3 파트너스타워 2차 120호", "phone": "02-2028-3337", "lat": 37.4828957, "lng": 126.8986631, "region": "서울특별시", "district": "구로구"}, {"name": "아산삼성전자점", "address": "충청남도 아신시 배방읍 북수리 932", "phone": "041-533-7644", "lat": 36.7709515, "lng": 127.065136, "region": "충청남도", "district": "아신시"}, {"name": "안동옥동점", "address": "경상북도 안동시 옥동 989-7 설광빌딩 1층 101-1호", "phone": "054-853-8686", "lat": 36.5661884, "lng": 128.6986562, "region": "경상북도", "district": "안동시"}, {"name": "이대역점", "address": "서울특별시 서대문구 대현동 45-5 이화인비따레 오피스텔 지하 2층 204호", "phone": "02-393-3700", "lat": 37.557207, "lng": 126.9470999, "region": "서울특별시", "district": "서대문구"}, {"name": "동아대부민캠퍼스점", "address": "부산광역시 서구 부민동2가 10-13번지 태영빌딩 1층", "phone": "051-256-0808", "lat": 35.1031892, "lng": 129.019522, "region": "부산광역시", "district": "서구"}, {"name": "밀양삼문점", "address": "경상남도 밀양시 삼문동 221-13", "phone": "055-353-0388", "lat": 35.4879729, "lng": 128.7546218, "region": "경상남도", "district": "밀양시"}, {"name": "홍익대조치원캠퍼스점", "address": "세종특별자치시 조치원읍 섭골길 78", "phone": "041-866-6989", "lat": 36.6171613, "lng": 127.2868097, "region": "세종특별자치시", "district": ""}, {"name": "양평점", "address": "경기도 양평군 양평읍 양근리 405-1", "phone": "031-775-1112", "lat": 37.4910628, "lng": 127.4909982, "region": "경기도", "district": "양평군"}, {"name": "행신점", "address": "경기도 고양시 덕양구 행신동 945-3", "phone": "031-970-8825", "lat": 37.6242469, "lng": 126.8356623, "region": "경기도", "district": "고양시"}, {"name": "신림신성초교앞점", "address": "서울특별시 관악구 신림동 118-3번지", "phone": "02-878-0055", "lat": 37.4711843, "lng": 126.9374517, "region": "서울특별시", "district": "관악구"}, {"name": "수원탑동점", "address": "경기도 수원시 권선구 탑동 845-1", "phone": "031-8001-6693", "lat": 37.2691504, "lng": 126.9755088, "region": "경기도", "district": "수원시"}, {"name": "영도남항점", "address": "부산광역시 영도구 영선2가 58-3", "phone": "051-711-1114", "lat": 35.0880682, "lng": 129.0419134, "region": "부산광역시", "district": "영도구"}, {"name": "노량진6번출구점", "address": "서울특별시 동작구 노량진동 41-5 건설상가@ 106호", "phone": "02-823-2610", "lat": 37.5132121, "lng": 126.9382205, "region": "서울특별시", "district": "동작구"}, {"name": "매천휴먼시아점", "address": "대구광역시 북구 태전동 1124번지 104호", "phone": "053-314-7114", "lat": 35.912834, "lng": 128.5468749, "region": "대구광역시", "district": "북구"}, {"name": "파주교하점", "address": "경기도 파주시 교하동 동패리 1694-3 105호", "phone": "031-943-4858", "lat": 37.7245382, "lng": 126.7180827, "region": "경기도", "district": "파주시"}, {"name": "대치은마점", "address": "서울특별시 강남구 대치동 989-2번지", "phone": "02-558-0662", "lat": 37.4989109, "lng": 127.0619181, "region": "서울특별시", "district": "강남구"}, {"name": "수지도서관점", "address": "경기도 용인시 수지구 풍덕천동 1089-3", "phone": "031-897-0809", "lat": 37.3212423, "lng": 127.0940163, "region": "경기도", "district": "용인시"}, {"name": "대구만촌점", "address": "대구광역시 수성구 만촌3동 852-23번지", "phone": "053-754-8115", "lat": 35.8557282, "lng": 128.6497206, "region": "대구광역시", "district": "수성구"}, {"name": "청주여고신흥고앞점", "address": "충청북도 청주시 상당구 율량동 870번지", "phone": "043-211-5505", "lat": 36.634745, "lng": 127.488601, "region": "충청북도", "district": "청주시"}, {"name": "인천검단사거리점", "address": "인천광역시 서구 완정로 185 1층 103호(왕길동)", "phone": "032-567-3435", "lat": 37.6024323, "lng": 126.65586080000003, "region": "인천광역시", "district": "서구"}, {"name": "시지매호점", "address": "대구광역시 수성구 매호동 1344-19번지", "phone": "053-794-8467", "lat": 35.8415519, "lng": 128.7049721, "region": "대구광역시", "district": "수성구"}, {"name": "천안한기대점", "address": "충청남도 천안시 동남구 병천면 가전리 177-15", "phone": "041-523-1124", "lat": 36.7668691, "lng": 127.2845139, "region": "충청남도", "district": "천안시"}, {"name": "신정제일점", "address": "서울특별시 양천구 신정4동 907-11번지", "phone": "02-2603-4646", "lat": 37.5257229, "lng": 126.8598705, "region": "서울특별시", "district": "양천구"}, {"name": "부산대점", "address": "부산광역시 금정구 장전동 401-21", "phone": "051-513-0685", "lat": 35.2319686, "lng": 129.084474, "region": "부산광역시", "district": "금정구"}, {"name": "사천터미널점", "address": "경상남도 사천시 사천읍 평화리 168-4", "phone": "055-854-3660", "lat": 35.0813598, "lng": 128.0878386, "region": "경상남도", "district": "사천시"}, {"name": "공항신도시점", "address": "인천광역시 중구 운서동 2793-1", "phone": "032-746-0051", "lat": 37.492768, "lng": 126.488464, "region": "인천광역시", "district": "중구"}, {"name": "산격대우아파트점", "address": "대구광역시 북구 산격동 500-1번지 201동 102호", "phone": "053-943-0027", "lat": 35.9005208, "lng": 128.6110316, "region": "대구광역시", "district": "북구"}, {"name": "한양대후문점", "address": "서울특별시 성동구 행당동 3-27", "phone": "02-2298-1004", "lat": 37.5606371, "lng": 127.0411, "region": "서울특별시", "district": "성동구"}, {"name": "영진전문대정문점", "address": "대구광역시 북구 복현 2동  249-2", "phone": "053-951-9891", "lat": 35.8952376, "lng": 128.624609, "region": "대구광역시", "district": "북구"}, {"name": "용인명지대앞점", "address": "경기도 용인시 처인구 남동 615-1 우영빌딩 101호", "phone": "031-334-1181", "lat": 37.2262188, "lng": 127.1881557, "region": "경기도", "district": "용인시"}, {"name": "울주구영점", "address": "울산광역시 울주군 범서읍 구영리 853-1 영림프라자 104호", "phone": "052-708-1115", "lat": 35.5735266, "lng": 129.2410081, "region": "울산광역시", "district": "울주군"}, {"name": "의정부북부점", "address": "경기도 의정부시 가능1동 648-25", "phone": "031-879-2452", "lat": 37.7480733, "lng": 127.0424424, "region": "경기도", "district": "의정부시"}, {"name": "일신여상점", "address": "서울특별시 송파구 송파동 103-34 1층", "phone": "02-415-8286", "lat": 37.5028243, "lng": 127.1127102, "region": "서울특별시", "district": "송파구"}, {"name": "광명소하이마트옆점", "address": "경기도 광명시 소하동 1341-3 청학프라자 101호", "phone": "02-2612-5933", "lat": 37.4469649, "lng": 126.8833501, "region": "경기도", "district": "광명시"}, {"name": "안양대앞점", "address": "경기도 안양시 만안구 안양5동 707-143호", "phone": "031-469-7458", "lat": 37.3935894, "lng": 126.9209818, "region": "경기도", "district": "안양시"}, {"name": "장유젤미점", "address": "경상남도 김해시 번화1로84번길 28 탑스코아", "phone": "055-339-6111", "lat": 35.1954727, "lng": 128.80235719999996, "region": "경상남도", "district": "김해시"}, {"name": "의정부2청사점", "address": "경기도 의정부시 신곡동 761-1", "phone": "031-852-0603", "lat": 37.7495396, "lng": 127.0698898, "region": "경기도", "district": "의정부시"}, {"name": "부산어린이대공원점", "address": "부산광역시 부산진구 초읍동 291-1번지", "phone": "051-715-0210", "lat": 35.1818421, "lng": 129.0472646, "region": "부산광역시", "district": "부산진구"}, {"name": "신도림e편한세상점", "address": "서울특별시 구로구 신도림동 648번지 대림6차 e편한세상 상가 104호", "phone": "02-2675-4500", "lat": 37.5054736, "lng": 126.8825201, "region": "서울특별시", "district": "구로구"}, {"name": "율하지구점", "address": "대구광역시 동구 율하동 1433 느티타워 101호", "phone": "053-964-0154", "lat": 35.8630889, "lng": 128.6977955, "region": "대구광역시", "district": "동구"}, {"name": "주안역북부점", "address": "인천광역시 미추홀구 길파로 1", "phone": "032-863-7746", "lat": 37.4660116, "lng": 126.6790797, "region": "인천광역시", "district": "미추홀구"}, {"name": "외대정문점", "address": "서울특별시 동대문구 이문동 287-22번지", "phone": "02-968-3635", "lat": 37.5957034, "lng": 127.0599926, "region": "서울특별시", "district": "동대문구"}, {"name": "창원도계점", "address": "경상남도 창원시 의창구 도계동 353-4 강남뉴프라자 101호", "phone": "055-713-7333", "lat": 35.2583284, "lng": 128.6382902, "region": "경상남도", "district": "창원시"}, {"name": "연수롯데마트앞점", "address": "인천광역시 연수구 청학동 503-4", "phone": "032-819-8844", "lat": 37.4149958, "lng": 126.6761859, "region": "인천광역시", "district": "연수구"}, {"name": "고려대세종점", "address": "충청남도 연기군 조치원읍 서창리 177-1", "phone": "044-864-4530", "lat": 36.6084063, "lng": 127.2895971, "region": "충청남도", "district": "연기군"}, {"name": "대구경대병원후문점", "address": "대구광역시 중구 삼덕동2가 213-6", "phone": "053-257-3236", "lat": 35.8653043, "lng": 128.602935, "region": "대구광역시", "district": "중구"}, {"name": "신촌로터리점", "address": "서울특별시 마포구 노고산동 31-90 신촌르메이에르타운2 1101호", "phone": "02-718-7583", "lat": 37.5534808, "lng": 126.9376317, "region": "서울특별시", "district": "마포구"}, {"name": "부산대역앞점", "address": "부산광역시 금정구 부곡동 268-2 푸르지오상가101동 102호", "phone": "051-715-1113", "lat": 35.2295576, "lng": 129.0902819, "region": "부산광역시", "district": "금정구"}, {"name": "통영북신사거리점", "address": "경상남도 통영시 중앙로 261, 101호", "phone": "055-646-6377", "lat": 34.8536127, "lng": 128.4287059, "region": "경상남도", "district": "통영시"}, {"name": "모래네사거리점", "address": "인천광역시 남동구 구월동 1264번지 퍼스트하임프라자 106호", "phone": "032-469-7111", "lat": 37.4555402, "lng": 126.7196665, "region": "인천광역시", "district": "남동구"}, {"name": "한양여대점", "address": "서울특별시 성동구 사근동 200-5번지", "phone": "02-2281-1253", "lat": 37.5610851, "lng": 127.048417, "region": "서울특별시", "district": "성동구"}, {"name": "신당점", "address": "서울특별시 중구 신당4동 340-77", "phone": "02-2233-4653", "lat": 37.5575824, "lng": 127.0125014, "region": "서울특별시", "district": "중구"}, {"name": "서영대점", "address": "광주광역시 북구 운암동 885-35번지", "phone": "062-524-6078", "lat": 35.1768263, "lng": 126.8708311, "region": "광주광역시", "district": "북구"}, {"name": "부전역점", "address": "부산광역시 부산진구 전포동 878-6", "phone": "051-791-1234", "lat": 35.1612192, "lng": 129.0624538, "region": "부산광역시", "district": "부산진구"}, {"name": "구리교문점", "address": "경기도 구리시 경춘로172번길 5, 1층", "phone": "031-515-3036", "lat": 37.60019442126615, "lng": 127.1345201725303, "region": "경기도", "district": "구리시"}, {"name": "대구서변점", "address": "대구광역시 북구 서변동 1787 대성골든프라자 2차 1층 103호", "phone": "053-955-7890", "lat": 35.9208351, "lng": 128.5988232, "region": "대구광역시", "district": "북구"}, {"name": "용현엑슬루타워앞점", "address": "인천광역시 남구 용현동 565-43", "phone": "032-881-2210", "lat": 37.4566436, "lng": 126.640369, "region": "인천광역시", "district": "남구"}, {"name": "용호사거리점", "address": "부산광역시 남구 용호동 395-15", "phone": "051-626-3136", "lat": 35.11961929999999, "lng": 129.11152330000004, "region": "부산광역시", "district": "남구"}, {"name": "시흥월곶점", "address": "경기도 시흥시 월곶중앙로 48, 120호", "phone": "031-316-7707", "lat": 37.388513, "lng": 126.7402088, "region": "경기도", "district": "시흥시"}, {"name": "통영죽림점", "address": "경상남도 통영시 광도면 죽림리 1583-8", "phone": "055-649-6438", "lat": 34.8767196, "lng": 128.4187457, "region": "경상남도", "district": "통영시"}, {"name": "제주연동대림점", "address": "제주특별자치도 제주시 연동 1481번지", "phone": "064-803-0505", "lat": 33.4808773, "lng": 126.4900073, "region": "제주특별자치도", "district": "제주시"}, {"name": "행당점", "address": "서울특별시 성동구 행당로 119", "phone": "02-2298-6550", "lat": 37.5582797, "lng": 127.0321048, "region": "서울특별시", "district": "성동구"}, {"name": "고양능곡병원앞점", "address": "경기도 고양시 덕양구 토당동 845번지", "phone": "031-938-1180", "lat": 37.6260862, "lng": 126.8241187, "region": "경기도", "district": "고양시"}, {"name": "인천길병원앞점", "address": "인천광역시 남동구 구월동 1199-2 명일프라자 101호", "phone": "032-466-1189", "lat": 37.4527502, "lng": 126.7096188, "region": "인천광역시", "district": "남동구"}, {"name": "군산서해대앞점", "address": "전라북도 군산시 오룡동 894-1", "phone": "063-465-4660", "lat": 35.9792975, "lng": 126.7099625, "region": "전라북도", "district": "군산시"}, {"name": "부천중동현대점", "address": "경기도 부천시 원미구 중동 1161-1 디아뜨2차 B동", "phone": "032-325-1255", "lat": 37.5025264, "lng": 126.7616236, "region": "경기도", "district": "부천시"}, {"name": "장림나산리버빌점", "address": "부산광역시 사하구 장림동 321-28 나산리버빌상가 113호", "phone": "051-711-0075", "lat": 35.0808993, "lng": 128.9711746, "region": "부산광역시", "district": "사하구"}, {"name": "둔촌역점", "address": "서울특별시 강동구 성내동 440-22   1층", "phone": "02-477-1072", "lat": 37.5243283, "lng": 127.1338921, "region": "서울특별시", "district": "강동구"}, {"name": "동양미래대점", "address": "서울특별시 구로구 고척동 76-88", "phone": "02-2616-7444", "lat": 37.5006068, "lng": 126.8661191, "region": "서울특별시", "district": "구로구"}, {"name": "미금역점", "address": "경기도 성남시 분당구 금곡동 153번지", "phone": "031-717-3515", "lat": 37.3504053, "lng": 127.1107925, "region": "경기도", "district": "성남시"}, {"name": "왜관사거리점", "address": "경상북도 칠곡군 왜관읍 왜관리 293-13", "phone": "054-971-8255", "lat": 35.9881452, "lng": 128.3995446, "region": "경상북도", "district": "칠곡군"}, {"name": "광운대역점", "address": "서울특별시 노원구 월계동 411-53번지", "phone": "02-6713-1113", "lat": 37.6228775, "lng": 127.0612036, "region": "서울특별시", "district": "노원구"}, {"name": "울산호계점", "address": "울산광역시 북구 호계동 258-16번지", "phone": "052-700-1119", "lat": 35.6282061, "lng": 129.3511842, "region": "울산광역시", "district": "북구"}, {"name": "오금역점", "address": "서울특별시 송파구 가락동 8-1 우정에쉐르 108호", "phone": "02-431-5549", "lat": 37.5026428, "lng": 127.1257786, "region": "서울특별시", "district": "송파구"}, {"name": "선부다이아몬드공원점", "address": "경기도 안산시 단원구 선부동 1070-16 칠성플러스타운 1층 115호", "phone": "031-483-4533", "lat": 37.3364175, "lng": 126.8087963, "region": "경기도", "district": "안산시"}, {"name": "죽곡1지구점", "address": "대구광역시 달성군 다사읍 매곡리 1549번지", "phone": "053-593-9114", "lat": 35.8578185, "lng": 128.4667505, "region": "대구광역시", "district": "달성군"}, {"name": "칠곡동천점", "address": "대구광역시 북구 동천동 934-2", "phone": "053-312-0522", "lat": 35.9367113, "lng": 128.5587438, "region": "대구광역시", "district": "북구"}, {"name": "광주금호점", "address": "광주광역시 서구 금호동 765-15번지", "phone": "062-385-1116", "lat": 35.1346971, "lng": 126.8594807, "region": "광주광역시", "district": "서구"}, {"name": "용원그랜드점", "address": "경상남도 창원시 진해구 용원동 1211-1 용원그랜드쇼핑 111호", "phone": "055-716-0716", "lat": 35.1020543, "lng": 128.8103031, "region": "경상남도", "district": "창원시"}, {"name": "삼성동점", "address": "서울특별시 강남구 삼성로96길 12 1층", "phone": "02-538-5380", "lat": 37.5087229, "lng": 127.056951, "region": "서울특별시", "district": "강남구"}, {"name": "행신서정마을점", "address": "경기도 고양시 덕양구 행신동 1083-3", "phone": "031-938-9994", "lat": 37.6179943, "lng": 126.846703, "region": "경기도", "district": "고양시"}, {"name": "범어태왕점", "address": "대구광역시 수성구 범어동 614-3 태왕유성하이빌 205동 110호", "phone": "053-710-0117", "lat": 35.8529265, "lng": 128.626046, "region": "대구광역시", "district": "수성구"}, {"name": "우장산화곡고점", "address": "서울특별시 강서구 내발산동 722-15", "phone": "02-2605-7557", "lat": 37.5481262, "lng": 126.8345671, "region": "서울특별시", "district": "강서구"}, {"name": "포천대진대점", "address": "경기도 포천시 선단동 대진대학교 내 학생회관 1층", "phone": "031-534-5358", "lat": 37.871337, "lng": 127.15664850000007, "region": "경기도", "district": "포천시"}, {"name": "시립대앞점", "address": "서울특별시 동대문구 전농동 124-2", "phone": "02-3394-7017", "lat": 37.5832339, "lng": 127.0531717, "region": "서울특별시", "district": "동대문구"}, {"name": "미아신일고점", "address": "서울특별시 강북구 미아동 209-1번지", "phone": "02-989-1007", "lat": 37.6268612, "lng": 127.0256129, "region": "서울특별시", "district": "강북구"}, {"name": "고대원룸촌점", "address": "서울특별시 성북구 안암동 15-100번지", "phone": "02-927-5832", "lat": 37.5873559, "lng": 127.029445, "region": "서울특별시", "district": "성북구"}, {"name": "대전가오점", "address": "대전광역시 동구 가오동 604번지 105호", "phone": "042-285-3200", "lat": 36.3070573, "lng": 127.4561339, "region": "대전광역시", "district": "동구"}, {"name": "부천북부역사거리점", "address": "경기도 부천시 원미구 심곡동 169-5", "phone": "032-661-2022", "lat": 37.4859153, "lng": 126.7840516, "region": "경기도", "district": "부천시"}, {"name": "대구대곡역점", "address": "대구광역시 달성군 화원읍 비슬로 2703 1층", "phone": "053-638-6114", "lat": 35.8089723, "lng": 128.5108513, "region": "대구광역시", "district": "달성군"}, {"name": "파주LCD8공구점", "address": "경기도 파주시 월롱면 덕은리 1284번지 113호", "phone": "031-942-8046", "lat": 37.8115274, "lng": 126.7776769, "region": "경기도", "district": "파주시"}, {"name": "사직운동장점", "address": "부산광역시 동래구 사직동 93-31", "phone": "051-503-1202", "lat": 35.1966724, "lng": 129.06095, "region": "부산광역시", "district": "동래구"}, {"name": "칠곡2지구점", "address": "대구광역시 북구 구암동 650-1번지 103호", "phone": "053-323-4009", "lat": 35.9314667, "lng": 128.5570896, "region": "대구광역시", "district": "북구"}, {"name": "양산덕계점", "address": "경상남도 양산시 덕계동 750-2", "phone": "055-388-0770", "lat": 35.372768, "lng": 129.1495856, "region": "경상남도", "district": "양산시"}, {"name": "대구동호지구점", "address": "대구광역시 동구 동호로 69 동호월드타운 105호", "phone": "053-964-0133", "lat": 35.8663956, "lng": 128.724461, "region": "대구광역시", "district": "동구"}, {"name": "광주호남대점", "address": "광주광역시 광산구 선암동 786", "phone": "062-942-4111", "lat": 35.1490058, "lng": 126.7687308, "region": "광주광역시", "district": "광산구"}, {"name": "명장역점", "address": "부산광역시 동래구 명장동 62-2", "phone": "051-529-5512", "lat": 35.2043819, "lng": 129.1015304, "region": "부산광역시", "district": "동래구"}, {"name": "경일대점", "address": "경상북도 경산시 하양읍 부호리 254번지A동 1", "phone": "053-851-6351", "lat": 35.9037113, "lng": 128.8004431, "region": "경상북도", "district": "경산시"}, {"name": "경주석장점", "address": "경상북도 경주시 석장동 846-8번지", "phone": "054-705-1114", "lat": 35.8614919, "lng": 129.1907562, "region": "경상북도", "district": "경주시"}, {"name": "영남대후문점", "address": "경상북도 경산시 삼풍동 509-1번지", "phone": "053-812-1411", "lat": 35.8217386, "lng": 128.7550199, "region": "경상북도", "district": "경산시"}, {"name": "동수원월드메르디앙점", "address": "경기도 수원시 팔달구 우만동 600", "phone": "031-215-7366", "lat": 37.2807204, "lng": 127.0346833, "region": "경기도", "district": "수원시"}, {"name": "신당역1번출구점", "address": "서울특별시 중구 황학동 737", "phone": "02-2235-0977", "lat": 37.5659384, "lng": 127.0187326, "region": "서울특별시", "district": "중구"}, {"name": "구미인동삼성전자점", "address": "경상북도 구미시 진평동 1023-1 시네마월드 110호", "phone": "054-471-7286", "lat": 36.1071396, "lng": 128.4177883, "region": "경상북도", "district": "구미시"}, {"name": "부산역앞점", "address": "부산광역시 동구 중앙대로 197", "phone": "051-468-2626", "lat": 35.1151815, "lng": 129.0392578, "region": "부산광역시", "district": "동구"}, {"name": "창원중앙동점", "address": "경상남도 창원시 성산구 중앙동 97-6 캔버라타운 107,108호", "phone": "055-268-5222", "lat": 35.2212244, "lng": 128.6768262, "region": "경상남도", "district": "창원시"}, {"name": "청라1동점", "address": "인천광역시 서구 청라라임로 51 청라 에일린의뜰 111호", "phone": "032-562-7996", "lat": 37.532061, "lng": 126.6529189, "region": "인천광역시", "district": "서구"}, {"name": "포항문덕점", "address": "경상북도 포항시 남구 오천읍 원리 980-2", "phone": "054-291-9114", "lat": 35.9654636, "lng": 129.4032641, "region": "경상북도", "district": "포항시"}, {"name": "개포4동점", "address": "서울특별시 강남구 개포동 1218-30", "phone": "02-572-9633", "lat": 37.4784473, "lng": 127.0478437, "region": "서울특별시", "district": "강남구"}, {"name": "다대삼환아파트앞점", "address": "부산광역시 사하구 다대동 36번지", "phone": "051-262-4193", "lat": 35.0640842, "lng": 128.9804568, "region": "부산광역시", "district": "사하구"}, {"name": "울산언양점", "address": "울산광역시 울주군 언양읍 서부리 7번지", "phone": "052-263-4114", "lat": 35.5651343, "lng": 129.1223275, "region": "울산광역시", "district": "울주군"}, {"name": "내당삼익뉴타운점", "address": "대구광역시 서구 중리동 117-10번지", "phone": "053-573-2114", "lat": 35.8628158, "lng": 128.5499233, "region": "대구광역시", "district": "서구"}, {"name": "영남이공대학정문점", "address": "대구광역시 남구 대명동 1725-8", "phone": "053-621-2085", "lat": 35.8475959, "lng": 128.5798829, "region": "대구광역시", "district": "남구"}, {"name": "간석역사거리점", "address": "인천광역시 남동구 간석동 395-18번지", "phone": "032-435-0300", "lat": 37.4635234, "lng": 126.6959542, "region": "인천광역시", "district": "남동구"}, {"name": "사하구청점", "address": "부산광역시 사하구 낙동대로 390(당리동)", "phone": "051-207-3888", "lat": 35.1032289, "lng": 128.9754598, "region": "부산광역시", "district": "사하구"}, {"name": "부산기장동부점", "address": "부산광역시 기장군 기장읍 동부리 151-10", "phone": "051-723-8889", "lat": 35.248252, "lng": 129.2167287, "region": "부산광역시", "district": "기장군"}, {"name": "일산대화역킨텍스점", "address": "경기도 고양시 일산서구 대화동 2203-1", "phone": "031-912-0001", "lat": 37.6762836, "lng": 126.7481737, "region": "경기도", "district": "고양시"}, {"name": "동해시청점", "address": "강원도 동해시 천곡동 802-4 1층", "phone": "033-533-6655", "lat": 37.5239063, "lng": 129.1125716, "region": "강원도", "district": "동해시"}, {"name": "포항두호영일대점", "address": "경상북도 포항시 북구 두호동 1052-2", "phone": "054-244-3001", "lat": 36.0598445, "lng": 129.3752146, "region": "경상북도", "district": "포항시"}, {"name": "광주쌍촌점", "address": "광주광역시 서구 쌍촌동 1348", "phone": "062-652-5555", "lat": 35.1602062, "lng": 126.8634338, "region": "광주광역시", "district": "서구"}, {"name": "진주경상대정문점", "address": "경상남도 진주시 진주대로 514,101(가좌동,프리월)", "phone": "055-752-2277", "lat": 35.1526471, "lng": 128.1059562, "region": "경상남도", "district": "진주시"}, {"name": "창원대학교앞점", "address": "경상남도 창원시 의창구 사림동 54-10", "phone": "055-980-5519", "lat": 35.2421586, "lng": 128.6893085, "region": "경상남도", "district": "창원시"}, {"name": "계양구청점", "address": "인천광역시 계양구 계산새로 89 대림프라자 1층 108호", "phone": "032-555-0557", "lat": 37.5380062, "lng": 126.7380771, "region": "인천광역시", "district": "계양구"}, {"name": "강릉원주대점", "address": "강원도 강릉시 지변동 280-10", "phone": "033-644-9998", "lat": 37.7731658, "lng": 128.8727515, "region": "강원도", "district": "강릉시"}, {"name": "울산병영점", "address": "울산광역시 중구 남외동 214-1번지", "phone": "052-716-0079", "lat": 35.5693261, "lng": 129.3453544, "region": "울산광역시", "district": "중구"}, {"name": "성남신구대점", "address": "경기도 성남시 중원구 1793번지", "phone": "031-748-9981", "lat": 37.446311, "lng": 127.1662579, "region": "경기도", "district": "성남시"}, {"name": "삼선교점", "address": "서울특별시 성북구 동소문동2가 223", "phone": "02-3673-4588", "lat": 37.5893504, "lng": 127.0087022, "region": "서울특별시", "district": "성북구"}, {"name": "정읍상동점", "address": "전라북도 정읍시 상동 313-1", "phone": "063-531-8588", "lat": 35.5605953, "lng": 126.8682478, "region": "전라북도", "district": "정읍시"}, {"name": "용인전대점", "address": "경기도 용인시 포곡읍 전대리 191-8", "phone": "031-333-5198", "lat": 37.2865898, "lng": 127.2172047, "region": "경기도", "district": "용인시"}, {"name": "장유율하점", "address": "경상남도 김해시 장유면 율하리 1339-1 그린프라자103호", "phone": "055-333-0882", "lat": 35.1706849, "lng": 128.8129021, "region": "경상남도", "district": "김해시"}, {"name": "대전탄방타워렉스점", "address": "대전광역시 서구 문정로 96 1층 106호", "phone": "042-483-1142", "lat": 36.3464293, "lng": 127.3899036, "region": "대전광역시", "district": "서구"}, {"name": "청운혜전대점", "address": "충청남도 홍성군 홍성읍 대학길 41", "phone": "041-631-3330", "lat": 36.5772052, "lng": 126.6593765, "region": "충청남도", "district": "홍성군"}, {"name": "잠실석촌호수점", "address": "서울특별시 송파구 송파동 15-4", "phone": "02-3432-8100", "lat": 37.5072154, "lng": 127.1058612, "region": "서울특별시", "district": "송파구"}, {"name": "포항이동점", "address": "경상북도 포항시 남구 이동 653-4 포스코아빌딩108호", "phone": "054-285-5600", "lat": 36.0284212, "lng": 129.3396523, "region": "경상북도", "district": "포항시"}, {"name": "원주연대점", "address": "강원도 원주시 흥업면 매지리 1925-7", "phone": "033-766-1667", "lat": 37.2792827, "lng": 127.9104028, "region": "강원도", "district": "원주시"}, {"name": "유원대기숙사앞점", "address": "충청북도 영동군 영동읍 설계리 695-1", "phone": "043-745-8222", "lat": 36.1856819, "lng": 127.7797439, "region": "충청북도", "district": "영동군"}, {"name": "전북대정문점", "address": "전라북도 전주시 덕진구 명륜5길 20(덕진동1가 1312-70)", "phone": "063-252-8555", "lat": 35.8443798, "lng": 127.1261865, "region": "전라북도", "district": "전주시"}, {"name": "일산풍동점", "address": "경기도 고양시 일산동구 풍동 1279-3", "phone": "031-904-5949", "lat": 37.667394, "lng": 126.7993909, "region": "경기도", "district": "고양시"}, {"name": "파주금릉역앞점", "address": "경기도 파주시 금촌동 988-1 우평프라자 109호", "phone": "031-945-7694", "lat": 37.7519469, "lng": 126.7668908, "region": "경기도", "district": "파주시"}, {"name": "운정한울점", "address": "경기도 파주시 동패동 와석순환로 125, 현대프라자 101호", "phone": "031-948-7227", "lat": 37.712095, "lng": 126.74577769999996, "region": "경기도", "district": "파주시"}, {"name": "시화세종점", "address": "경기도 시흥시 정왕동 1882-8 106호", "phone": "031-434-9494", "lat": 37.3627692, "lng": 126.7302357, "region": "경기도", "district": "시흥시"}, {"name": "명덕네거리점", "address": "대구광역시 중구 남산동 2110-5", "phone": "053-427-1114", "lat": 35.8575388, "lng": 128.5906023, "region": "대구광역시", "district": "중구"}, {"name": "칠곡관음점", "address": "대구광역시 북구 관음동 1386-14 2호", "phone": "053-312-8855", "lat": 35.9367767, "lng": 128.5487768, "region": "대구광역시", "district": "북구"}, {"name": "대구용산점", "address": "대구광역시 달서구 용산동 932-6번지", "phone": "053-710-9111", "lat": 35.8580439, "lng": 128.530869, "region": "대구광역시", "district": "달서구"}, {"name": "진량공단점", "address": "경상북도 경산시 진량읍 신상리 183-10", "phone": "053-856-1230", "lat": 35.8742894, "lng": 128.8186257, "region": "경상북도", "district": "경산시"}, {"name": "마포상수역점", "address": "서울특별시 마포구 상수동 324-7", "phone": "02-337-4300", "lat": 37.5475855, "lng": 126.9224786, "region": "서울특별시", "district": "마포구"}, {"name": "동국대후문점", "address": "서울특별시 중구 묵정동 10", "phone": "02-2272-2224", "lat": 37.5607933, "lng": 126.9994836, "region": "서울특별시", "district": "중구"}, {"name": "중앙동4가점", "address": "부산광역시 중구 중앙동 4가 85-9", "phone": "051-465-0704", "lat": 35.1069512, "lng": 129.0376742, "region": "부산광역시", "district": "중구"}, {"name": "권선롯데마트앞점", "address": "경기도 수원시 권선동 1297-4", "phone": "031-235-2990", "lat": 37.2510555, "lng": 127.034673, "region": "경기도", "district": "수원시"}, {"name": "용인양지점", "address": "경기도 용인시 처인구 양지면 양지리 575-4", "phone": "031-332-8118", "lat": 37.2343671, "lng": 127.2842293, "region": "경기도", "district": "용인시"}, {"name": "송내로데오점", "address": "경기도 부천시 원미구 상일로 94번길 15(상동 송내부건프라자 1층 103호)", "phone": "032-321-1914", "lat": 37.4908098, "lng": 126.7527879, "region": "경기도", "district": "부천시"}, {"name": "구미오태점", "address": "경상북도 칠곡군 북삼읍 인평리 1077-3", "phone": "054-973-3950", "lat": 36.0706217, "lng": 128.3477874, "region": "경상북도", "district": "칠곡군"}, {"name": "광주남부대점", "address": "광주광역시 광산구 월계동 849-6 1층", "phone": "062-971-3699", "lat": 35.2090141, "lng": 126.8396895, "region": "광주광역시", "district": "광산구"}, {"name": "삼척강원대점", "address": "강원도 삼척시 교동 510-12", "phone": "033-575-3393", "lat": 37.4553741, "lng": 129.1673418, "region": "강원도", "district": "삼척시"}, {"name": "대구서부점", "address": "대구광역시 달서구 송현2동 1043-1", "phone": "053-623-8285", "lat": 35.8372375, "lng": 128.5566402, "region": "대구광역시", "district": "달서구"}, {"name": "광주금남로점", "address": "광주광역시 동구 대의동 82-3번지", "phone": "062-225-5577", "lat": 35.148937, "lng": 126.9187555, "region": "광주광역시", "district": "동구"}, {"name": "충무로4가점", "address": "서울특별시 퇴계로235 남산센트럴자이 상가 124호", "phone": "02-2265-8253", "lat": 37.5625537, "lng": 126.9977646, "region": "서울특별시", "district": ""}, {"name": "충북진천읍사무소앞점", "address": "충청북도 진천읍 중앙서로 70-1번지", "phone": "043-536-7279", "lat": 36.8535806, "lng": 127.4412522, "region": "충청북도", "district": ""}, {"name": "염주사거리점", "address": "광주광역시 서구 화정동 825-9", "phone": "062-376-2666", "lat": 35.1428619, "lng": 126.8754213, "region": "광주광역시", "district": "서구"}, {"name": "망월사역점", "address": "경기도 의정부시 평화로 196,122(호원동,신일엘리시움)", "phone": "031-877-2992", "lat": 37.7094804, "lng": 127.0484246, "region": "경기도", "district": "의정부시"}, {"name": "괴정우리메디칼점", "address": "부산광역시 사하구 괴정동 896-1", "phone": "051-294-0335", "lat": 35.0995856, "lng": 128.9898712, "region": "부산광역시", "district": "사하구"}, {"name": "나주혁신메가티움점", "address": "전라남도 나주시 빛가람동 197, 중흥S클래스메가티움 1차 104호", "phone": "018-3385-79", "lat": 35.0229375, "lng": 126.7888477, "region": "전라남도", "district": "나주시"}, {"name": "대전갈마점", "address": "대전광역시 서구 갈마동 361-6번지", "phone": "042-535-8028", "lat": 36.346832, "lng": 127.369635, "region": "대전광역시", "district": "서구"}, {"name": "신평하남초등학교점", "address": "부산광역시 사하구 신평동 590-6", "phone": "051-205-3311", "lat": 35.0987434, "lng": 128.9600108, "region": "부산광역시", "district": "사하구"}, {"name": "강원도립대학점", "address": "강원도 강릉시 주문진읍 연주로 300", "phone": "033-662-1135", "lat": 37.8792393, "lng": 128.8271275, "region": "강원도", "district": "강릉시"}, {"name": "좌동장산역점", "address": "부산광역시 해운대구 좌동 387 대천빌딩 102호", "phone": "051-704-4544", "lat": 35.1723818, "lng": 129.1765361, "region": "부산광역시", "district": "해운대구"}, {"name": "관저느리울점", "address": "대전광역시 서구 관저동 1403번지 102호", "phone": "042-544-2886", "lat": 36.2982816, "lng": 127.3409997, "region": "대전광역시", "district": "서구"}, {"name": "이시아폴리스점", "address": "대구광역시 동구 봉무동1539-4번지", "phone": "053-752-8295", "lat": 35.9223842, "lng": 128.6407924, "region": "대구광역시", "district": "동구"}, {"name": "광주치평점", "address": "광주광역시 서구 치평동 1177-3 상무골든사우나 1-107호", "phone": "062-375-0080", "lat": 35.1487039, "lng": 126.8477906, "region": "광주광역시", "district": "서구"}, {"name": "대전노은1지구점", "address": "대전광역시 유성구 은구비남로33번길 5", "phone": "042-822-6677", "lat": 36.3725315, "lng": 127.3190045, "region": "대전광역시", "district": "유성구"}, {"name": "건대후문점", "address": "서울특별시 광진구 광나루로24길 21", "phone": "02-456-8889", "lat": 37.5455047, "lng": 127.0766804, "region": "서울특별시", "district": "광진구"}, {"name": "대전장대점", "address": "대전광역시 유성구 장대동 353-4번지 영일빌딩 1층", "phone": "042-822-6089", "lat": 36.3614897, "lng": 127.3373952, "region": "대전광역시", "district": "유성구"}, {"name": "수원디지털엠파이어점", "address": "경기도 수원시 영통구 영통동 980-3", "phone": "031-303-4949", "lat": 37.2451284, "lng": 127.0599149, "region": "경기도", "district": "수원시"}, {"name": "영광한빛원전점", "address": "전라남도 영광군 홍농읍 상하리 497-1", "phone": "061-356-9777", "lat": 35.3946982, "lng": 126.4449315, "region": "전라남도", "district": "영광군"}, {"name": "신탄진공단점", "address": "대전광역시 대덕구 신일동 1684-10번지 113호", "phone": "042-934-7737", "lat": 36.4448096, "lng": 127.4052275, "region": "대전광역시", "district": "대덕구"}, {"name": "가든파이브테크노관10층점", "address": "서울특별시 송파구 문정동 634 가든파이브 라이프동 T-10014", "phone": "02-404-1014", "lat": 37.4778182, "lng": 127.1243655, "region": "서울특별시", "district": "송파구"}, {"name": "첨단월계점", "address": "광주광역시 광산구 월계동 758-8 가산아파트상가 101호", "phone": "062-973-2111", "lat": 35.218802, "lng": 126.8383893, "region": "광주광역시", "district": "광산구"}, {"name": "광주보건대정문점", "address": "광주광역시 광산구 신창동 1031-32", "phone": "062-951-1166", "lat": 35.1925828, "lng": 126.8460614, "region": "광주광역시", "district": "광산구"}, {"name": "경주동천동점", "address": "경상북도 경주시 동천동 888-9번지", "phone": "054-777-2900", "lat": 35.8501309, "lng": 129.2294246, "region": "경상북도", "district": "경주시"}, {"name": "2.28공원점", "address": "대구광역시 중구 동성로2길 83", "phone": "053-428-8776", "lat": 35.869724, "lng": 128.59699869999997, "region": "대구광역시", "district": "중구"}, {"name": "양산증산신도시점", "address": "경상남도 양산시 물금읍 가촌리 1280-8 아르누보시티 111호", "phone": "055-366-6601", "lat": 35.3162556, "lng": 129.0028335, "region": "경상남도", "district": "양산시"}, {"name": "진영신도시점", "address": "경상남도 김해시 진영읍 진영리1612-4", "phone": "055-342-4248", "lat": 35.3082596, "lng": 128.7298823, "region": "경상남도", "district": "김해시"}, {"name": "첨단2지구점", "address": "광주광역시 북구 신용동 731번지 와이타워 107호", "phone": "062-572-3233", "lat": 35.2065557, "lng": 126.8628859, "region": "광주광역시", "district": "북구"}, {"name": "경산정평역점", "address": "경상북도 경산시 정평동 138-4 경산우방맨션 112동 상가2호", "phone": "053-812-2114", "lat": 35.8333613, "lng": 128.7286327, "region": "경상북도", "district": "경산시"}, {"name": "휘경주공점", "address": "서울특별시 동대문구 장안동 98-3", "phone": "02-2212-5473", "lat": 37.5798729, "lng": 127.0703902, "region": "서울특별시", "district": "동대문구"}, {"name": "숭의여대점", "address": "서울특별시 중구 남산동 2가 25-25", "phone": "02-756-6007", "lat": 37.5579962, "lng": 126.9867385, "region": "서울특별시", "district": "중구"}, {"name": "마산경남대점", "address": "경상남도 창원시 마산합포구 대내동 5-4번지", "phone": "055-222-3303", "lat": 35.1819579, "lng": 128.5570989, "region": "경상남도", "district": "창원시"}, {"name": "신대부적지구점", "address": "경상북도 경산시 압량면 신대리 580 로하스 1층", "phone": "053-802-1140", "lat": 35.8398533, "lng": 128.7655605, "region": "경상북도", "district": "경산시"}, {"name": "배재대앞점", "address": "대전광역시 서구 도마동 25-1", "phone": "042-532-2238", "lat": 36.3235364, "lng": 127.3705122, "region": "대전광역시", "district": "서구"}, {"name": "혜천대후문점", "address": "대전광역시 서구 복수동 544번지", "phone": "042-585-4800", "lat": 36.2996638, "lng": 127.3737789, "region": "대전광역시", "district": "서구"}, {"name": "전주아중점", "address": "전라북도 전주시 우아동2가 909-11", "phone": "063-244-9580", "lat": 35.8290347, "lng": 127.169719, "region": "전라북도", "district": "전주시"}, {"name": "신림양지병원점", "address": "서울특별시 관악구 신림동 10-715 1층", "phone": "02-6951-4572", "lat": 37.4844227102465, "lng": 126.93279341415564, "region": "서울특별시", "district": "관악구"}, {"name": "경주용강점", "address": "경상북도 경주시 용강동 1299-11", "phone": "054-775-8282", "lat": 35.8767045, "lng": 129.229349, "region": "경상북도", "district": "경주시"}, {"name": "세종아름점", "address": "세종특별자치시 아름동 89 해피라움 119호", "phone": "044-864-4554", "lat": 36.511957, "lng": 127.247612, "region": "세종특별자치시", "district": ""}, {"name": "목포하당점", "address": "전라남도 목포시 상동 829-9", "phone": "061-284-2314", "lat": 34.8044728, "lng": 126.4194533, "region": "전라남도", "district": "목포시"}, {"name": "성주점", "address": "경상북도 성주군 성주읍 성주로 3216-1", "phone": "054-931-9114", "lat": 35.918382722917094, "lng": 128.28568743680538, "region": "경상북도", "district": "성주군"}, {"name": "인천옥련점", "address": "인천광역시 연수구 옥련동 194-5", "phone": "032-834-8383", "lat": 37.424458, "lng": 126.6443502, "region": "인천광역시", "district": "연수구"}, {"name": "양산이마트앞점", "address": "경상남도 양산시 중부동 691-17 준이프라자 103호", "phone": "055-383-3533", "lat": 35.3369384, "lng": 129.0284991, "region": "경상남도", "district": "양산시"}, {"name": "광주수완점", "address": "광주광역시 광산구 수완동 1083번지", "phone": "062-959-6777", "lat": 35.191034, "lng": 126.8250609, "region": "광주광역시", "district": "광산구"}, {"name": "둔산미라클점", "address": "대전광역시 서구 둔산동 1169번지 미라클빌딩 107호", "phone": "042-488-2028", "lat": 36.3510562, "lng": 127.3797273, "region": "대전광역시", "district": "서구"}, {"name": "전남대후문점", "address": "광주광역시 북구 용봉동 152-3번지", "phone": "062-263-8114", "lat": 35.1772118, "lng": 126.9126991, "region": "광주광역시", "district": "북구"}, {"name": "용인보라점", "address": "경기도 용인시 기흥구 보라동 578-1 110호", "phone": "031-275-1184", "lat": 37.2543354, "lng": 127.1099067, "region": "경기도", "district": "용인시"}, {"name": "노은2지구점", "address": "대전광역시 유성구 반석동 639-2 반석프라자 103호", "phone": "042-823-0090", "lat": 36.3913787, "lng": 127.3124747, "region": "대전광역시", "district": "유성구"}, {"name": "선정릉역점", "address": "서울특별시 강남구 논현2동 278-7 1층", "phone": "02-549-1321", "lat": 37.5107712, "lng": 127.0434348, "region": "서울특별시", "district": "강남구"}, {"name": "충남목천점", "address": "충청남도 천안시 동남구 목천읍 신계리 129", "phone": "041-553-1233", "lat": 36.7722082, "lng": 127.2084537, "region": "충청남도", "district": "천안시"}, {"name": "인천부흥로타리점", "address": "인천광역시 부평구 부평5동 126-9", "phone": "032-512-2900", "lat": 37.499022, "lng": 126.7311994, "region": "인천광역시", "district": "부평구"}, {"name": "서면교보생명앞점", "address": "부산광역시 부산진구 중앙대로 655", "phone": "051-819-9797", "lat": 35.1512128, "lng": 129.0589488, "region": "부산광역시", "district": "부산진구"}, {"name": "서대전사거리역점", "address": "대전광역시 중구 오류동 151-1번지", "phone": "042-527-3400", "lat": 36.3232554, "lng": 127.4111493, "region": "대전광역시", "district": "중구"}, {"name": "대전침례신학대점", "address": "대전광역시 유성구 하기동 532-22", "phone": "042-824-3394", "lat": 36.386979, "lng": 127.323555, "region": "대전광역시", "district": "유성구"}, {"name": "광주양림점", "address": "광주광역시 남구 제중로 37-1, 1층", "phone": "062-462-7100", "lat": 35.137972, "lng": 126.914022, "region": "광주광역시", "district": "남구"}, {"name": "한남대후문앞점", "address": "대전광역시 대덕구 오정동 175-10", "phone": "042-627-2612", "lat": 36.3520083, "lng": 127.42518, "region": "대전광역시", "district": "대덕구"}, {"name": "잠실종합운동장사거리점", "address": "서울특별시 송파구 잠실동 195-7", "phone": "02-425-3519", "lat": 37.5094539, "lng": 127.0798521, "region": "서울특별시", "district": "송파구"}, {"name": "일산주엽점", "address": "경기도 고양시 일산서구 주엽동 106-1", "phone": "031-912-3229", "lat": 37.6691987, "lng": 126.7625808, "region": "경기도", "district": "고양시"}, {"name": "신설동점", "address": "서울특별시 종로구 숭인동 1388 동양파라빌오피스텔 101호", "phone": "02-2231-3311", "lat": 37.574085, "lng": 127.0230034, "region": "서울특별시", "district": "종로구"}, {"name": "일산탄현점", "address": "경기도 고양시 일산서구 탄현동 1573-7 탄현프라자 101호", "phone": "031-912-5992", "lat": 37.6910366, "lng": 126.7631366, "region": "경기도", "district": "고양시"}, {"name": "옥천점", "address": "충청북도 옥천군 옥천읍 금구리 90", "phone": "043-731-9133", "lat": 36.3000087, "lng": 127.5734708, "region": "충청북도", "district": "옥천군"}, {"name": "부여점", "address": "충청남도 부여군 부여읍 동감리 661", "phone": "041-833-1717", "lat": 36.2770924, "lng": 126.9124397, "region": "충청남도", "district": "부여군"}, {"name": "진해우림필유점", "address": "경상남도 창원시 진해구 석동675 우림필유상가 601동103호", "phone": "055-544-2204", "lat": 35.1557856, "lng": 128.6972682, "region": "경상남도", "district": "창원시"}, {"name": "동해북평고점", "address": "강원도 동해시 동회동 175-5", "phone": "033-521-5959", "lat": 37.4913062, "lng": 129.1084245, "region": "강원도", "district": "동해시"}, {"name": "충북증평점", "address": "충청북도 증평군 증평읍 교동리 98", "phone": "043-836-3024", "lat": 36.7847252, "lng": 127.5836461, "region": "충청북도", "district": "증평군"}, {"name": "인천작전동점", "address": "인천광역시 계양구 작전동 381-1", "phone": "032-548-8282", "lat": 37.5279182, "lng": 126.729654, "region": "인천광역시", "district": "계양구"}, {"name": "세종도담점", "address": "세종특별자치시 보등3로 8-20 146호", "phone": "044-864-1746", "lat": 36.5144306, "lng": 127.2582688, "region": "세종특별자치시", "district": ""}, {"name": "인천서구연희동점", "address": "인천광역시 서구 연희동 689번지 1층 1호,2호", "phone": "032-566-4035", "lat": 37.5491889, "lng": 126.6749089, "region": "인천광역시", "district": "서구"}, {"name": "여수여천점", "address": "전라남도 여수시 학동 5-25", "phone": "061-921-8022", "lat": 34.7667384, "lng": 127.6595671, "region": "전라남도", "district": "여수시"}, {"name": "진해그린빌상가점", "address": "경상남도 창원시 진해구 석동 663-2 신우그린빌상가 102호", "phone": "055-541-0335", "lat": 35.1538802, "lng": 128.7081511, "region": "경상남도", "district": "창원시"}, {"name": "충주교통대", "address": "충청북도 충주시 대소원면 검단리 350-117 1호", "phone": "043-844-8869", "lat": 36.9649104, "lng": 127.8709003, "region": "충청북도", "district": "충주시"}, {"name": "구파발역점", "address": "서울특별시 은평구 진관동 72번지 드림스퀘어빌딩 1층 101호", "phone": "02-386-0290", "lat": 37.6440774, "lng": 126.9145823, "region": "서울특별시", "district": "은평구"}, {"name": "부천원종사거리점", "address": "경기도 부천시 오정구 원종동 227-5", "phone": "032-672-0793", "lat": 37.5229136, "lng": 126.8044917, "region": "경기도", "district": "부천시"}, {"name": "구미봉곡", "address": "경상북도 구미시 봉곡동 281-1", "phone": "054-444-6114", "lat": 36.1501952, "lng": 128.3108561, "region": "경상북도", "district": "구미시"}, {"name": "가평점", "address": "경기도 가평군 가평읍 읍내리 475-11", "phone": "031-582-4884", "lat": 37.8276566, "lng": 127.5147761, "region": "경기도", "district": "가평군"}, {"name": "마산양덕메트로점", "address": "경상남도 창원시 마산회원구 양덕동 77-4", "phone": "055-246-7850", "lat": 35.2296114, "lng": 128.5816723, "region": "경상남도", "district": "창원시"}, {"name": "덕소삼거리점", "address": "경기도 남양주시 와부읍 덕소리 466-2", "phone": "031-576-2676", "lat": 37.5866946, "lng": 127.2118836, "region": "경기도", "district": "남양주시"}, {"name": "제주한라대점", "address": "제주특별자치도 제주시 노형동 756-7", "phone": "064-742-4432", "lat": 33.476519, "lng": 126.4782153, "region": "제주특별자치도", "district": "제주시"}, {"name": "안동중앙점", "address": "경상북도 안동시 삼산동 91-1", "phone": "054-855-0000", "lat": 36.5659114, "lng": 128.7320779, "region": "경상북도", "district": "안동시"}, {"name": "당진시립중앙도서관점", "address": "충청남도 당진시 읍내동 232-85", "phone": "041-358-5840", "lat": 36.8938369, "lng": 126.6318196, "region": "충청남도", "district": "당진시"}, {"name": "대구침산점", "address": "대구광역시 북구 침산동 338-7", "phone": "053-351-5949", "lat": 35.8915578, "lng": 128.5901516, "region": "대구광역시", "district": "북구"}, {"name": "공주대학교천안캠퍼스점", "address": "충청남도 천안시 서북구 신당동 251-14", "phone": "041-569-9932", "lat": 36.8502362, "lng": 127.1549555, "region": "충청남도", "district": "천안시"}, {"name": "불광역점", "address": "서울특별시 은평구 대조동 14-62", "phone": "02-351-3404", "lat": 37.6094944, "lng": 126.9279048, "region": "서울특별시", "district": "은평구"}, {"name": "경산사동점", "address": "경상북도 경산시 사동 41번지 106호", "phone": "053-817-7891", "lat": 35.8110698, "lng": 128.7544381, "region": "경상북도", "district": "경산시"}, {"name": "구지산업단지점", "address": "대구광역시 달서구 구지면 응암리 1190-3번지", "phone": "053-611-1004", "lat": 35.6560002, "lng": 128.4167767, "region": "대구광역시", "district": "달서구"}, {"name": "석촌가락로점", "address": "서울특별시 송파구 가락로 71", "phone": "02-422-9041", "lat": 37.500362, "lng": 127.104112, "region": "서울특별시", "district": "송파구"}, {"name": "예천점", "address": "경상북도 예천군 예천읍 군청앞길 13", "phone": "054-653-3332", "lat": 36.656173, "lng": 128.453632, "region": "경상북도", "district": "예천군"}, {"name": "광양시계탑사거리점", "address": "전라남도 광양시 광양읍 읍내리 98-2", "phone": "061-761-6667", "lat": 34.9749233, "lng": 127.5885878, "region": "전라남도", "district": "광양시"}, {"name": "대전목동점", "address": "대전광역시 중구 중촌동 409-21", "phone": "042-222-6661", "lat": 36.3351933, "lng": 127.4127708, "region": "대전광역시", "district": "중구"}, {"name": "포항창포동점", "address": "경상북도 포항시 북구 창포동 640-1", "phone": "054-256-9114", "lat": 36.064622, "lng": 129.370938, "region": "경상북도", "district": "포항시"}, {"name": "울진북면점", "address": "경상북도 울진군 북면 부구리 146-14 한솥도시락 울진북면점", "phone": "054-783-1019", "lat": 37.10138, "lng": 129.373104, "region": "경상북도", "district": "울진군"}, {"name": "대구장기점", "address": "대구광역시 달서구 장기동 535 협성휴포레 102동 111호", "phone": "053-264-3030", "lat": 35.843955, "lng": 128.532696, "region": "대구광역시", "district": "달서구"}, {"name": "대구혁신도시점", "address": "대구광역시 동구 각산동 1080번지 1층 106호", "phone": "053-964-0234", "lat": 35.8785056, "lng": 128.7144957, "region": "대구광역시", "district": "동구"}, {"name": "인천서구석남점", "address": "인천광역시 서구 석남동 533-38번지", "phone": "032-583-8255", "lat": 37.5062215, "lng": 126.6714556, "region": "인천광역시", "district": "서구"}, {"name": "신평리네거리점", "address": "대구광역시 서구 평리동 1371-1번지", "phone": "053-565-8224", "lat": 35.870228, "lng": 128.555269, "region": "대구광역시", "district": "서구"}, {"name": "성남금강펜테리움점", "address": "경기도 성남시 중원구 갈마치로 215 지하1층 123-2호", "phone": "031-747-1008", "lat": 37.433437, "lng": 127.173382, "region": "경기도", "district": "성남시"}, {"name": "광교상현역점", "address": "경기도 용인시 수지구 광교중앙로 313, 104호(상현동, 광교프리미어타워)", "phone": "031-213-2014", "lat": 37.2980141, "lng": 127.0690616, "region": "경기도", "district": "용인시"}, {"name": "아산테크노밸리점", "address": "충청남도 아산시 둔포면 아산밸리중앙로 98, 1층 105호", "phone": "041-532-0080", "lat": 36.923211, "lng": 127.058731, "region": "충청남도", "district": "아산시"}, {"name": "한국교원대점", "address": "충청북도 청주시 흥덕구 강내면 태성탑연로 262, 196호", "phone": "043-233-6756", "lat": 36.607862, "lng": 127.353493, "region": "충청북도", "district": "청주시"}, {"name": "가산디지털단지점", "address": "서울특별시 금천구 가산동 429-1 뉴티캐슬 제1층 106호", "phone": "02-857-2114", "lat": 37.4778605, "lng": 126.8805414, "region": "서울특별시", "district": "금천구"}, {"name": "구남역점", "address": "부산광역시 북구 구포동 897-39번지", "phone": "051-337-0581", "lat": 35.1969007, "lng": 128.9952706, "region": "부산광역시", "district": "북구"}, {"name": "향남2지구점", "address": "경기도 화성시 향남읍 하길리 133-2", "phone": "031-353-9144", "lat": 37.111959, "lng": 126.913374, "region": "경기도", "district": "화성시"}, {"name": "고령점", "address": "경상북도 고령군 대가야읍 중앙로 12-1", "phone": "054-956-4448", "lat": 35.729557, "lng": 128.2692, "region": "경상북도", "district": "고령군"}, {"name": "충주용산점", "address": "충청북도 충주시 용산동 2063번지", "phone": "043-851-5255", "lat": 36.961432, "lng": 127.939593, "region": "충청북도", "district": "충주시"}, {"name": "수원호매실점", "address": "경기도 수원시 권선구 금곡동 1083-2", "phone": "031-292-9533", "lat": 37.2721046, "lng": 126.9413511, "region": "경기도", "district": "수원시"}, {"name": "중동해운대구청점", "address": "부산광역시 해운대구 중동1로 29", "phone": "051-744-5589", "lat": 35.162886, "lng": 129.16282, "region": "부산광역시", "district": "해운대구"}, {"name": "인천서창2지구점", "address": "인천광역시 남동구 서창동 703-2 승연프라자 102호", "phone": "032-469-6316", "lat": 37.423457, "lng": 126.748827, "region": "인천광역시", "district": "남동구"}, {"name": "부산지사동점", "address": "부산광역시 강서구 지사동 1187-12번지", "phone": "051-941-9414", "lat": 35.150418, "lng": 128.835911, "region": "부산광역시", "district": "강서구"}, {"name": "부산시청역점", "address": "부산광역시 연제구 중앙대로 1030(연산동)", "phone": "051-865-7775", "lat": 35.18049, "lng": 129.07752, "region": "부산광역시", "district": "연제구"}, {"name": "명지국제신도시점", "address": "부산광역시 강서구 명지동 1637-1", "phone": "051-202-1005", "lat": 35.09807800000001, "lng": 128.92142650000005, "region": "부산광역시", "district": "강서구"}, {"name": "한림성심대점", "address": "강원도 춘천시 동면 장학길 29, 2층", "phone": "033-242-5034", "lat": 37.895354, "lng": 127.755447, "region": "강원도", "district": "춘천시"}, {"name": "평택소사벌점", "address": "경기도 평택시 비전5로 21, 113호 (비전동, 쏘울스퀘어)", "phone": "031-655-5055", "lat": 37.000920625631785, "lng": 127.11396720180505, "region": "경기도", "district": "평택시"}, {"name": "시흥장곡점", "address": "경기도 시흥시 장곡로 49번길 9-1, 102호(장곡동)", "phone": "031-316-0828", "lat": 37.378383, "lng": 126.783352, "region": "경기도", "district": "시흥시"}, {"name": "관악난곡점", "address": "서울특별시 관악구 신림동 704-7번지", "phone": "02-6448-7537", "lat": 37.470279, "lng": 126.91971664418031, "region": "서울특별시", "district": "관악구"}, {"name": "아산고사거리점", "address": "충청남도 아산시 온천동  1741번지", "phone": "041-548-1331", "lat": 36.7862161, "lng": 127.0041322, "region": "충청남도", "district": "아산시"}, {"name": "울산매곡초교앞점", "address": "울산광역시 북구 매곡동 499-3번지 116호", "phone": "052-297-7111", "lat": 35.6446692, "lng": 129.3511914, "region": "울산광역시", "district": "북구"}, {"name": "정관매학리점", "address": "부산광역시 기장군 정관읍 정관로 566, 102호", "phone": "051-728-1717", "lat": 35.321287, "lng": 129.175619, "region": "부산광역시", "district": "기장군"}, {"name": "충남대후문점", "address": "대전광역시 유성구 궁동 395-14", "phone": "042-825-4590", "lat": 36.3629304, "lng": 127.3477768, "region": "대전광역시", "district": "유성구"}, {"name": "대구화원점", "address": "대구광역시 달성군 화원읍 비슬로 2582,1층 8호", "phone": "053-635-7979", "lat": 35.803553, "lng": 128.499366, "region": "대구광역시", "district": "달성군"}, {"name": "제주한림점", "address": "제주특별자치도 제주시 한림읍 한림중앙로 10-1 1층", "phone": "064-796-0803", "lat": 33.4138099, "lng": 126.2644338, "region": "제주특별자치도", "district": "제주시"}, {"name": "마산호계점", "address": "경상남도 창원시 마산회원구 내서읍 호계본동로 11, 104호", "phone": "055-232-2088", "lat": 35.261056, "lng": 128.522023, "region": "경상남도", "district": "창원시"}, {"name": "동천역U타워점", "address": "경기도 용인시 수지구 동천동 899 U타워 213호", "phone": "031-525-3322", "lat": 37.338231, "lng": 127.101693, "region": "경기도", "district": "용인시"}, {"name": "문정지식산업센터점", "address": "서울특별시 송파구 문정동 645외 현대지식산업센터 B동 116호", "phone": "02-6326-9009", "lat": 37.484820725457254, "lng": 127.11647872358799, "region": "서울특별시", "district": "송파구"}, {"name": "평택법원점", "address": "경기도 평택시 평남로 1050 102호", "phone": "031-653-0045", "lat": 37.0099423, "lng": 127.0946584, "region": "경기도", "district": "평택시"}, {"name": "세종새롬점", "address": "세종특별자치시 새롬중앙로 59, 1층 101호", "phone": "044-999-0950", "lat": 36.4860864, "lng": 127.2503181, "region": "세종특별자치시", "district": ""}, {"name": "양산범어리점", "address": "경상남도 양산시 물금읍 범어리 2712-14", "phone": "055-389-0333", "lat": 35.3297861, "lng": 129.0151715, "region": "경상남도", "district": "양산시"}, {"name": "명지오션시티", "address": "부산광역시 강서구 명지동 3239-4 강서타워 106호", "phone": "051-271-6596", "lat": 35.0830261, "lng": 128.9039256, "region": "부산광역시", "district": "강서구"}, {"name": "서울과학기술대앞점", "address": "서울특별시 노원구 공릉동 440-16 도곡빌딩1층", "phone": "02-949-5506", "lat": 37.6291308, "lng": 127.0767503, "region": "서울특별시", "district": "노원구"}, {"name": "경북전문대점", "address": "경상북도 영주시 휴천동 642-176", "phone": "054-635-1116", "lat": 36.8080984, "lng": 128.6165985, "region": "경상북도", "district": "영주시"}, {"name": "구미형곡점", "address": "경상북도 구미시 형곡동 286-7", "phone": "054-456-0564", "lat": 36.1080309, "lng": 128.3330531, "region": "경상북도", "district": "구미시"}, {"name": "천안백석점", "address": "충청남도 천안시 서북구 백석3로 135", "phone": "041-522-7251", "lat": 36.8223734, "lng": 127.1245612, "region": "충청남도", "district": "천안시"}, {"name": "천안차암제이타워점", "address": "충청남도 천안시 서북구 차암동 435-1 106호", "phone": "041-564-0402", "lat": 36.840821, "lng": 127.1032587, "region": "충청남도", "district": "천안시"}, {"name": "전주송천점", "address": "전라북도 전주시 덕진구 송천동1가 101-15", "phone": "063-278-8289", "lat": 35.8627793, "lng": 127.1265929, "region": "전라북도", "district": "전주시"}, {"name": "제주화북점", "address": "제주특별자치도 제주시 화삼로 9", "phone": "064-757-8850", "lat": 33.5143764, "lng": 126.57918219999999, "region": "제주특별자치도", "district": "제주시"}, {"name": "평촌금강펜테리움점", "address": "경기도 안양시 관양동 810번지 금강펜테리움 IT타워", "phone": "031-8068-6200", "lat": 37.4009257, "lng": 126.9692063, "region": "경기도", "district": "안양시"}, {"name": "포승공단점", "address": "경기도 평택시 포승읍 평택항로184번길 3-33 1동 104호", "phone": "031-8094-1122", "lat": 36.9771129, "lng": 126.8434841, "region": "경기도", "district": "평택시"}, {"name": "대구현풍점", "address": "대구광역시 달성군 현풍면 부리 433-2", "phone": "053-617-7770", "lat": 35.6966458, "lng": 128.4448905, "region": "대구광역시", "district": "달성군"}, {"name": "동탄능동점", "address": "경기도 화성시 능동 1113-3 에이앤비프라자 101호", "phone": "031-613-6151", "lat": 37.2098932, "lng": 127.0601236, "region": "경기도", "district": "화성시"}, {"name": "부평청천동점", "address": "인천광역시 부평구 청천동 190-2번지", "phone": "032-513-3007", "lat": 37.5127749, "lng": 126.7042977, "region": "인천광역시", "district": "부평구"}, {"name": "마산합성점", "address": "경상남도 창원시 마산회원구 합성동159-8", "phone": "055-251-5114", "lat": 35.2414489, "lng": 128.5852318, "region": "경상남도", "district": "창원시"}, {"name": "부산외대점", "address": "부산광역시 금정구 남산동 990-10", "phone": "051-517-1253", "lat": 35.2656108, "lng": 129.0860886, "region": "부산광역시", "district": "금정구"}, {"name": "남양뉴타운점", "address": "경기도 화성시 남양동 1203번지", "phone": "031-355-5661", "lat": 37.2089486, "lng": 126.8180597, "region": "경기도", "district": "화성시"}, {"name": "김천혁신도시점", "address": "경상북도 김천시 율곡동 772 한신휴플러스 상가 106호", "phone": "054-430-7773", "lat": 36.12092310135197, "lng": 128.18731644504396, "region": "경상북도", "district": "김천시"}, {"name": "양산서창점", "address": "경상남도 양산시 삼호동 705-3", "phone": "055-381-4628", "lat": 35.4147383, "lng": 129.1708592, "region": "경상남도", "district": "양산시"}, {"name": "원주명륜남부점", "address": "강원도 원주시 남원로 659-2번지 원일빌딩 102호", "phone": "033-766-2425", "lat": 37.341955, "lng": 127.953879, "region": "강원도", "district": "원주시"}, {"name": "신호동점", "address": "부산광역시 강서구 신호산단2로 39 부경타운상가 101호", "phone": "051-973-7977", "lat": 35.0854488, "lng": 128.8777265, "region": "부산광역시", "district": "강서구"}, {"name": "의성점", "address": "경상북도 의성군 의성읍 후죽리 575-2", "phone": "054-834-5353", "lat": 36.3514369, "lng": 128.6969764, "region": "경상북도", "district": "의성군"}, {"name": "경주터미널점", "address": "경상북도 경주시 노서동 181-6", "phone": "054-777-6776", "lat": 35.8398917, "lng": 129.2030776, "region": "경상북도", "district": "경주시"}, {"name": "제주대정점", "address": "제주특별자치도 서귀포시 대정읍 하모상가로 35, 1층", "phone": "064-792-5055", "lat": 33.221825, "lng": 126.252631, "region": "제주특별자치도", "district": "서귀포시"}, {"name": "김포통진점", "address": "경기도 김포시 통진읍 마송리 110-2", "phone": "031-986-8001", "lat": 37.6909239, "lng": 126.5976226, "region": "경기도", "district": "김포시"}, {"name": "울산전하점", "address": "울산광역시 동구 전하동 550-80", "phone": "052-232-8883", "lat": 35.5127368, "lng": 129.42686, "region": "울산광역시", "district": "동구"}, {"name": "경주금장점", "address": "경상북도 경주시 현곡면 금장8리 439번지 세정스위츠리버아파트 상가 1동 1층 105호", "phone": "054-777-0037", "lat": 35.8664403, "lng": 129.2023949, "region": "경상북도", "district": "경주시"}, {"name": "문경시청점", "address": "경상북도 문경시 모전동 864-5 브리티쉬 오피스텔 102호", "phone": "054-552-0118", "lat": 36.5861683, "lng": 128.1886579, "region": "경상북도", "district": "문경시"}, {"name": "은행중앙로점", "address": "대전광역시 중구 은행동 126-9 오성타워 1층", "phone": "042-255-6007", "lat": 36.329822, "lng": 127.4248722, "region": "대전광역시", "district": "중구"}, {"name": "진천역점", "address": "대구광역시 달서구 월배로 80 대성스카이렉스 401동 121호", "phone": "053-634-2114", "lat": 35.8132331, "lng": 128.5237828, "region": "대구광역시", "district": "달서구"}, {"name": "제주중문점", "address": "제주특별자치도 서귀포시 천제연로 182", "phone": "064-739-9800", "lat": 33.2515975, "lng": 126.4239558, "region": "제주특별자치도", "district": "서귀포시"}, {"name": "오창호수공원점", "address": "충청북도 청주시 청원구 오창읍 양청리 819-1 엔젤알파 117호", "phone": "043-215-2244", "lat": 36.7132673, "lng": 127.4291678, "region": "충청북도", "district": "청주시"}, {"name": "대구월성점", "address": "대구광역시 달서구 월성동 1540-2 원더풀스파랜드 119호", "phone": "053-268-5454", "lat": 35.8243628, "lng": 128.5241105, "region": "대구광역시", "district": "달서구"}, {"name": "울산염포점", "address": "울산광역시 북구 염포동 138-17", "phone": "052-288-7769", "lat": 35.5358145, "lng": 129.3891943, "region": "울산광역시", "district": "북구"}, {"name": "충북오송점", "address": "충청북도 청주시 흥덕구 오송읍 만수리 520번지 101호", "phone": "043-239-1113", "lat": 36.630718, "lng": 127.3307477, "region": "충청북도", "district": "청주시"}, {"name": "충북괴산점", "address": "충청북도 괴산군 괴산읍 괴강로4", "phone": "043-834-7788", "lat": 36.8089463, "lng": 127.7949471, "region": "충청북도", "district": "괴산군"}, {"name": "청주지웰시티점", "address": "충청북도 청주시 흥덕구 대농로 49, 에이동 103호(복대동, 에스와이스타몰)", "phone": "043-232-0082", "lat": 36.643276, "lng": 127.4264358, "region": "충청북도", "district": "청주시"}, {"name": "아산삼성디스플레이점", "address": "충청남도 아산시 탕정면 명암길 3번길 22, 102호", "phone": "041-533-5336", "lat": 36.8207756, "lng": 127.0575988, "region": "충청남도", "district": "아산시"}, {"name": "서강대점", "address": "서울특별시 마포구 백범로 35 곤자가프라자 지하1층 107호", "phone": "02-715-5763", "lat": 37.5508972, "lng": 126.9438622, "region": "서울특별시", "district": "마포구"}, {"name": "오산세교점", "address": "경기도 오산시 수목원로 458, 1층 102호", "phone": "031-377-5869", "lat": 37.174739, "lng": 127.0505284, "region": "경기도", "district": "오산시"}, {"name": "대구대점", "address": "경상북도 경산시 진량읍 내리리 108-5", "phone": "053-854-0056", "lat": 35.8967414, "lng": 128.849168, "region": "경상북도", "district": "경산시"}, {"name": "논현힐탑점", "address": "서울특별시 강남구 논현로 120 길 14, 1층 102호", "phone": "02-514-1112", "lat": 37.5107985, "lng": 127.0332966, "region": "서울특별시", "district": "강남구"}, {"name": "양산석산리점", "address": "경상남도 양산시 동면 석산리 1452-7(101호)", "phone": "055-363-0979", "lat": 35.3165727, "lng": 129.0256592, "region": "경상남도", "district": "양산시"}, {"name": "여수문수점", "address": "전라남도 여수시 문수동 124-1번지", "phone": "061-655-1114", "lat": 34.7531614, "lng": 127.7025271, "region": "전라남도", "district": "여수시"}, {"name": "광주조선대정문점", "address": "광주광역시 동구 서석동 466-1", "phone": "062-233-2111", "lat": 35.1440503, "lng": 126.9252299, "region": "광주광역시", "district": "동구"}, {"name": "대전동산고옆점", "address": "대전광역시 중구 문화로 179, 1층", "phone": "042-586-0530", "lat": 36.3147372, "lng": 127.4050142, "region": "대전광역시", "district": "중구"}, {"name": "화순점", "address": "전라남도 화순군 화순읍 일심리 678번지", "phone": "061-371-1116", "lat": 35.0570205, "lng": 126.9926253, "region": "전라남도", "district": "화순군"}, {"name": "대전도룡점", "address": "대전광역시 유성구 대덕대로 594", "phone": "042-864-1134", "lat": 36.38588519999999, "lng": 127.37901779999993, "region": "대전광역시", "district": "유성구"}, {"name": "남산그린타운점", "address": "대구광역시 중구 달구벌대로 1950", "phone": "053-424-3342", "lat": 35.8622582, "lng": 128.57731230000002, "region": "대구광역시", "district": "중구"}, {"name": "제물포역점", "address": "인천광역시 남구 경인로 135", "phone": "032-887-1113", "lat": 37.4664284, "lng": 126.65780359999997, "region": "인천광역시", "district": "남구"}, {"name": "시흥시화공고옆점", "address": "경기도 시흥시 정왕동 1516", "phone": "031-319-1929", "lat": 37.344227, "lng": 126.75223289999997, "region": "경기도", "district": "시흥시"}, {"name": "동서대2호점", "address": "부산광역시 사상구 주례로 82", "phone": "051-311-0856", "lat": 35.1466157, "lng": 129.0075207, "region": "부산광역시", "district": "사상구"}, {"name": "창원대방점", "address": "경상남도 창원시 성산구 가양로136번길 2", "phone": "055-274-1233", "lat": 35.20940811220989, "lng": 128.70785231345712, "region": "경상남도", "district": "창원시"}, {"name": "동광양중동점", "address": "전라남도 광양시 중동 1758-8번지", "phone": "061-793-9395", "lat": 34.93563779999999, "lng": 127.69968489999997, "region": "전라남도", "district": "광양시"}, {"name": "테크노폴리스봉리점", "address": "대구광역시 달성군 유가면 테크노상업로 112,1층 103호", "phone": "053-611-5852", "lat": 35.6933455925257, "lng": 128.4619972635071, "region": "대구광역시", "district": "달성군"}, {"name": "충북혁신도시점", "address": "충청북도 음성군 맹동면 대하로 271, 101호", "phone": "043-883-4875", "lat": 36.91156955967019, "lng": 127.54422269975282, "region": "충청북도", "district": "음성군"}, {"name": "르네상스호텔사거리점", "address": "서울특별시 강남구 역삼동 720-25 역삼 디오빌 1층", "phone": "02-501-1144", "lat": 37.501473273958865, "lng": 127.04274671534426, "region": "서울특별시", "district": "강남구"}, {"name": "성남모란역4번출구앞점", "address": "경기도 성남시 중원구 성남대로 1130번길  3, 102호(성남동 엠스퀘어빌딩)", "phone": "031-756-9991", "lat": 37.4306939, "lng": 127.12978599999997, "region": "경기도", "district": "성남시"}, {"name": "서산해미점", "address": "충청남도 서산시 해미면 남문5로 29, 1층", "phone": "041-688-0881", "lat": 36.71088273688725, "lng": 126.5436214515205, "region": "충청남도", "district": "서산시"}, {"name": "대구이월드점", "address": "두류공원로 200", "phone": "053-625-0235", "lat": 35.85006808986637, "lng": 128.56702158891608, "region": "두류공원로", "district": ""}, {"name": "영주가흥신도시점", "address": "대동로 22", "phone": "054-632-0340", "lat": 36.81489792545592, "lng": 128.60495036443479, "region": "대동로", "district": ""}, {"name": "의정부민락예스타워점", "address": "오목로 205번길 1, 1층 103호", "phone": "031-852-0709", "lat": 37.744508322987016, "lng": 127.0980735357208, "region": "오목로", "district": ""}, {"name": "용인보정동카페거리점", "address": "기흥구 죽전로 10, 장은메디칼프라자 1층 103호", "phone": "031-889-8480", "lat": 37.3202465, "lng": 127.10980470000004, "region": "기흥구", "district": ""}, {"name": "충남청양점", "address": "충청남도 청양군 청양읍 중앙로 13길 1", "phone": "041-943-8661", "lat": 36.45293915352127, "lng": 126.80321251230316, "region": "충청남도", "district": "청양군"}, {"name": "대구북부정류장점", "address": "서대구로 306", "phone": "053-352-7778", "lat": 35.88498103585463, "lng": 128.55735639087675, "region": "서대구로", "district": ""}, {"name": "강동성심병원점", "address": "강동구 진황도로 74", "phone": "02-476-4740", "lat": 37.536804464707195, "lng": 127.13482993743446, "region": "강동구", "district": ""}, {"name": "배곧유호엔시티점", "address": "경기도 시흥시 서울대학로 278번길 43-7, 131호", "phone": "031-488-9870", "lat": 37.3687493, "lng": 126.7297477, "region": "경기도", "district": "시흥시"}, {"name": "여수웅천지구점", "address": "전라남도 여수시 웅천중앙로 77", "phone": "061-682-7114", "lat": 34.74860665659769, "lng": 127.67560696826172, "region": "전라남도", "district": "여수시"}, {"name": "구로개봉점", "address": "서울특별시 구로구 개봉로 17길 8 (개봉동)", "phone": "02-2688-2414", "lat": 37.49169599999999, "lng": 126.85540289999994, "region": "서울특별시", "district": "구로구"}, {"name": "삼성전자화성캠퍼스점", "address": "경기도 화성시 석우동 31-2 디지털스테이션 제1층 제121호", "phone": "031-613-8255", "lat": 37.2181827, "lng": 127.07787380000002, "region": "경기도", "district": "화성시"}, {"name": "서초논현역점", "address": "서울특별시 서초구 신반포로 329, 1층 7호(잠원동, 세기빌딩)", "phone": "02-511-5116", "lat": 37.51075147893759, "lng": 127.0195388797622, "region": "서울특별시", "district": "서초구"}, {"name": "세종소담점", "address": "세종특별자치시 한누리대로 2016 타임빌딩 111호", "phone": "044-864-2642", "lat": 36.48689731855402, "lng": 127.30098192750847, "region": "세종특별자치시", "district": ""}, {"name": "울산삼산현대점", "address": "울산광역시 남구 삼산동 1545-10, 1층", "phone": "052-267-9600", "lat": 35.5436376, "lng": 129.33875950000004, "region": "울산광역시", "district": "남구"}, {"name": "광교서희스타힐스점", "address": "경기도 수원시 영통구 센트럴타운로 111, 103호 (이의동, 광교스타힐스 오피스텔)", "phone": "031-216-9898", "lat": 37.29269947099845, "lng": 127.0491057322937, "region": "경기도", "district": "수원시"}, {"name": "광주장덕점", "address": "광주광역시 광산구 장덕로 48", "phone": "062-959-7147", "lat": 35.19473708379344, "lng": 126.81497146951983, "region": "광주광역시", "district": "광산구"}, {"name": "숭실대중문점", "address": "사당로 14, 1층(상도동)", "phone": "02-825-5952", "lat": 37.4952631533907, "lng": 126.95601186542899, "region": "사당로", "district": ""}, {"name": "청라호수공원점", "address": "인천광역시 서구 청라루비로 93, 107(경서동, 루비타워)", "phone": "032-566-6408", "lat": 37.533311351145876, "lng": 126.64024846850884, "region": "인천광역시", "district": "서구"}, {"name": "울산성안점", "address": "울산광역시 중구 성안로 194", "phone": "052-233-1313", "lat": 35.5772895, "lng": 129.31813390000002, "region": "울산광역시", "district": "중구"}, {"name": "시흥능곡점", "address": "경기도 시흥시 장현능곡로 198, 105호", "phone": "031-313-8585", "lat": 37.3690346, "lng": 126.81199319999996, "region": "경기도", "district": "시흥시"}, {"name": "동탄능동스타점", "address": "경기도 화성시 동탄원천로 354-11, 1층 113호 (능동, 동탄퍼스트빌스타)", "phone": "031-8003-1840", "lat": 37.21876915733995, "lng": 127.05771942272338, "region": "경기도", "district": "화성시"}, {"name": "부천원미점", "address": "경기도 부천시 원미로 126, 1층 104호(원미동, 원미동명성프라자)", "phone": "032-655-0822", "lat": 37.493816, "lng": 126.79143410000006, "region": "경기도", "district": "부천시"}, {"name": "광교법조타운점", "address": "경기도 수원시 영통구 광교중앙로 266번길 30, 110호", "phone": "031-211-1559", "lat": 37.29234706971052, "lng": 127.06869548789678, "region": "경기도", "district": "수원시"}, {"name": "속초여고옆점", "address": "강원도 속초시 동해대로 4335, 1층(교동)", "phone": "033-631-1505", "lat": 38.2019806, "lng": 128.5684824, "region": "강원도", "district": "속초시"}, {"name": "가재울뉴타운점", "address": "서울특별시 서대문구 수색로 100, 4단지 상가1동 1층 8호 (북가좌동,DMC래미안e편한세상)", "phone": "02-304-1585", "lat": 37.57739738466401, "lng": 126.91013523631523, "region": "서울특별시", "district": "서대문구"}, {"name": "예천신도시점", "address": "경상북도 예천군 호명면 산합리 1398번지 경북도청신도시우방아이유쉘센트럴 제상가동 109호", "phone": "054-652-8828", "lat": 36.57865018342213, "lng": 128.4932261550781, "region": "경상북도", "district": "예천군"}, {"name": "대구수성구청역점", "address": "달구벌대로 2494", "phone": "053-754-1993", "lat": 35.85856500000001, "lng": 128.6354796, "region": "달구벌대로", "district": ""}, {"name": "청주금천점", "address": "충북청주시 상당구 산성로 112번길 32, 한라멤버스 109호", "phone": "043-292-7363", "lat": 36.63163249999999, "lng": 127.506169, "region": "충북청주시", "district": "상당구"}, {"name": "충북보은점", "address": "충청북도 보은군 보은읍 삼산남로 35", "phone": "043-544-7700", "lat": 36.4823835, "lng": 127.71870820000004, "region": "충청북도", "district": "보은군"}, {"name": "수원영통구청점", "address": "경기도 수원시 영통구 효원로 387, 1층 104호 (매탄동, 풍성프라자)", "phone": "031-213-9003", "lat": 37.27504880000001, "lng": 127.0567165, "region": "경기도", "district": "수원시"}, {"name": "청주봉명점", "address": "충청북도 청주시 흥덕구 덕암로114번길 49 , 1동 101호", "phone": "043-272-5277", "lat": 36.6497665, "lng": 127.4601215, "region": "충청북도", "district": "청주시"}, {"name": "대전비래점", "address": "대전광역시 대덕구 비래동 140-1", "phone": "042-621-2224", "lat": 36.3551509, "lng": 127.44996519999995, "region": "대전광역시", "district": "대덕구"}, {"name": "광주운암경신점", "address": "광주광역시 북구 운암동 397-32", "phone": "062-514-4525", "lat": 35.17245279999999, "lng": 126.88875389999998, "region": "광주광역시", "district": "북구"}, {"name": "송파문정엠스테이트점", "address": "서울특별시 송파구 문정동 643-1 엠스테이트 C동 109호", "phone": "02-401-6464", "lat": 37.48541710810609, "lng": 127.12105670262451, "region": "서울특별시", "district": "송파구"}, {"name": "별내신안점", "address": "경기도 남양주 별내동 1096 1층 1호", "phone": "031-574-8683", "lat": 37.64994013323658, "lng": 127.11404025663171, "region": "경기도", "district": ""}, {"name": "인천논현점", "address": "인천광역시 남동구 논고개로 120, 1층 108호(논현동, 논현프라자)", "phone": "032-710-9300", "lat": 37.4019684, "lng": 126.72442569999998, "region": "인천광역시", "district": "남동구"}, {"name": "천안구성점", "address": "충청남도 천안시 동남구 구성동 259 신성미소지움 제상가B동 101호", "phone": "041-553-5987", "lat": 36.7930322, "lng": 127.16372750000005, "region": "충청남도", "district": "천안시"}, {"name": "영대병원남문점", "address": "대구광역시 남구 대명동 137-10", "phone": "053-202-2131", "lat": 35.845159, "lng": 128.5862968, "region": "대구광역시", "district": "남구"}, {"name": "안양관양동점", "address": "경기도 안양시 동안구 관악대로 287번길 27 103호", "phone": "031-342-8552", "lat": 37.4041003, "lng": 126.95445960000006, "region": "경기도", "district": "안양시"}, {"name": "영광읍내점", "address": "전라남도 영광군 영광읍 중앙로 177-3", "phone": "061-352-8600", "lat": 35.2748507, "lng": 126.5116951, "region": "전라남도", "district": "영광군"}, {"name": "김포운양점", "address": "경기도 김포시 김포한강1로 227 126호", "phone": "031-991-9516", "lat": 37.65413026485878, "lng": 126.68307133763415, "region": "경기도", "district": "김포시"}, {"name": "전주중화산점", "address": "전라북도 전주시 완산구 서신동 855-3", "phone": "063-253-2111", "lat": 35.8255529, "lng": 127.11557300000004, "region": "전라북도", "district": "전주시"}, {"name": "구미확장단지점", "address": "경상북도 구미시 산동면 신당2로 23", "phone": "054-474-3430", "lat": 36.155460471447036, "lng": 128.4375264729324, "region": "경상북도", "district": "구미시"}, {"name": "청주개신중앙점", "address": "충청북도 청주시 서원구 개신동697번지", "phone": "043-233-7107", "lat": 36.61864946697742, "lng": 127.44576579330078, "region": "충청북도", "district": "청주시"}, {"name": "청주산남법원점", "address": "충청북도 청주시 서원구 산남로 63", "phone": "043-288-7740", "lat": 36.6109068, "lng": 127.46711900000003, "region": "충청북도", "district": "청주시"}, {"name": "대전원내점", "address": "대전광역시 유성구 원내동 320-6번지 원내코아 1층 102호", "phone": "042-541-8225", "lat": 36.299634, "lng": 127.31982600000003, "region": "대전광역시", "district": "유성구"}, {"name": "센텀중앙로점", "address": "부산광역시 해운대구 센텀중앙로 90 117-1호 (재송동)", "phone": "051-783-0737", "lat": 35.17525484233425, "lng": 129.1262995334614, "region": "부산광역시", "district": "해운대구"}, {"name": "목감신도시점", "address": "경기도 시흥시 목감둘레로 253-7, 1층 112호(조남동, 목감역이지움더테라스2차)", "phone": "031-507-9700", "lat": 37.38076149786807, "lng": 126.86106114065183, "region": "경기도", "district": "시흥시"}, {"name": "울산센트럴자이점", "address": "울산광역시 남구 달동 1353-3", "phone": "052-273-1004", "lat": 35.5398649, "lng": 129.33296930000006, "region": "울산광역시", "district": "남구"}, {"name": "동의대정문점", "address": "부산광역시 부산진구 엄광로 179(가야동)", "phone": "051-316-8033", "lat": 35.1477214, "lng": 129.03419669999994, "region": "부산광역시", "district": "부산진구"}, {"name": "제주법원점", "address": "제주특별자치도 제주시 중앙로 323 1층", "phone": "064-900-7690", "lat": 33.4925118, "lng": 126.53621939999994, "region": "제주특별자치도", "district": "제주시"}, {"name": "양주옥정엠타워점", "address": "경기도 양주시 회천남로 88", "phone": "031-864-1005", "lat": 37.81857670437567, "lng": 127.09301854914145, "region": "경기도", "district": "양주시"}, {"name": "청주용암점", "address": "충청북도 청주시 상당구 월평로 228 태성빌딩 103호", "phone": "043-285-2014", "lat": 36.6073881, "lng": 127.50833899999998, "region": "충청북도", "district": "청주시"}, {"name": "제주대정문점", "address": "제주대학로 107 (아라이동)", "phone": "064-753-6700", "lat": 33.46032649999999, "lng": 126.56154859999992, "region": "제주대학로", "district": ""}, {"name": "죽전건영캐스빌점", "address": "수지구 현암로 153, 114호 (죽전동 건영타운)", "phone": "031-889-2988", "lat": 37.3319196, "lng": 127.12643320000006, "region": "수지구", "district": ""}, {"name": "도화점", "address": "인천광역시 미추홀구 숙골로87번길 8 (도화동, 에덴마트도화점)", "phone": "032-875-3005", "lat": 37.4699864, "lng": 126.66319780000003, "region": "인천광역시", "district": "미추홀구"}, {"name": "별내이레타워점", "address": "경기도 남양주시 별내면 1006-3 102호", "phone": "031-516-8959", "lat": 37.7024045, "lng": 127.1246208, "region": "경기도", "district": "남양주시"}, {"name": "대구가톨릭대점", "address": "경상북도 경산시 하양읍 하양로 13-13 대구카톨릭대학교 기숙사식당 1층 107호", "phone": "053-854-1700", "lat": 35.91215520000001, "lng": 128.80777899999998, "region": "경상북도", "district": "경산시"}, {"name": "대전스마트시티점", "address": "대전광역시 유성구 엑스포로123번길 34, 127호(도룡동, 도룡코아루스마트리치오피스텔)", "phone": "042-864-4919", "lat": 36.3761567, "lng": 127.3939815, "region": "대전광역시", "district": "유성구"}, {"name": "울산화정점", "address": "울산광역시 동구 화정동 대학길 80", "phone": "052-201-2400", "lat": 35.4983722, "lng": 129.42202810000003, "region": "울산광역시", "district": "동구"}, {"name": "부산망미점", "address": "부산광역시 수영구 과정로73 하영메디칼빌딩1층", "phone": "051-753-5454", "lat": 35.177875550841556, "lng": 129.10705616382367, "region": "부산광역시", "district": "수영구"}, {"name": "일산MBC드림센타점", "address": "경기도 고양시 일산동구 정발산로 15 (장항동, 드림월드빌딩) 1층 113호", "phone": "031-932-6600", "lat": 37.65632120000001, "lng": 126.77049869999996, "region": "경기도", "district": "고양시"}, {"name": "정자동동양파라곤점", "address": "경기도 성남시 분당구 정자동 13-1 동양파라곤 제3단지상가 115호", "phone": "031-712-9230", "lat": 37.369239, "lng": 127.10606000000007, "region": "경기도", "district": "성남시"}, {"name": "영종하늘도시점", "address": "인천광역시 중구 중산동 1884-1 이은스퀘어 128호", "phone": "032-746-8811", "lat": 37.4969641, "lng": 126.55511049999996, "region": "인천광역시", "district": "중구"}, {"name": "전주예수병원점", "address": "완산구 중화산동1가 예수병원 암센터 지하 1층 상가", "phone": "063-285-1008", "lat": 35.8141942, "lng": 127.13330769999993, "region": "완산구", "district": ""}, {"name": "제주외도동점", "address": "우정로 85", "phone": "064-745-2589", "lat": 33.485127659620474, "lng": 126.4310473699752, "region": "우정로", "district": ""}, {"name": "고양원흥점", "address": "덕양구 도래울로 34, 1(일부)층 (도내동)", "phone": "031-969-2500", "lat": 37.628948445580534, "lng": 126.86840585634468, "region": "덕양구", "district": ""}, {"name": "광주봉선점", "address": "제석로 80번길 47", "phone": "062-416-5949", "lat": 35.1210173, "lng": 126.91143310000007, "region": "제석로", "district": ""}, {"name": "만수점", "address": "만수동 68-5 비동 21호", "phone": "032-469-3929", "lat": 37.4619542, "lng": 126.73602310000001, "region": "만수동", "district": ""}, {"name": "포항초곡점", "address": "북구 흥해읍 초곡지구로58번길 38-6 1층", "phone": "054-262-8844", "lat": 36.09553326619377, "lng": 129.3401935435669, "region": "북구", "district": ""}, {"name": "울산화봉점", "address": "화봉동 1466번지 113호", "phone": "052-288-1482", "lat": 35.5944168, "lng": 129.37064759999998, "region": "화봉동", "district": ""}, {"name": "시흥은계점", "address": "은계남로 12, 상가동 1층 153호", "phone": "031-313-1993", "lat": 37.4476924, "lng": 126.79782120000004, "region": "은계남로", "district": ""}, {"name": "김포구래점", "address": "김포한강4로 521, 107호(구래동, 한강메디플라자)", "phone": "031-987-7741", "lat": 37.63735339999999, "lng": 126.63266049999993, "region": "김포한강4로", "district": ""}, {"name": "청도읍내점", "address": "청도읍 청화로 150-1", "phone": "054-371-0801", "lat": 35.6439024, "lng": 128.7422412, "region": "청도읍", "district": ""}, {"name": "세종보람점", "address": "세종특별자치시 남세종로 458 아리랑빌딩 108호", "phone": "044-868-6888", "lat": 36.4770449, "lng": 127.2892331, "region": "세종특별자치시", "district": ""}, {"name": "울산신복점", "address": "울산광역시 남구 무거동 825-12", "phone": "052-249-0313", "lat": 35.548377, "lng": 129.2600225, "region": "울산광역시", "district": "남구"}, {"name": "마산삼계점", "address": "경상남도 창원시 마산회원구 내서읍 삼계로7, 101호", "phone": "055-232-2089", "lat": 35.2318772, "lng": 128.5040908, "region": "경상남도", "district": "창원시"}, {"name": "구월로데오점", "address": "인천광역시 남동구 구월동 1464 링크126 101-에이호", "phone": "032-424-0708", "lat": 37.4452598, "lng": 126.7008654, "region": "인천광역시", "district": "남동구"}, {"name": "부천중동미리내점", "address": "경기도 부천시 중동로248번길 44, 106호", "phone": "032-328-0309", "lat": 37.5012036, "lng": 126.7711775, "region": "경기도", "district": "부천시"}, {"name": "전주효자점", "address": "전라북도 전주시 완산구 마전들로 56", "phone": "063-285-8858", "lat": 35.8208279, "lng": 127.101665, "region": "전라북도", "district": "전주시"}, {"name": "대구감삼역점", "address": "대구광역시 달서구 달구벌대로 1666, 제1동 1층 112호", "phone": "053-657-5114", "lat": 35.8541856, "lng": 128.5485213, "region": "대구광역시", "district": "달서구"}, {"name": "부천오정점", "address": "경기도 부천시 오정로 249, 1층 116호", "phone": "032-671-2747", "lat": 37.5298209, "lng": 126.7859591, "region": "경기도", "district": "부천시"}, {"name": "대전월평점", "address": "대전광역시 서구 월평동 262번지 둔산프라자 1층", "phone": "042-484-1005", "lat": 36.36124775672093, "lng": 127.3768819933014, "region": "대전광역시", "district": "서구"}, {"name": "인천가정점", "address": "인천광역시 서구 봉오재3로 100, 104호", "phone": "032-713-4589", "lat": 37.52724042741091, "lng": 126.6707098059128, "region": "인천광역시", "district": "서구"}, {"name": "울산야음점", "address": "수암로 157", "phone": "052-266-7702", "lat": 35.52706069999999, "lng": 129.3241576, "region": "수암로", "district": ""}, {"name": "염창역2번출구점", "address": "공항대로 629", "phone": "02-3663-8249", "lat": 37.5472055, "lng": 126.8748507, "region": "공항대로", "district": ""}, {"name": "인천원창북항점", "address": "인천광역시 서구 북항로 32번안길 9-20 107호", "phone": "032-572-9653", "lat": 37.5107122, "lng": 126.648295, "region": "인천광역시", "district": "서구"}, {"name": "창원NC파크점", "address": "경상남도 창원시 마산합포구 용마로 90", "phone": "055-248-2285", "lat": 35.2207604, "lng": 128.5832215, "region": "경상남도", "district": "창원시"}, {"name": "경산펜타힐즈점", "address": "펜타힐즈2로 37", "phone": "053-812-3114", "lat": 35.82689, "lng": 128.7206228, "region": "펜타힐즈2로", "district": ""}, {"name": "대구방촌점", "address": "주소 대구 동구 동촌로 245", "phone": "053-981-9360", "lat": 35.8810355, "lng": 128.6670681, "region": "주소", "district": "대구"}, {"name": "사직학원가점", "address": "부산광역시 연제구 아시아드대로 79, 1층 102호(거제동)", "phone": "051-717-2925", "lat": 35.1915469, "lng": 129.0668674, "region": "부산광역시", "district": "연제구"}, {"name": "광명일직점", "address": "일직로12번길 11, 서현빌딩 105호", "phone": "02-899-9877", "lat": 37.4217251, "lng": 126.8830809, "region": "일직로12번길", "district": ""}, {"name": "광주말바우사거리점", "address": "서방로 88", "phone": "062-449-5509", "lat": 35.170993, "lng": 126.9220092, "region": "서방로", "district": ""}, {"name": "울산서동점", "address": "중구 동천서로 56", "phone": "052-286-1159", "lat": 35.5837529, "lng": 129.3447225, "region": "중구", "district": ""}, {"name": "가산센트럴점", "address": "서울특별시 금천구 디지털로10길 69 (가산동) 지1층 604호", "phone": "02-855-1117", "lat": 37.47670025616199, "lng": 126.89022266085202, "region": "서울특별시", "district": "금천구"}, {"name": "창원감계점", "address": "경상남도 창원시 의창구 북면 감계리 102-1호", "phone": "055-298-2229", "lat": 35.30346732913999, "lng": 128.59650469592282, "region": "경상남도", "district": "창원시"}, {"name": "영광도서하늘정원점", "address": "부산광역시 부산진구 서면문화로 10 (부전동, 영광도서) 10층", "phone": "070-4020-2530", "lat": 35.1587732, "lng": 129.0576897, "region": "부산광역시", "district": "부산진구"}, {"name": "천안성성점", "address": "충청남도 천안시 서북구 성성8로 14-10 (성성동)", "phone": "041-415-1320", "lat": 36.8461792, "lng": 127.1205458, "region": "충청남도", "district": "천안시"}, {"name": "부천테크노파크쌍용3차점", "address": "경기도 부천시 석천로 397, 부천테크노파크쌍용3차 203동 304호", "phone": "032-624-2233", "lat": 37.5229317, "lng": 126.7681288, "region": "경기도", "district": "부천시"}, {"name": "파주산내점", "address": "경기도 파주시 교하로 83, 동광위너스프라자 101호", "phone": "031-941-2334", "lat": 37.7241478, "lng": 126.7232742, "region": "경기도", "district": "파주시"}, {"name": "시흥장현점", "address": "경기도 시흥시 장현서 3길 8 상가1층 101호", "phone": "031-311-1272", "lat": 37.3798877, "lng": 126.8031025, "region": "경기도", "district": "시흥시"}, {"name": "경주용황지구점", "address": "경상북도 경주시 용강동 161 한솥도시락 경주용황지구점", "phone": "054-749-0081", "lat": 35.8835468, "lng": 129.2278191, "region": "경상북도", "district": "경주시"}, {"name": "선유도역점", "address": "서울특별시 영등포구 양평로 111 1층", "phone": "02-6487-5416", "lat": 37.5370777, "lng": 126.8950576, "region": "서울특별시", "district": "영등포구"},