[
  {
    "name": "이삭토스트 서울명동성당점",
    "region": "서울",
    "district": "중구",
    "address": "서울 중구 명동2가 3-11 1층",
    "road_address": "서울 중구 명동10길 17-1",
    "phone": "02-3789-2043",
    "lat": 37.56296628,
    "lng": 126.98551688
  },
  {
    "name": "이삭토스트 서울홍대점",
    "region": "서울",
    "district": "마포구",
    "address": "서울 마포구 서교동 358-28 2층",
    "road_address": "서울 마포구 와우산로 93",
    "phone": "",
    "lat": 37.55271907,
    "lng": 126.92396499
  },
  {
    "name": "이삭토스트",
    "region": "서울",
    "district": "광진구",
    "address": "서울 광진구 자양동 8-22 1층",
    "road_address": "서울 광진구 아차산로30길 8",
    "phone": "02-465-5949",
    "lat": 37.54040931,
    "lng": 127.0676686
  },
  {
    "name": "이삭토스트 서울남대문점",
    "region": "서울",
    "district": "중구",
    "address": "서울 중구 남대문로4가 20-9 1층",
    "road_address": "서울 중구 남대문로 2-3",
    "phone": "02-3789-2322",
    "lat": 37.56025911,
    "lng": 126.97636788
  },
  {
    "name": "이삭토스트 한티역점",
    "region": "서울",
    "district": "강남구",
    "address": "서울 강남구 대치동 935-1 1층",
    "road_address": "서울 강남구 도곡로63길 16",
    "phone": "02-557-3060",
    "lat": 37.4980132,
    "lng": 127.0543042
  },
  {
    "name": "이삭토스트 구로디지털단지점",
    "region": "서울",
    "district": "구로구",
    "address": "서울 구로구 구로동 1129-1 주호타워 1층 103호",
    "road_address": "서울 구로구 시흥대로163길 33",
    "phone": "02-853-2003",
    "lat": 37.48194751,
    "lng": 126.89821558
  },
  {
    "name": "이삭토스트 방배동점",
    "region": "서울",
    "district": "서초구",
    "address": "서울 서초구 방배동 924-14 수정빌딩 1층",
    "road_address": "서울 서초구 방배로 113",
    "phone": "02-582-4837",
    "lat": 37.48408792,
    "lng": 126.99569333
  },
  {
    "name": "이삭토스트 논현역점",
    "region": "서울",
    "district": "서초구",
    "address": "서울 서초구 반포동 724-26 101호",
    "road_address": "서울 서초구 사평대로55길 82-14",
    "phone": "02-512-0522",
    "lat": 37.50783563,
    "lng": 127.02177881
  },
  {
    "name": "이삭토스트 종로3가점",
    "region": "서울",
    "district": "종로구",
    "address": "서울 종로구 종로3가 103-2 1층",
    "road_address": "서울 종로구 수표로 98",
    "phone": "02-2273-8804",
    "lat": 37.56994853,
    "lng": 126.9896132
  },
  {
    "name": "이삭토스트 강남점",
    "region": "서울",
    "district": "서초구",
    "address": "서울 서초구 서초동 1327 서초타운트라팰리스 1층 106호",
    "road_address": "서울 서초구 서초대로74길 23",
    "phone": "02-525-6407",
    "lat": 37.49563146,
    "lng": 127.02720778
  },
  {
    "name": "이삭토스트 서울명동점",
    "region": "서울",
    "district": "중구",
    "address": "서울 중구 충무로1가 24-41 1층",
    "road_address": "서울 중구 퇴계로 105",
    "phone": "02-752-3002",
    "lat": 37.56086939,
    "lng": 126.98349813
  },
  {
    "name": "이삭토스트 서초역점",
    "region": "서울",
    "district": "서초구",
    "address": "서울 서초구 서초동 1502-1 1층",
    "road_address": "서울 서초구 반포대로27길 23",
    "phone": "02-522-5531",
    "lat": 37.48975244,
    "lng": 127.00688848
  },
  {
    "name": "이삭토스트 서초구청점",
    "region": "서울",
    "district": "서초구",
    "address": "서울 서초구 서초동 1364-47 1층 101호",
    "road_address": "서울 서초구 남부순환로347길 13",
    "phone": "",
    "lat": 37.48501195,
    "lng": 127.03175487
  },
  {
    "name": "이삭토스트 을지로4가역점",
    "region": "서울",
    "district": "중구",
    "address": "서울 중구 주교동 246",
    "road_address": "서울 중구 을지로33길 20",
    "phone": "02-2275-2480",
    "lat": 37.56732051,
    "lng": 126.99949347
  },
  {
    "name": "이삭토스트 경복궁역점",
    "region": "서울",
    "district": "종로구",
    "address": "서울 종로구 체부동 47-1 1층",
    "road_address": "서울 종로구 자하문로 11",
    "phone": "02-733-8044",
    "lat": 37.5770248,
    "lng": 126.97210264
  },
  {
    "name": "이삭토스트 서울신촌점",
    "region": "서울",
    "district": "서대문구",
    "address": "서울 서대문구 창천동 62-4 1층",
    "road_address": "서울 서대문구 연세로5길 32",
    "phone": "02-324-2444",
    "lat": 37.55637852,
    "lng": 126.93539419
  },
  {
    "name": "이삭토스트 동서울터미널점",
    "region": "서울",
    "district": "광진구",
    "address": "서울 광진구 구의동 546-11 강변역지너스타워 1층 101호",
    "road_address": "서울 광진구 강변역로4길 10",
    "phone": "02-444-2722",
    "lat": 37.5352059,
    "lng": 127.09325508
  },
  {
    "name": "이삭토스트 서울삼전동점",
    "region": "서울",
    "district": "송파구",
    "address": "서울 송파구 삼전동 73-10 대성빌딩 1층 104호",
    "road_address": "서울 송파구 백제고분로32길 6-1",
    "phone": "02-419-7960",
    "lat": 37.50180592,
    "lng": 127.09503149
  },
  {
    "name": "이삭토스트 이화여대점",
    "region": "서울",
    "district": "서대문구",
    "address": "서울 서대문구 대현동 56-88 1층 가호",
    "road_address": "서울 서대문구 이화여대7길 15",
    "phone": "02-312-2444",
    "lat": 37.55866277,
    "lng": 126.9446966
  },
  {
    "name": "이삭토스트 이수역점",
    "region": "서울",
    "district": "동작구",
    "address": "서울 동작구 사당동 708-459 1층",
    "road_address": "서울 동작구 동작대로25길 40",
    "phone": "02-596-5251",
    "lat": 37.48551625,
    "lng": 126.98023575
  },
  {
    "name": "이삭토스트 한남점",
    "region": "서울",
    "district": "용산구",
    "address": "서울 용산구 한남동 633-3 제일빌딩 1층 4호",
    "road_address": "서울 용산구 대사관로 72",
    "phone": "02-798-9666",
    "lat": 37.53314999,
    "lng": 127.00604449
  },
  {
    "name": "이삭토스트 서울건국대점",
    "region": "서울",
    "district": "광진구",
    "address": "서울 광진구 화양동 495-26 1층",
    "road_address": "서울 광진구 광나루로24길 22",
    "phone": "",
    "lat": 37.54527024,
    "lng": 127.07645291
  },
  {
    "name": "이삭토스트 창천점",
    "region": "서울",
    "district": "서대문구",
    "address": "서울 서대문구 창천동 508-2 1층",
    "road_address": "서울 서대문구 신촌로 9",
    "phone": "02-322-6745",
    "lat": 37.55849166,
    "lng": 126.92812747
  },
  {
    "name": "이삭토스트 구로3동점",
    "region": "서울",
    "district": "구로구",
    "address": "서울 구로구 구로동 170-1 덕창빌딩 1층 107호",
    "road_address": "서울 구로구 도림로20길 18",
    "phone": "02-851-0077",
    "lat": 37.4890549,
    "lng": 126.89238607
  },
  {
    "name": "이삭토스트 서울방이역점",
    "region": "서울",
    "district": "송파구",
    "address": "서울 송파구 방이동 213-1 은성빌딩 1층",
    "road_address": "서울 송파구 마천로 24",
    "phone": "",
    "lat": 37.50946776,
    "lng": 127.1235954
  },
  {
    "name": "이삭토스트 신대방삼거리역점",
    "region": "서울",
    "district": "동작구",
    "address": "서울 동작구 대방동 337-4 1층",
    "road_address": "서울 동작구 국사봉1길 7",
    "phone": "02-813-3110",
    "lat": 37.49900443,
    "lng": 126.92894448
  },
  {
    "name": "이삭토스트 마포용강점",
    "region": "서울",
    "district": "마포구",
    "address": "서울 마포구 용강동 18-3 세일상가 1층 106호",
    "road_address": "서울 마포구 큰우물로 52",
    "phone": "02-711-3040",
    "lat": 37.54197978,
    "lng": 126.9444894
  },
  {
    "name": "이삭토스트 서울신당점",
    "region": "서울",
    "district": "중구",
    "address": "서울 중구 신당동 250-32",
    "road_address": "서울 중구 퇴계로 377",
    "phone": "02-2232-3730",
    "lat": 37.56520177,
    "lng": 127.01350108
  },
  {
    "name": "이삭토스트 미림여고점",
    "region": "서울",
    "district": "관악구",
    "address": "서울 관악구 신림동 305 1층",
    "road_address": "서울 관악구 호암로 534",
    "phone": "02-882-2221",
    "lat": 37.46534253,
    "lng": 126.93163499
  },
  {
    "name": "이삭토스트 서울대입구역점",
    "region": "서울",
    "district": "관악구",
    "address": "서울 관악구 봉천동 858-9 1층",
    "road_address": "서울 관악구 관악로 184",
    "phone": "",
    "lat": 37.48150996,
    "lng": 126.95322636
  },
  {
    "name": "이삭토스트 광화문점",
    "region": "서울",
    "district": "종로구",
    "address": "서울 종로구 세종로 160-2 1층",
    "road_address": "서울 종로구 세종대로23길 5",
    "phone": "02-725-5858",
    "lat": 37.57156115,
    "lng": 126.97609264
  },
  {
    "name": "이삭토스트 응암이마트점",
    "region": "서울",
    "district": "은평구",
    "address": "서울 은평구 응암동 111-48 미성프라임팰리스 1층 103호",
    "road_address": "서울 은평구 은평로 96",
    "phone": "02-356-8044",
    "lat": 37.59943015,
    "lng": 126.91846385
  },
  {
    "name": "이삭토스트 신길뉴타운점",
    "region": "서울",
    "district": "영등포구",
    "address": "서울 영등포구 신길동 4969 지하2층 19호",
    "road_address": "서울 영등포구 신길로28길 9",
    "phone": "02-833-0775",
    "lat": 37.50514156,
    "lng": 126.91089963
  },
  {
    "name": "이삭토스트 서울망원시장점",
    "region": "서울",
    "district": "마포구",
    "address": "서울 마포구 망원동 486-7 1층",
    "road_address": "서울 마포구 망원로8길 17",
    "phone": "",
    "lat": 37.55672467,
    "lng": 126.90610526
  },
  {
    "name": "이삭토스트 장안현대점",
    "region": "서울",
    "district": "동대문구",
    "address": "서울 동대문구 장안동 335-6 1층 14호",
    "road_address": "서울 동대문구 답십리로 304",
    "phone": "070-8868-2400",
    "lat": 37.57170978,
    "lng": 127.07425786
  },
  {
    "name": "이삭토스트 숙명여대점",
    "region": "서울",
    "district": "용산구",
    "address": "서울 용산구 청파동2가 66-2 1층",
    "road_address": "서울 용산구 청파로47길 58",
    "phone": "02-706-2248",
    "lat": 37.54492194,
    "lng": 126.96722508
  },
  {
    "name": "이삭토스트 선릉역점",
    "region": "서울",
    "district": "강남구",
    "address": "서울 강남구 대치동 897 1층 5호",
    "road_address": "서울 강남구 선릉로 424",
    "phone": "",
    "lat": 37.50296879,
    "lng": 127.05009842
  },
  {
    "name": "이삭토스트 숭실대점",
    "region": "서울",
    "district": "동작구",
    "address": "서울 동작구 상도동 501-2 1층",
    "road_address": "서울 동작구 사당로 6-1",
    "phone": "02-813-4999",
    "lat": 37.49534479,
    "lng": 126.9551684
  },
  {
    "name": "이삭토스트 강동구청역점",
    "region": "서울",
    "district": "강동구",
    "address": "서울 강동구 성내동 320-7 강동빌딩 1층 105호",
    "road_address": "서울 강동구 천호옛길 14",
    "phone": "02-474-3921",
    "lat": 37.53070584,
    "lng": 127.12132699
  },
  {
    "name": "이삭토스트 잠실새내역점",
    "region": "서울",
    "district": "송파구",
    "address": "서울 송파구 잠실동 184-7 은성빌딩 1층",
    "road_address": "서울 송파구 올림픽로 130",
    "phone": "02-422-0240",
    "lat": 37.51138482,
    "lng": 127.0851728
  },
  {
    "name": "이삭토스트 서울미성점",
    "region": "서울",
    "district": "관악구",
    "address": "서울 관악구 신림동 1476-3 1층",
    "road_address": "서울 관악구 난곡로 287",
    "phone": "02-868-2490",
    "lat": 37.47961431,
    "lng": 126.91467446
  },
  {
    "name": "이삭토스트 양재역점",
    "region": "서울",
    "district": "강남구",
    "address": "서울 강남구 도곡동 959-21 101호",
    "road_address": "서울 강남구 남부순환로361길 7",
    "phone": "02-571-3369",
    "lat": 37.48553516,
    "lng": 127.0373152
  },
  {
    "name": "이삭토스트 종로피카디리점",
    "region": "서울",
    "district": "종로구",
    "address": "서울 종로구 돈의동 137 1층",
    "road_address": "서울 종로구 돈화문로5가길 1",
    "phone": "070-4110-4141",
    "lat": 37.57092194,
    "lng": 126.99155269
  },
  {
    "name": "이삭토스트 성수2가점",
    "region": "서울",
    "district": "성동구",
    "address": "서울 성동구 성수동2가 280-21 우림이비즈센터 107호",
    "road_address": "서울 성동구 광나루로6길 35",
    "phone": "02-465-1717",
    "lat": 37.54679081,
    "lng": 127.06329733
  },
  {
    "name": "이삭토스트 망우점",
    "region": "서울",
    "district": "중랑구",
    "address": "서울 중랑구 망우동 508-2 상봉써너스빌에코 1층 106호",
    "road_address": "서울 중랑구 망우로60길 37",
    "phone": "02-492-2414",
    "lat": 37.59710334,
    "lng": 127.09423987
  },
  {
    "name": "이삭토스트 자양사거리점",
    "region": "서울",
    "district": "광진구",
    "address": "서울 광진구 자양동 219-20 1층",
    "road_address": "서울 광진구 자양로 93",
    "phone": "02-6013-0660",
    "lat": 37.53598427,
    "lng": 127.08350022
  },
  {
    "name": "이삭토스트 마들역점",
    "region": "서울",
    "district": "노원구",
    "address": "서울 노원구 상계동 649 12단지상가 107호",
    "road_address": "서울 노원구 동일로 1538",
    "phone": "0507-2096-1131",
    "lat": 37.66623239,
    "lng": 127.05786303
  },
  {
    "name": "이삭토스트 면목역점",
    "region": "서울",
    "district": "중랑구",
    "address": "서울 중랑구 면목동 115-1 1층",
    "road_address": "서울 중랑구 겸재로 178",
    "phone": "02-433-4323",
    "lat": 37.58816992,
    "lng": 127.08731861
  },
  {
    "name": "이삭토스트 서울방학점",
    "region": "서울",
    "district": "도봉구",
    "address": "서울 도봉구 방학동 665-17 1층",
    "road_address": "서울 도봉구 방학로 172",
    "phone": "02-956-0321",
    "lat": 37.66257312,
    "lng": 127.03320739
  },
  {
    "name": "이삭토스트 목3동점",
    "region": "서울",
    "district": "양천구",
    "address": "서울 양천구 목동 602-11 1층",
    "road_address": "서울 양천구 목동중앙북로7길 6",
    "phone": "02-2644-7708",
    "lat": 37.54826844,
    "lng": 126.86724231
  },
  {
    "name": "이삭토스트 송파일신여상점",
    "region": "서울",
    "district": "송파구",
    "address": "서울 송파구 송파동 97-42 1층",
    "road_address": "서울 송파구 송파대로38길 3",
    "phone": "02-422-5589",
    "lat": 37.50075661,
    "lng": 127.11209781
  },
  {
    "name": "이삭토스트 노원역점",
    "region": "서울",
    "district": "노원구",
    "address": "서울 노원구 상계동 603-6 하이웰빙상가 B동 102호",
    "road_address": "서울 노원구 상계로1길 24",
    "phone": "02-935-5580",
    "lat": 37.65711883,
    "lng": 127.06169322
  },
  {
    "name": "이삭토스트 수유역점",
    "region": "서울",
    "district": "강북구",
    "address": "서울 강북구 번동 446-1 1층",
    "road_address": "서울 강북구 오패산로 413",
    "phone": "02-997-0321",
    "lat": 37.63742934,
    "lng": 127.0262114
  },
  {
    "name": "이삭토스트 강동성심병원점",
    "region": "서울",
    "district": "강동구",
    "address": "서울 강동구 천호동 155-5 두산위브센티움상가 1층 104호",
    "road_address": "서울 강동구 성안로 155",
    "phone": "02-470-7120",
    "lat": 37.53712311,
    "lng": 127.13488657
  },
  {
    "name": "이삭토스트 강남구청점",
    "region": "서울",
    "district": "강남구",
    "address": "서울 강남구 삼성동 16 1층 107호",
    "road_address": "서울 강남구 학동로68길 7",
    "phone": "",
    "lat": 37.5176169,
    "lng": 127.04674414
  },
  {
    "name": "이삭토스트 천왕역점",
    "region": "서울",
    "district": "구로구",
    "address": "서울 구로구 천왕동 282-2 랑데르 1층 107호",
    "road_address": "서울 구로구 오리로 1149",
    "phone": "02-2682-1333",
    "lat": 37.48657587,
    "lng": 126.83831084
  },
  {
    "name": "이삭토스트 성균관대점",
    "region": "서울",
    "district": "종로구",
    "address": "서울 종로구 명륜2가 143-9 1층",
    "road_address": "서울 종로구 성균관로 18",
    "phone": "02-3675-2248",
    "lat": 37.5843973,
    "lng": 126.99759753
  },
  {
    "name": "이삭토스트 문정역점",
    "region": "서울",
    "district": "송파구",
    "address": "서울 송파구 문정동 651 테라타워 A동 지하1층 G121호",
    "road_address": "서울 송파구 송파대로 167",
    "phone": "02-2054-3634",
    "lat": 37.48512392,
    "lng": 127.12143414
  },
  {
    "name": "이삭토스트 고려대점",
    "region": "서울",
    "district": "성북구",
    "address": "서울 성북구 안암동5가 103-93 1층",
    "road_address": "서울 성북구 고려대로24길 39",
    "phone": "",
    "lat": 37.58440083,
    "lng": 127.02957685
  },
  {
    "name": "이삭토스트 오금점",
    "region": "서울",
    "district": "송파구",
    "address": "서울 송파구 오금동 20",
    "road_address": "서울 송파구 양재대로72길 14",
    "phone": "02-407-2147",
    "lat": 37.50925789,
    "lng": 127.12835275
  },
  {
    "name": "이삭토스트 서울신정점",
    "region": "서울",
    "district": "양천구",
    "address": "서울 양천구 신정동 1025-13 1층",
    "road_address": "서울 양천구 은행정로 15",
    "phone": "02-2061-1660",
    "lat": 37.52104596,
    "lng": 126.85973971
  },
  {
    "name": "이삭토스트 문정로데오점",
    "region": "서울",
    "district": "송파구",
    "address": "서울 송파구 가락동 102-24 용현빌딩 1층2호B",
    "road_address": "서울 송파구 동남로 99",
    "phone": "02-403-7425",
    "lat": 37.48977195,
    "lng": 127.12257241
  },
  {
    "name": "이삭토스트 선유도역점",
    "region": "서울",
    "district": "영등포구",
    "address": "서울 영등포구 양평동4가 192 1층",
    "road_address": "서울 영등포구 양평로22길 8",
    "phone": "02-2637-8989",
    "lat": 37.53836423,
    "lng": 126.89449899
  },
  {
    "name": "이삭토스트 신설동역점",
    "region": "서울",
    "district": "종로구",
    "address": "서울 종로구 숭인동 192 1층",
    "road_address": "서울 종로구 종로 393",
    "phone": "02-764-5196",
    "lat": 37.57481613,
    "lng": 127.02081231
  },
  {
    "name": "이삭토스트 보라매공원점",
    "region": "서울",
    "district": "동작구",
    "address": "서울 동작구 신대방동 498-5 1층",
    "road_address": "서울 동작구 여의대방로 88",
    "phone": "02-849-8483",
    "lat": 37.49677624,
    "lng": 126.91653893
  },
  {
    "name": "이삭토스트 영등포점",
    "region": "서울",
    "district": "영등포구",
    "address": "서울 영등포구 영등포동 618-385 1층 3호",
    "road_address": "서울 영등포구 영신로19길 17",
    "phone": "02-843-0891",
    "lat": 37.51385496,
    "lng": 126.90597463
  },
  {
    "name": "이삭토스트 여의도KBS별관점",
    "region": "서울",
    "district": "영등포구",
    "address": "서울 영등포구 여의도동 44-14 경도빌딩 1층 102호",
    "road_address": "서울 영등포구 여의대방로 383",
    "phone": "02-783-0113",
    "lat": 37.51924698,
    "lng": 126.93145009
  },
  {
    "name": "이삭토스트 목2단지점",
    "region": "서울",
    "district": "양천구",
    "address": "서울 양천구 목동 907-17 광장빌딩 1층 107호",
    "road_address": "서울 양천구 목동동로 379",
    "phone": "02-2061-7040",
    "lat": 37.53573909,
    "lng": 126.87874972
  },
  {
    "name": "이삭토스트 행당점",
    "region": "서울",
    "district": "성동구",
    "address": "서울 성동구 행당동 317-70 1층",
    "road_address": "서울 성동구 행당로 119",
    "phone": "02-2293-1212",
    "lat": 37.55829041,
    "lng": 127.03211416
  },
  {
    "name": "이삭토스트 신방화역점",
    "region": "서울",
    "district": "강서구",
    "address": "서울 강서구 마곡동 739-3 에스비타운 1층 106호",
    "road_address": "서울 강서구 마곡중앙5로 81",
    "phone": "02-2088-0427",
    "lat": 37.56711022,
    "lng": 126.81858886
  },
  {
    "name": "이삭토스트 마포염리점",
    "region": "서울",
    "district": "마포구",
    "address": "서울 마포구 염리동 159-13 1층",
    "road_address": "서울 마포구 백범로 138",
    "phone": "02-713-3334",
    "lat": 37.54585663,
    "lng": 126.94610244
  },
  {
    "name": "이삭토스트 마곡수명산파크점",
    "region": "서울",
    "district": "강서구",
    "address": "서울 강서구 내발산동 750-2 1층 102호",
    "road_address": "서울 강서구 수명로 78",
    "phone": "",
    "lat": 37.55302128,
    "lng": 126.82632986
  },
  {
    "name": "이삭토스트 염창점",
    "region": "서울",
    "district": "강서구",
    "address": "서울 강서구 염창동 244-39 1층",
    "road_address": "서울 강서구 양천로 653",
    "phone": "02-3665-2488",
    "lat": 37.55293149,
    "lng": 126.87001801
  },
  {
    "name": "이삭토스트 석계역점",
    "region": "서울",
    "district": "노원구",
    "address": "서울 노원구 월계동 55-7 1층",
    "road_address": "서울 노원구 석계로3길 21",
    "phone": "070-4123-5655",
    "lat": 37.61595726,
    "lng": 127.06351901
  },
  {
    "name": "이삭토스트 서울밀리오레점",
    "region": "서울",
    "district": "중구",
    "address": "서울 중구 을지로6가 18-187 연쇄상가 1층",
    "road_address": "서울 중구 장충단로13길 43",
    "phone": "02-2277-2775",
    "lat": 37.56790978,
    "lng": 127.00761784
  },
  {
    "name": "이삭토스트 구파발역점",
    "region": "서울",
    "district": "은평구",
    "address": "서울 은평구 진관동 65 은평뉴타운엘크루 상가 101동 1층 115호",
    "road_address": "서울 은평구 진관3로 21",
    "phone": "02-356-9778",
    "lat": 37.63933967,
    "lng": 126.91886326
  },
  {
    "name": "이삭토스트 마곡발산역점",
    "region": "서울",
    "district": "강서구",
    "address": "서울 강서구 마곡동 794-1 우성에스비타워 1층 101호",
    "road_address": "서울 강서구 강서로 385",
    "phone": "02-3665-3080",
    "lat": 37.56025187,
    "lng": 126.83845395
  },
  {
    "name": "이삭토스트 서울신정여상점",
    "region": "서울",
    "district": "강서구",
    "address": "서울 강서구 화곡동 472-12 1층",
    "road_address": "서울 강서구 등촌로13바길 34",
    "phone": "02-6204-7240",
    "lat": 37.53626087,
    "lng": 126.85783415
  },
  {
    "name": "이삭토스트 영등포구청점",
    "region": "서울",
    "district": "영등포구",
    "address": "서울 영등포구 당산동3가 243 서울빌딩 1층 103호",
    "road_address": "서울 영등포구 당산로 126",
    "phone": "02-2672-2445",
    "lat": 37.52590549,
    "lng": 126.89687753
  },
  {
    "name": "이삭토스트 서울경기대점",
    "region": "서울",
    "district": "서대문구",
    "address": "서울 서대문구 충정로2가 69-34 1층",
    "road_address": "서울 서대문구 경기대로 59",
    "phone": "02-392-8942",
    "lat": 37.56437971,
    "lng": 126.96355722
  },
  {
    "name": "이삭토스트 거여역점",
    "region": "서울",
    "district": "송파구",
    "address": "서울 송파구 거여동 562-3 1층 102호",
    "road_address": "서울 송파구 오금로 496",
    "phone": "02-404-5949",
    "lat": 37.4930728,
    "lng": 127.14374621
  },
  {
    "name": "이삭토스트 서울목동역점",
    "region": "서울",
    "district": "양천구",
    "address": "서울 양천구 목동 810-1 타운빌딩 1층 102호",
    "road_address": "서울 양천구 목동로 210",
    "phone": "02-2646-2470",
    "lat": 37.52744222,
    "lng": 126.86441022
  },
  {
    "name": "이삭토스트 서울시립대점",
    "region": "서울",
    "district": "동대문구",
    "address": "서울 동대문구 전농동 150 1층",
    "road_address": "서울 동대문구 서울시립대로 160",
    "phone": "02-2216-2343",
    "lat": 37.58342874,
    "lng": 127.05461525
  },
  {
    "name": "이삭토스트 녹번역점",
    "region": "서울",
    "district": "은평구",
    "address": "서울 은평구 응암동 4-2 1층",
    "road_address": "서울 은평구 은평로 228",
    "phone": "02-388-8852",
    "lat": 37.60091321,
    "lng": 126.93281567
  },
  {
    "name": "이삭토스트 효창공원앞역점",
    "region": "서울",
    "district": "용산구",
    "address": "서울 용산구 효창동 70-11 1층",
    "road_address": "서울 용산구 백범로 293",
    "phone": "02-719-2529",
    "lat": 37.53931972,
    "lng": 126.9618869
  },
  {
    "name": "이삭토스트 동양미래대점",
    "region": "서울",
    "district": "구로구",
    "address": "서울 구로구 고척동 52-198 1층",
    "road_address": "서울 구로구 경인로47길 26",
    "phone": "02-2685-0322",
    "lat": 37.50064438,
    "lng": 126.86660741
  },
  {
    "name": "이삭토스트 신반포점",
    "region": "서울",
    "district": "서초구",
    "address": "서울 서초구 반포동 2-8 신반포상가",
    "road_address": "서울 서초구 신반포로15길 29",
    "phone": "02-595-5129",
    "lat": 37.50554779,
    "lng": 126.99461371
  },
  {
    "name": "이삭토스트 서울발산점",
    "region": "서울",
    "district": "강서구",
    "address": "서울 강서구 내발산동 699 1층",
    "road_address": "서울 강서구 강서로47길 29",
    "phone": "02-2662-6677",
    "lat": 37.5527121,
    "lng": 126.83458344
  },
  {
    "name": "이삭토스트 방화역점",
    "region": "서울",
    "district": "강서구",
    "address": "서울 강서구 방화동 479-12 1층",
    "road_address": "서울 강서구 금낭화로17길 23",
    "phone": "02-2666-1411",
    "lat": 37.57509789,
    "lng": 126.81021737
  },
  {
    "name": "이삭토스트 불광점",
    "region": "서울",
    "district": "은평구",
    "address": "서울 은평구 불광동 643 1층",
    "road_address": "서울 은평구 통일로 796",
    "phone": "02-352-7786",
    "lat": 37.61554,
    "lng": 126.92552075
  },
  {
    "name": "이삭토스트 서울외대후문점",
    "region": "서울",
    "district": "동대문구",
    "address": "서울 동대문구 이문동 264-169 1층",
    "road_address": "서울 동대문구 천장산로 26-1",
    "phone": "02-959-8572",
    "lat": 37.59866192,
    "lng": 127.0581685
  },
  {
    "name": "이삭토스트 신월뉴타운점",
    "region": "서울",
    "district": "양천구",
    "address": "서울 양천구 신월동 537-8 1층",
    "road_address": "서울 양천구 신월로 175",
    "phone": "02-2695-7776",
    "lat": 37.51884385,
    "lng": 126.84253067
  },
  {
    "name": "이삭토스트 보라매점",
    "region": "서울",
    "district": "관악구",
    "address": "서울 관악구 봉천동 728-186",
    "road_address": "서울 관악구 보라매로 32",
    "phone": "02-882-6205",
    "lat": 37.49226731,
    "lng": 126.92698783
  },
  {
    "name": "이삭토스트 서울명지대점",
    "region": "서울",
    "district": "서대문구",
    "address": "서울 서대문구 남가좌동 343-1 1층",
    "road_address": "서울 서대문구 거북골로 39",
    "phone": "0503-5371-9154",
    "lat": 37.57914049,
    "lng": 126.92353058
  },
  {
    "name": "이삭토스트 중곡점",
    "region": "서울",
    "district": "광진구",
    "address": "서울 광진구 중곡동 169-30",
    "road_address": "서울 광진구 면목로 170",
    "phone": "02-461-1116",
    "lat": 37.56826218,
    "lng": 127.08270314
  },
  {
    "name": "이삭토스트 경희대점",
    "region": "서울",
    "district": "동대문구",
    "address": "서울 동대문구 회기동 42-84 1층",
    "road_address": "서울 동대문구 경희대로 9-1",
    "phone": "02-968-2258",
    "lat": 37.59255593,
    "lng": 127.0523177
  },
  {
    "name": "이삭토스트 낙성대점",
    "region": "서울",
    "district": "관악구",
    "address": "서울 관악구 봉천동 1688-128 금산빌딩 1층 102A호",
    "road_address": "서울 관악구 남부순환로 1949",
    "phone": "02-885-5049",
    "lat": 37.47654398,
    "lng": 126.96559193
  },
  {
    "name": "이삭토스트 중랑역점",
    "region": "서울",
    "district": "중랑구",
    "address": "서울 중랑구 중화동 208-33 1층 124호",
    "road_address": "서울 중랑구 망우로 203",
    "phone": "02-433-8285",
    "lat": 37.59402105,
    "lng": 127.07542932
  },
  {
    "name": "이삭토스트 연신내점",
    "region": "서울",
    "district": "은평구",
    "address": "서울 은평구 불광동 355-5",
    "road_address": "서울 은평구 연서로 284",
    "phone": "02-3157-8816",
    "lat": 37.6210031,
    "lng": 126.9258857
  },
  {
    "name": "이삭토스트 한양대점",
    "region": "서울",
    "district": "성동구",
    "address": "서울 성동구 행당동 12-10 1층",
    "road_address": "서울 성동구 마조로 24",
    "phone": "02-6953-9913",
    "lat": 37.55981096,
    "lng": 127.04130163
  },
  {
    "name": "이삭토스트 광흥창역점",
    "region": "서울",
    "district": "마포구",
    "address": "서울 마포구 신수동 339-4 지하1층,1층",
    "road_address": "서울 마포구 독막로 184",
    "phone": "02-3273-6111",
    "lat": 37.54723621,
    "lng": 126.93398191
  },
  {
    "name": "이삭토스트 서울대치역점",
    "region": "서울",
    "district": "강남구",
    "address": "서울 강남구 대치동 507-2 1층 119호",
    "road_address": "서울 강남구 삼성로 155",
    "phone": "",
    "lat": 37.4938814,
    "lng": 127.06295185
  },
  {
    "name": "이삭토스트 만리시장점",
    "region": "서울",
    "district": "용산구",
    "address": "서울 용산구 청파동1가 205-2 1층",
    "road_address": "서울 용산구 효창원로 240-1",
    "phone": "02-713-6991",
    "lat": 37.54863298,
    "lng": 126.96355697
  },
  {
    "name": "이삭토스트 서울강남수서점",
    "region": "서울",
    "district": "강남구",
    "address": "서울 강남구 수서동 724 로즈데일오피스텔 지하2층 B125호",
    "road_address": "서울 강남구 광평로 280",
    "phone": "02-3413-2230",
    "lat": 37.48721296,
    "lng": 127.10287251
  },
  {
    "name": "이삭토스트 자양2동점",
    "region": "서울",
    "district": "광진구",
    "address": "서울 광진구 자양동 666-23",
    "road_address": "서울 광진구 자양로3길 59",
    "phone": "02-447-8266",
    "lat": 37.52956917,
    "lng": 127.08347044
  },
  {
    "name": "이삭토스트 서울교대점",
    "region": "서울",
    "district": "서초구",
    "address": "서울 서초구 서초동 1658-12 금혜빌딩 1층 105호",
    "road_address": "서울 서초구 서초중앙로22길 18",
    "phone": "02-522-3338",
    "lat": 37.49311063,
    "lng": 127.01510399
  },
  {
    "name": "이삭토스트 명일역점",
    "region": "서울",
    "district": "강동구",
    "address": "서울 강동구 명일동 324-1 1층 112호",
    "road_address": "서울 강동구 양재대로 1626",
    "phone": "02-6203-1126",
    "lat": 37.55058238,
    "lng": 127.14413384
  },
  {
    "name": "이삭토스트 등촌2호점",
    "region": "서울",
    "district": "강서구",
    "address": "서울 강서구 등촌동 698-1 세진종합상가 1층 125호",
    "road_address": "서울 강서구 공항대로41길 66",
    "phone": "02-2658-7089",
    "lat": 37.56069532,
    "lng": 126.84654319
  },
  {
    "name": "이삭토스트 자양3동점",
    "region": "서울",
    "district": "광진구",
    "address": "서울 광진구 자양동 553-501 삼희빌딩 1층 111호",
    "road_address": "서울 광진구 뚝섬로 552",
    "phone": "",
    "lat": 37.53430562,
    "lng": 127.07126777
  },
  {
    "name": "이삭토스트 길음뉴타운점",
    "region": "서울",
    "district": "성북구",
    "address": "서울 성북구 길음동 1286-10 길음뉴타운9단지 래미안상가 1층 1-3호",
    "road_address": "서울 성북구 길음로7길 6",
    "phone": "02-941-5538",
    "lat": 37.60411608,
    "lng": 127.02257353
  },
  {
    "name": "이삭토스트 서울종암점",
    "region": "서울",
    "district": "성북구",
    "address": "서울 성북구 종암동 132 종암우림카이져팰리스 상가동 1층 101-3호",
    "road_address": "서울 성북구 종암로 132",
    "phone": "02-941-3001",
    "lat": 37.60208454,
    "lng": 127.03319747
  },
  {
    "name": "이삭토스트 대치점",
    "region": "서울",
    "district": "강남구",
    "address": "서울 강남구 대치동 930-16 1층",
    "road_address": "서울 강남구 삼성로63길 16",
    "phone": "",
    "lat": 37.49984274,
    "lng": 127.05891165
  },
  {
    "name": "이삭토스트 화곡역점",
    "region": "서울",
    "district": "강서구",
    "address": "서울 강서구 화곡동 1074-12 1층",
    "road_address": "서울 강서구 화곡로 154",
    "phone": "02-2608-2224",
    "lat": 37.5409901,
    "lng": 126.83893794
  },
  {
    "name": "이삭토스트 서울삼양점",
    "region": "서울",
    "district": "강북구",
    "address": "서울 강북구 미아동 838-62",
    "road_address": "서울 강북구 솔샘로 213-2",
    "phone": "02-946-1118",
    "lat": 37.62020514,
    "lng": 127.01649232
  },
  {
    "name": "이삭토스트 창동역서부점",
    "region": "서울",
    "district": "도봉구",
    "address": "서울 도봉구 창동 333-2 한성빌딩 1층 6호",
    "road_address": "서울 도봉구 노해로65길 11",
    "phone": "02-998-4335",
    "lat": 37.65181102,
    "lng": 127.04619353
  },
  {
    "name": "이삭토스트 광운대점",
    "region": "서울",
    "district": "노원구",
    "address": "서울 노원구 월계동 402-53 태경빌딩 1층",
    "road_address": "서울 노원구 광운로 37-1",
    "phone": "02-943-0799",
    "lat": 37.62087819,
    "lng": 127.0588088
  },
  {
    "name": "이삭토스트 광장점",
    "region": "서울",
    "district": "광진구",
    "address": "서울 광진구 광장동 470-3 진넥스오딧세이 1층 109호",
    "road_address": "서울 광진구 아차산로 502",
    "phone": "",
    "lat": 37.54141399,
    "lng": 127.09725426
  },
  {
    "name": "이삭토스트 광나루점",
    "region": "서울",
    "district": "광진구",
    "address": "서울 광진구 광장동 258-37",
    "road_address": "서울 광진구 광장로 47",
    "phone": "02-453-6999",
    "lat": 37.54701556,
    "lng": 127.10250539
  },
  {
    "name": "이삭토스트 잠실역점",
    "region": "서울",
    "district": "송파구",
    "address": "서울 송파구 신천동 7-18 잠실롯데캐슬 지하1층 39-2호",
    "road_address": "서울 송파구 올림픽로 269",
    "phone": "02-2146-2220",
    "lat": 37.51453133,
    "lng": 127.10092602
  },
  {
    "name": "이삭토스트 서울하계점",
    "region": "서울",
    "district": "노원구",
    "address": "서울 노원구 하계동 256-15 103호",
    "road_address": "서울 노원구 노원로 254",
    "phone": "02-971-9553",
    "lat": 37.64023053,
    "lng": 127.07348474
  },
  {
    "name": "이삭토스트 공릉점",
    "region": "서울",
    "district": "노원구",
    "address": "서울 노원구 공릉동 208-24 1층 102호",
    "road_address": "서울 노원구 공릉로 196",
    "phone": "02-977-0022",
    "lat": 37.62722932,
    "lng": 127.07877637
  },
  {
    "name": "이삭토스트 가든파이브점",
    "region": "서울",
    "district": "송파구",
    "address": "서울 송파구 문정동 634 가든파이브라이프 지하1층 FB-1030호",
    "road_address": "서울 송파구 충민로 66",
    "phone": "",
    "lat": 37.47798661,
    "lng": 127.12443894
  },
  {
    "name": "이삭토스트 오목교역점",
    "region": "서울",
    "district": "양천구",
    "address": "서울 양천구 목동 404-156 대경프라자 1층 103호",
    "road_address": "서울 양천구 신목로 102",
    "phone": "",
    "lat": 37.52363262,
    "lng": 126.87572059
  },
  {
    "name": "이삭토스트 신림남강점",
    "region": "서울",
    "district": "관악구",
    "address": "서울 관악구 신림동 618-15 1층 102호",
    "road_address": "서울 관악구 난곡로34길 7",
    "phone": "02-868-8359",
    "lat": 37.47263328,
    "lng": 126.91979897
  },
  {
    "name": "이삭토스트 등촌아이파크점",
    "region": "서울",
    "district": "강서구",
    "address": "서울 강서구 등촌동 512-7 1층 5호",
    "road_address": "서울 강서구 등촌로39길 6",
    "phone": "02-2644-2454",
    "lat": 37.54559012,
    "lng": 126.86203725
  },
  {
    "name": "이삭토스트 시흥2동점",
    "region": "서울",
    "district": "금천구",
    "address": "서울 금천구 시흥동 1011 관악우방아파트상가 1층 107호",
    "road_address": "서울 금천구 금하로 750",
    "phone": "02-802-8880",
    "lat": 37.44993681,
    "lng": 126.91344242
  },
  {
    "name": "이삭토스트 증산역점",
    "region": "서울",
    "district": "서대문구",
    "address": "서울 서대문구 북가좌동 342-8 1층",
    "road_address": "서울 서대문구 증가로 260",
    "phone": "02-307-5488",
    "lat": 37.5838814,
    "lng": 126.91150159
  },
  {
    "name": "이삭토스트 서울메가스터디타워점",
    "region": "서울",
    "district": "동작구",
    "address": "서울 동작구 노량진동 57-1 메가스터디타워 상가동 1층 109호",
    "road_address": "서울 동작구 노량진로 140",
    "phone": "02-6084-0138",
    "lat": 37.51264692,
    "lng": 126.94163591
  },
  {
    "name": "이삭토스트 홍제삼거리점",
    "region": "서울",
    "district": "서대문구",
    "address": "서울 서대문구 홍제동 139-45 1층",
    "road_address": "서울 서대문구 통일로 414",
    "phone": "02-6465-2422",
    "lat": 37.58648297,
    "lng": 126.94705365
  },
  {
    "name": "이삭토스트 까치산역점",
    "region": "서울",
    "district": "강서구",
    "address": "서울 강서구 화곡동 343-31",
    "road_address": "서울 강서구 강서로 47",
    "phone": "02-2603-7467",
    "lat": 37.53193859,
    "lng": 126.84632494
  },
  {
    "name": "이삭토스트 구일점",
    "region": "서울",
    "district": "구로구",
    "address": "서울 구로구 구로동 685-448 신영상가 1층 101호",
    "road_address": "서울 구로구 구일로4길 30",
    "phone": "02-867-3380",
    "lat": 37.49191515,
    "lng": 126.87628201
  },
  {
    "name": "이삭토스트 고덕래미안힐스점",
    "region": "서울",
    "district": "강동구",
    "address": "서울 강동구 고덕동 688 상가동 136호",
    "road_address": "서울 강동구 아리수로50길 50",
    "phone": "",
    "lat": 37.55861161,
    "lng": 127.15099092
  },
  {
    "name": "이삭토스트 서울갈현점",
    "region": "서울",
    "district": "은평구",
    "address": "서울 은평구 갈현동 503-4 1층 101호",
    "road_address": "서울 은평구 갈현로29길 1",
    "phone": "0503-5371-6070",
    "lat": 37.61916299,
    "lng": 126.91503401
  },
  {
    "name": "이삭토스트 독산정훈단지점",
    "region": "서울",
    "district": "금천구",
    "address": "서울 금천구 독산동 1042-6",
    "road_address": "서울 금천구 독산로 201-1",
    "phone": "02-806-3966",
    "lat": 37.46492014,
    "lng": 126.90238599
  },
  {
    "name": "이삭토스트 가양역점",
    "region": "서울",
    "district": "강서구",
    "address": "서울 강서구 등촌동 628-9 가양역더스카이밸리5차지식산업센터 1층 105,107호",
    "road_address": "서울 강서구 화곡로 416",
    "phone": "02-2131-2949",
    "lat": 37.56002519,
    "lng": 126.85541902
  },
  {
    "name": "이삭토스트 당산역점",
    "region": "서울",
    "district": "영등포구",
    "address": "서울 영등포구 당산동6가 227",
    "road_address": "서울 영등포구 양평로 36",
    "phone": "02-2677-4706",
    "lat": 37.53381489,
    "lng": 126.90267189
  },
  {
    "name": "이삭토스트 문래힐스테이트점",
    "region": "서울",
    "district": "영등포구",
    "address": "서울 영등포구 문래동3가 82-20 문래비즈타워 1층 103호",
    "road_address": "서울 영등포구 문래로 89",
    "phone": "",
    "lat": 37.51961833,
    "lng": 126.8918784
  },
  {
    "name": "이삭토스트 개포동역점",
    "region": "서울",
    "district": "강남구",
    "address": "서울 강남구 개포동 186-17 개포종합빌딩 1층 109호",
    "road_address": "서울 강남구 개포로 512",
    "phone": "010-5715-5421",
    "lat": 37.48933979,
    "lng": 127.06876228
  },
  {
    "name": "이삭토스트 양천구청점",
    "region": "서울",
    "district": "양천구",
    "address": "서울 양천구 신정동 323-7 1동 109호",
    "road_address": "서울 양천구 목동서로 389",
    "phone": "02-2646-8748",
    "lat": 37.51578223,
    "lng": 126.8612008
  },
  {
    "name": "이삭토스트 세종대점",
    "region": "서울",
    "district": "광진구",
    "address": "서울 광진구 군자동 102-43 1층",
    "road_address": "서울 광진구 군자로 107-1",
    "phone": "02-466-5590",
    "lat": 37.55273611,
    "lng": 127.07184889
  },
  {
    "name": "이삭토스트 양평하이팰리스점",
    "region": "서울",
    "district": "영등포구",
    "address": "서울 영등포구 양평동2가 1-1 신동아하이팰리스 1층 101,103호",
    "road_address": "서울 영등포구 선유서로 67",
    "phone": "02-2677-7585",
    "lat": 37.5216924,
    "lng": 126.88423513
  },
  {
    "name": "이삭토스트 숭의여대점",
    "region": "서울",
    "district": "중구",
    "address": "서울 중구 남산동2가 30-1 1층",
    "road_address": "서울 중구 퇴계로20길 18",
    "phone": "02-776-5865",
    "lat": 37.55946052,
    "lng": 126.98572581
  },
  {
    "name": "이삭토스트 상일동역점",
    "region": "서울",
    "district": "강동구",
    "address": "서울 강동구 고덕동 210-5 1층",
    "road_address": "서울 강동구 고덕로 391",
    "phone": "02-2039-2369",
    "lat": 37.55718614,
    "lng": 127.1690113
  },
  {
    "name": "이삭토스트 우림시장점",
    "region": "서울",
    "district": "중랑구",
    "address": "서울 중랑구 망우동 403-46",
    "road_address": "서울 중랑구 용마공원로 3",
    "phone": "02-434-8788",
    "lat": 37.59522054,
    "lng": 127.10046307
  },
  {
    "name": "이삭토스트 일원점",
    "region": "서울",
    "district": "강남구",
    "address": "서울 강남구 일원동 682-7 1층 106호",
    "road_address": "서울 강남구 양재대로33길 25",
    "phone": "02-3414-6007",
    "lat": 37.49106455,
    "lng": 127.08247774
  },
  {
    "name": "이삭토스트 개화산역점",
    "region": "서울",
    "district": "강서구",
    "address": "서울 강서구 방화동 547-6 1층",
    "road_address": "서울 강서구 양천로14길 78",
    "phone": "02-2665-6831",
    "lat": 37.56983754,
    "lng": 126.80888596
  },
  {
    "name": "이삭토스트 송파풍납점",
    "region": "서울",
    "district": "송파구",
    "address": "서울 송파구 풍납동 406-1 태양상가 1층",
    "road_address": "서울 송파구 토성로 65",
    "phone": "02-477-9937",
    "lat": 37.52894218,
    "lng": 127.11726491
  },
  {
    "name": "이삭토스트 대치은마점",
    "region": "서울",
    "district": "강남구",
    "address": "서울 강남구 대치동 316 은마상가 A-116",
    "road_address": "서울 강남구 삼성로 212",
    "phone": "02-567-8903",
    "lat": 37.49566278,
    "lng": 127.06311732
  },
  {
    "name": "이삭토스트 정릉시장점",
    "region": "서울",
    "district": "성북구",
    "address": "서울 성북구 정릉동 409-95 1층 2호",
    "road_address": "서울 성북구 보국문로 38",
    "phone": "",
    "lat": 37.6078695,
    "lng": 127.01037395
  },
  {
    "name": "이삭토스트 수락산역점",
    "region": "서울",
    "district": "노원구",
    "address": "서울 노원구 상계동 1258 희성오피앙 113호",
    "road_address": "서울 노원구 동일로 1701",
    "phone": "02-939-8924",
    "lat": 37.6804405,
    "lng": 127.05479512
  },
  {
    "name": "이삭토스트 휘경SDA점",
    "region": "서울",
    "district": "동대문구",
    "address": "서울 동대문구 휘경동 286-228 1층",
    "road_address": "서울 동대문구 망우로18가길 5-9",
    "phone": "02-2248-4223",
    "lat": 37.5889992,
    "lng": 127.06263899
  },
  {
    "name": "이삭토스트 태릉입구역점",
    "region": "서울",
    "district": "노원구",
    "address": "서울 노원구 공릉동 670-20 노원프레미어스엠코 101동 1층 106호",
    "road_address": "서울 노원구 동일로 986",
    "phone": "02-3296-5657",
    "lat": 37.61808522,
    "lng": 127.07600864
  },
  {
    "name": "이삭토스트 서울사업본부",
    "region": "서울",
    "district": "송파구",
    "address": "서울 송파구 가락동 99-5",
    "road_address": "서울 송파구 중대로 97",
    "phone": "1833-9299",
    "lat": 37.49317027,
    "lng": 127.11931676
  },
  {
    "name": "이삭토스트 전농사거리점",
    "region": "서울",
    "district": "동대문구",
    "address": "서울 동대문구 전농동 40 1층 105호",
    "road_address": "서울 동대문구 사가정로 136",
    "phone": "02-2212-1625",
    "lat": 37.57760489,
    "lng": 127.0598355
  },
  {
    "name": "이삭토스트 서소문점",
    "region": "서울",
    "district": "중구",
    "address": "서울 중구 서소문동 52-1 1층",
    "road_address": "서울 중구 서소문로11길 14",
    "phone": "02-318-0222",
    "lat": 37.56353081,
    "lng": 126.97303014
  },
  {
    "name": "이삭토스트 묵동점",
    "region": "서울",
    "district": "중랑구",
    "address": "서울 중랑구 묵동 178-1",
    "road_address": "서울 중랑구 공릉로2길 28",
    "phone": "02-972-1236",
    "lat": 37.61195522,
    "lng": 127.07948058
  },
  {
    "name": "이삭토스트 은평구산점",
    "region": "서울",
    "district": "은평구",
    "address": "서울 은평구 구산동 19-8",
    "road_address": "서울 은평구 연서로13길 17",
    "phone": "02-353-2245",
    "lat": 37.60970916,
    "lng": 126.91411155
  },
  {
    "name": "이삭토스트 강일리버파크점",
    "region": "서울",
    "district": "강동구",
    "address": "서울 강동구 강일동 675-4 골드프라자 1층 103호",
    "road_address": "서울 강동구 아리수로93길 9",
    "phone": "02-441-2701",
    "lat": 37.56525838,
    "lng": 127.174432
  },
  {
    "name": "이삭토스트 신도림점",
    "region": "서울",
    "district": "구로구",
    "address": "서울 구로구 신도림동 437-1 1층 103호",
    "road_address": "서울 구로구 경인로59길 8",
    "phone": "",
    "lat": 37.50639167,
    "lng": 126.88342748
  },
  {
    "name": "이삭토스트 시흥사거리점",
    "region": "서울",
    "district": "금천구",
    "address": "서울 금천구 시흥동 883 1층",
    "road_address": "서울 금천구 시흥대로 232",
    "phone": "02-807-5228",
    "lat": 37.454633,
    "lng": 126.90095269
  },
  {
    "name": "이삭토스트 동덕여대점",
    "region": "서울",
    "district": "성북구",
    "address": "서울 성북구 하월곡동 21-77 1층",
    "road_address": "서울 성북구 화랑로13길 24",
    "phone": "02-943-8848",
    "lat": 37.60449987,
    "lng": 127.04234555
  },
  {
    "name": "이삭토스트 은행사거리점",
    "region": "서울",
    "district": "노원구",
    "address": "서울 노원구 중계동 366-6 117호",
    "road_address": "서울 노원구 한글비석로 264",
    "phone": "02-935-2329",
    "lat": 37.65080123,
    "lng": 127.07716099
  },
  {
    "name": "이삭토스트 브라운스톤점",
    "region": "서울",
    "district": "노원구",
    "address": "서울 노원구 중계동 506 브라운스톤중계 1층 103호",
    "road_address": "서울 노원구 동일로203가길 29",
    "phone": "",
    "lat": 37.64025564,
    "lng": 127.064113
  },
  {
    "name": "이삭토스트 구로중앙유통점",
    "region": "서울",
    "district": "구로구",
    "address": "서울 구로구 구로동 1258 중앙유통단지상가 지하 B-701호",
    "road_address": "서울 구로구 경인로53길 15",
    "phone": "02-2613-5969",
    "lat": 37.50093359,
    "lng": 126.87568471
  },
  {
    "name": "이삭토스트 송파사거리점",
    "region": "서울",
    "district": "송파구",
    "address": "서울 송파구 석촌동 295-10",
    "road_address": "서울 송파구 가락로 113",
    "phone": "02-422-3335",
    "lat": 37.50163563,
    "lng": 127.10862267
  },
  {
    "name": "이삭토스트 봉화산역점",
    "region": "서울",
    "district": "중랑구",
    "address": "서울 중랑구 신내동 646 금강리비스텔 상가동 1층 110호",
    "road_address": "서울 중랑구 신내로 211",
    "phone": "",
    "lat": 37.6164569,
    "lng": 127.09271934
  },
  {
    "name": "이삭토스트 서울명일점",
    "region": "서울",
    "district": "강동구",
    "address": "서울 강동구 명일동 48-12 동양타워 1층 115호",
    "road_address": "서울 강동구 동남로71길 38",
    "phone": "02-426-2445",
    "lat": 37.55202447,
    "lng": 127.15422555
  },
  {
    "name": "이삭토스트 중랑구청점",
    "region": "서울",
    "district": "중랑구",
    "address": "서울 중랑구 신내동 667",
    "road_address": "서울 중랑구 신내로 82",
    "phone": "02-3421-9954",
    "lat": 37.60647891,
    "lng": 127.09553029
  },
  {
    "name": "이삭토스트 신길역점",
    "region": "서울",
    "district": "영등포구",
    "address": "서울 영등포구 신길동 163-16",
    "road_address": "서울 영등포구 도신로 231",
    "phone": "02-835-2453",
    "lat": 37.51233494,
    "lng": 126.9167433
  },
  {
    "name": "이삭토스트 마포성산점",
    "region": "서울",
    "district": "마포구",
    "address": "서울 마포구 성산동 244-6 1층",
    "road_address": "서울 마포구 성미산로 39",
    "phone": "02-324-2492",
    "lat": 37.55906194,
    "lng": 126.91243638
  },
  {
    "name": "이삭토스트 창동하나로클럽점",
    "region": "서울",
    "district": "도봉구",
    "address": "서울 도봉구 창동 1-15 농협창동유통센터 1층",
    "road_address": "서울 도봉구 마들로11길 20",
    "phone": "02-900-1714",
    "lat": 37.6546775,
    "lng": 127.05162579
  },
  {
    "name": "이삭토스트 한남점",
    "region": "서울",
    "district": "용산구",
    "address": "서울 용산구 한남동 768-13",
    "road_address": "서울 용산구 대사관로30가길 72",
    "phone": "0507-2082-9478",
    "lat": 37.53103664,
    "lng": 127.00229214
  },
  {
    "name": "이삭토스트 서울여대점",
    "region": "서울",
    "district": "노원구",
    "address": "서울 노원구 공릉동 89-1 대덕프라자 1층 111호",
    "road_address": "서울 노원구 노원로1길 67",
    "phone": "02-948-1116",
    "lat": 37.62082898,
    "lng": 127.08362334
  },
  {
    "name": "이삭토스트 불광NC점",
    "region": "서울",
    "district": "은평구",
    "address": "서울 은평구 대조동 240 9층 D10호",
    "road_address": "서울 은평구 불광로 20",
    "phone": "02-350-8737",
    "lat": 37.60979666,
    "lng": 126.92890943
  },
  {
    "name": "이삭토스트 월곡점",
    "region": "서울",
    "district": "성북구",
    "address": "서울 성북구 하월곡동 76-7 1층",
    "road_address": "서울 성북구 오패산로 51",
    "phone": "02-919-0639",
    "lat": 37.60683178,
    "lng": 127.03649519
  },
  {
    "name": "이삭토스트 서울국악예고점",
    "region": "서울",
    "district": "금천구",
    "address": "서울 금천구 시흥동 985-1 나동 1층 103호",
    "road_address": "서울 금천구 시흥대로39길 16",
    "phone": "02-808-8773",
    "lat": 37.44715374,
    "lng": 126.90243281
  },
  {
    "name": "이삭토스트 서울역촌점",
    "region": "서울",
    "district": "은평구",
    "address": "서울 은평구 역촌동 54-6 1층 105호",
    "road_address": "서울 은평구 갈현로 85",
    "phone": "0503-5371-6011",
    "lat": 37.60554463,
    "lng": 126.91027266
  },
  {
    "name": "이삭토스트 서울반포삼호가든점",
    "region": "서울",
    "district": "서초구",
    "address": "서울 서초구 반포동 55-5 1동 1층 101호",
    "road_address": "서울 서초구 고무래로 18",
    "phone": "",
    "lat": 37.50298706,
    "lng": 127.01041371
  },
  {
    "name": "행복나무_이삭토스트",
    "region": "서울",
    "district": "영등포구",
    "address": "서울 영등포구 영등포동1가 94-2",
    "road_address": "서울 영등포구 경인로 900",
    "phone": "",
    "lat": 37.51769205,
    "lng": 126.9126482
  },
  {
    "name": "이삭토스트 성남분당야탑점",
    "region": "경기",
    "district": "성남시",
    "address": "경기 성남시 분당구 야탑동 366-3 서일빌딩 1층 101B호",
    "road_address": "경기 성남시 분당구 성남대로916번길 7",
    "phone": "031-781-8255",
    "lat": 37.41114184,
    "lng": 127.12978179
  },
  {
    "name": "이삭토스트 중동현대점",
    "region": "경기",
    "district": "부천시",
    "address": "경기 부천시 원미구 중동 1161-1 디아뜨2 B동 1층 106호",
    "road_address": "경기 부천시 원미구 소향로 123",
    "phone": "032-322-2492",
    "lat": 37.50239371,
    "lng": 126.76156911
  },
  {
    "name": "이삭토스트 부천중동점",
    "region": "경기",
    "district": "부천시",
    "address": "경기 부천시 원미구 중동 1134-4 굿모닝로얄프라자 1층 107호",
    "road_address": "경기 부천시 원미구 조마루로285번길 40",
    "phone": "032-323-2495",
    "lat": 37.49927719,
    "lng": 126.77538823
  },
  {
    "name": "이삭토스트 안산본오점",
    "region": "경기",
    "district": "안산시",
    "address": "경기 안산시 상록구 본오동 823-12 1층",
    "road_address": "경기 안산시 상록구 본오로 98",
    "phone": "031-415-1117",
    "lat": 37.29382225,
    "lng": 126.86667685
  },
  {
    "name": "이삭토스트",
    "region": "경기",
    "district": "성남시",
    "address": "경기 성남시 수정구 신흥동 5493-1 1층 101호",
    "road_address": "경기 성남시 수정구 수정로 202",
    "phone": "",
    "lat": 37.44381919,
    "lng": 127.142158
  },
  {
    "name": "이삭토스트 수원율현점",
    "region": "경기",
    "district": "수원시",
    "address": "경기 수원시 팔달구 화서동 727 서수원프라자 1층",
    "road_address": "경기 수원시 팔달구 일월로22번길 22-5",
    "phone": "031-292-5431",
    "lat": 37.28589754,
    "lng": 126.98138193
  },
  {
    "name": "이삭토스트 수원권선3지구점",
    "region": "경기",
    "district": "수원시",
    "address": "경기 수원시 권선구 권선동 1291-10 1층",
    "road_address": "경기 수원시 권선구 동수원로242번길 33",
    "phone": "031-225-1160",
    "lat": 37.25079946,
    "lng": 127.03641632
  },
  {
    "name": "이삭토스트 수원광교에듀타운점",
    "region": "경기",
    "district": "수원시",
    "address": "경기 수원시 영통구 이의동 1341-2 프레스비에듀센터 1층 101호",
    "road_address": "경기 수원시 영통구 도청로17번길 40",
    "phone": "031-217-2492",
    "lat": 37.2850303,
    "lng": 127.05248182
  },
  {
    "name": "이삭토스트 평택이충뜨란점",
    "region": "경기",
    "district": "평택시",
    "address": "경기 평택시 이충동 668-2 보람플러스2 1층 101호",
    "road_address": "경기 평택시 이충로35번길 24",
    "phone": "031-666-0326",
    "lat": 37.05949168,
    "lng": 127.06644759
  },
  {
    "name": "이삭토스트 화성동탄북광장점",
    "region": "경기",
    "district": "화성시",
    "address": "경기 화성시 동탄구 반송동 91-1 102호",
    "road_address": "경기 화성시 동탄구 동탄중심상가2길 2",
    "phone": "031-613-7769",
    "lat": 37.20572911,
    "lng": 127.07211509
  },
  {
    "name": "이삭토스트 용인둔전점",
    "region": "경기",
    "district": "용인시",
    "address": "경기 용인시 처인구 포곡읍 둔전리 393-11 1층",
    "road_address": "경기 용인시 처인구 포곡읍 포곡로 103",
    "phone": "031-321-9959",
    "lat": 37.26932358,
    "lng": 127.21698302
  },
  {
    "name": "이삭토스트 수원매탄4지구점",
    "region": "경기",
    "district": "수원시",
    "address": "경기 수원시 영통구 매탄동 1263-4 우영프라자2 1층 101호",
    "road_address": "경기 수원시 영통구 매탄로100번길 17",
    "phone": "031-212-2799",
    "lat": 37.25947838,
    "lng": 127.04416385
  },
  {
    "name": "이삭토스트 부천원종사거리점",
    "region": "경기",
    "district": "부천시",
    "address": "경기 부천시 오정구 원종동 227-1 1층",
    "road_address": "경기 부천시 오정구 소사로 759",
    "phone": "032-672-2345",
    "lat": 37.52398282,
    "lng": 126.80449607
  },
  {
    "name": "이삭토스트 수원역점",
    "region": "경기",
    "district": "수원시",
    "address": "경기 수원시 팔달구 매산로1가 14-11 1층",
    "road_address": "경기 수원시 팔달구 향교로1번길 12",
    "phone": "031-242-7733",
    "lat": 37.26809877,
    "lng": 127.00084218
  },
  {
    "name": "이삭토스트 광명어반브릭스점",
    "region": "경기",
    "district": "광명시",
    "address": "경기 광명시 일직동 512-3 어반브릭스 B동 1층 136호",
    "road_address": "경기 광명시 양지로 19",
    "phone": "02-899-1998",
    "lat": 37.41869589,
    "lng": 126.88217518
  },
  {
    "name": "이삭토스트 고양삼송점",
    "region": "경기",
    "district": "고양시",
    "address": "경기 고양시 덕양구 삼송동 327 1층 104호",
    "road_address": "경기 고양시 덕양구 삼송로 94-22",
    "phone": "02-381-1511",
    "lat": 37.6503711,
    "lng": 126.88407987
  },
  {
    "name": "이삭토스트 성남중원점",
    "region": "경기",
    "district": "성남시",
    "address": "경기 성남시 중원구 상대원동 2956",
    "road_address": "경기 성남시 중원구 금상로 40",
    "phone": "031-747-0478",
    "lat": 37.43903455,
    "lng": 127.16130659
  },
  {
    "name": "이삭토스트 부천상동점",
    "region": "경기",
    "district": "부천시",
    "address": "경기 부천시 원미구 상동 546-10 월드프라자 1층 110호",
    "road_address": "경기 부천시 원미구 소향로 35",
    "phone": "032-327-2360",
    "lat": 37.50368222,
    "lng": 126.75155046
  },
  {
    "name": "이삭토스트 동탄2시범점",
    "region": "경기",
    "district": "화성시",
    "address": "경기 화성시 동탄구 영천동 681-1",
    "road_address": "경기 화성시 동탄구 동탄순환대로 708",
    "phone": "",
    "lat": 37.20796925,
    "lng": 127.11032946
  },
  {
    "name": "이삭토스트 안산선부점",
    "region": "경기",
    "district": "안산시",
    "address": "경기 안산시 단원구 선부동 1070-18 102호",
    "road_address": "경기 안산시 단원구 선부광장1로 38",
    "phone": "031-403-5955",
    "lat": 37.33664883,
    "lng": 126.80912629
  },
  {
    "name": "이삭토스트 안산중앙점",
    "region": "경기",
    "district": "안산시",
    "address": "경기 안산시 단원구 고잔동 534-3 중앙노블레스 1층 124호",
    "road_address": "경기 안산시 단원구 예술대학로 17",
    "phone": "031-403-5577",
    "lat": 37.31887081,
    "lng": 126.83634674
  },
  {
    "name": "이삭토스트 단대오거리역점",
    "region": "경기",
    "district": "성남시",
    "address": "경기 성남시 중원구 금광동 11 1층",
    "road_address": "경기 성남시 중원구 산성대로372번길 14",
    "phone": "031-748-0010",
    "lat": 37.44474867,
    "lng": 127.15872988
  },
  {
    "name": "이삭토스트 성남분당미금역점",
    "region": "경기",
    "district": "성남시",
    "address": "경기 성남시 분당구 금곡동 153 썬프라자 1층 106호",
    "road_address": "경기 성남시 분당구 돌마로 79",
    "phone": "",
    "lat": 37.35033476,
    "lng": 127.11088282
  },
  {
    "name": "이삭토스트 김포구래점",
    "region": "경기",
    "district": "김포시",
    "address": "경기 김포시 구래동 6883-9 다온프라자 1층 104호",
    "road_address": "경기 김포시 김포한강9로 80",
    "phone": "031-988-4886",
    "lat": 37.64397157,
    "lng": 126.6259816
  },
  {
    "name": "이삭토스트 의정부신곡점",
    "region": "경기",
    "district": "의정부시",
    "address": "경기 의정부시 신곡동 719-4 우신프라자 1층 110호",
    "road_address": "경기 의정부시 신곡로 47",
    "phone": "031-855-2445",
    "lat": 37.7311196,
    "lng": 127.05633213
  },
  {
    "name": "이삭토스트 용인구갈점",
    "region": "경기",
    "district": "용인시",
    "address": "경기 용인시 기흥구 구갈동 351 상가동 1층 107호",
    "road_address": "경기 용인시 기흥구 구갈로 74",
    "phone": "031-285-6006",
    "lat": 37.28093094,
    "lng": 127.11190684
  },
  {
    "name": "이삭토스트 하남미사점",
    "region": "경기",
    "district": "하남시",
    "address": "경기 하남시 망월동 966 미사중앙프라자 1층 101호",
    "road_address": "경기 하남시 미사강변대로 222",
    "phone": "031-792-5948",
    "lat": 37.56942321,
    "lng": 127.18423076
  },
  {
    "name": "이삭토스트 군포산본점",
    "region": "경기",
    "district": "군포시",
    "address": "경기 군포시 산본동 1131-1 미성빌딩 103호",
    "road_address": "경기 군포시 산본로323번길 4-21",
    "phone": "031-391-3239",
    "lat": 37.36024993,
    "lng": 126.93247544
  },
  {
    "name": "이삭토스트 하남미사센트럴자이점",
    "region": "경기",
    "district": "하남시",
    "address": "경기 하남시 풍산동 502 승리타워 107호",
    "road_address": "경기 하남시 미사강변대로 90",
    "phone": "",
    "lat": 37.55799051,
    "lng": 127.1882136
  },
  {
    "name": "이삭토스트 안양어반포레점",
    "region": "경기",
    "district": "안양시",
    "address": "경기 안양시 만안구 안양동 618-12 안양어반포레자연앤e편한세상아파트 상가동 1층 103호",
    "road_address": "경기 안양시 만안구 냉천로 125",
    "phone": "",
    "lat": 37.39256182,
    "lng": 126.92257994
  },
  {
    "name": "이삭토스트 사동점",
    "region": "경기",
    "district": "안산시",
    "address": "경기 안산시 상록구 사동 1333-13 1층",
    "road_address": "경기 안산시 상록구 석호로 213",
    "phone": "031-417-4524",
    "lat": 37.29454867,
    "lng": 126.85458429
  },
  {
    "name": "이삭토스트 안양박달사거리점",
    "region": "경기",
    "district": "안양시",
    "address": "경기 안양시 만안구 박달동 18-7",
    "road_address": "경기 안양시 만안구 양화로 113",
    "phone": "031-444-0113",
    "lat": 37.40284989,
    "lng": 126.91013316
  },
  {
    "name": "이삭토스트 오산원동점",
    "region": "경기",
    "district": "오산시",
    "address": "경기 오산시 원동 346-13 원동프라자 101호",
    "road_address": "경기 오산시 오산로160번길 11",
    "phone": "031-374-1900",
    "lat": 37.14141744,
    "lng": 127.06983726
  },
  {
    "name": "이삭토스트 판교봇들마을점",
    "region": "경기",
    "district": "성남시",
    "address": "경기 성남시 분당구 삼평동 708 에메트타운 1층 102호",
    "road_address": "경기 성남시 분당구 판교로 375",
    "phone": "031-705-8887",
    "lat": 37.4042027,
    "lng": 127.11538961
  },
  {
    "name": "이삭토스트 정자2호점",
    "region": "경기",
    "district": "수원시",
    "address": "경기 수원시 장안구 정자동 35-5 1층",
    "road_address": "경기 수원시 장안구 송정로 54-1",
    "phone": "0507-2084-6619",
    "lat": 37.2959523,
    "lng": 127.00310154
  },
  {
    "name": "이삭토스트 고양일산후곡점",
    "region": "경기",
    "district": "고양시",
    "address": "경기 고양시 일산서구 일산동 1060 뉴시티프라자 1층 106호",
    "road_address": "경기 고양시 일산서구 일산로 571",
    "phone": "",
    "lat": 37.6788615,
    "lng": 126.76462962
  },
  {
    "name": "이삭토스트 양주옥정점",
    "region": "경기",
    "district": "양주시",
    "address": "경기 양주시 옥정동 963-3 제일타워 105호",
    "road_address": "경기 양주시 옥정로 226",
    "phone": "031-857-7137",
    "lat": 37.82171521,
    "lng": 127.09194195
  },
  {
    "name": "이삭토스트 수원조원점",
    "region": "경기",
    "district": "수원시",
    "address": "경기 수원시 장안구 조원동 859-3 106호",
    "road_address": "경기 수원시 장안구 금당로39번길 6",
    "phone": "031-258-2492",
    "lat": 37.30326766,
    "lng": 127.01612677
  },
  {
    "name": "이삭토스트 운정산내마을점",
    "region": "경기",
    "district": "파주시",
    "address": "경기 파주시 목동동 931-1 1층",
    "road_address": "경기 파주시 청암로17번길 35",
    "phone": "031-945-9778",
    "lat": 37.72895116,
    "lng": 126.73615173
  },
  {
    "name": "이삭토스트",
    "region": "경기",
    "district": "수원시",
    "address": "경기 수원시 장안구 정자동 876-5",
    "road_address": "경기 수원시 장안구 정자천로173번길 11-10",
    "phone": "031-271-2456",
    "lat": 37.29567945,
    "lng": 126.99418378
  },
  {
    "name": "이삭토스트 수원황골마을점",
    "region": "경기",
    "district": "수원시",
    "address": "경기 수원시 영통구 영통동 949-4 1층 103호",
    "road_address": "경기 수원시 영통구 영통로 519",
    "phone": "",
    "lat": 37.2650811,
    "lng": 127.07742578
  },
  {
    "name": "이삭토스트 안양평촌예담점",
    "region": "경기",
    "district": "안양시",
    "address": "경기 안양시 동안구 비산동 1101-9",
    "road_address": "경기 안양시 동안구 달안로 71",
    "phone": "031-383-7175",
    "lat": 37.39629632,
    "lng": 126.95072029
  },
  {
    "name": "이삭토스트 수원아주대점",
    "region": "경기",
    "district": "수원시",
    "address": "경기 수원시 팔달구 우만동 76-12 1층",
    "road_address": "경기 수원시 팔달구 아주로 13",
    "phone": "031-217-8251",
    "lat": 37.27603968,
    "lng": 127.0437304
  },
  {
    "name": "이삭토스트 용인수지2지구점",
    "region": "경기",
    "district": "용인시",
    "address": "경기 용인시 수지구 풍덕천동 1089-1 1층 103호",
    "road_address": "경기 용인시 수지구 풍덕천로96번길 3-9",
    "phone": "031-261-5334",
    "lat": 37.32146426,
    "lng": 127.09383706
  },
  {
    "name": "이삭토스트 경기수원동남보건대점",
    "region": "경기",
    "district": "수원시",
    "address": "경기 수원시 장안구 정자동 913 1층",
    "road_address": "경기 수원시 장안구 천천로74번길 35",
    "phone": "031-254-9266",
    "lat": 37.29973256,
    "lng": 126.98626567
  },
  {
    "name": "이삭토스트 여주중앙점",
    "region": "경기",
    "district": "여주시",
    "address": "경기 여주시 홍문동 42 1층",
    "road_address": "경기 여주시 여흥로109번길 10",
    "phone": "031-886-1008",
    "lat": 37.29640386,
    "lng": 127.63594551
  },
  {
    "name": "이삭토스트 파주금촌점",
    "region": "경기",
    "district": "파주시",
    "address": "경기 파주시 금촌동 71-26",
    "road_address": "경기 파주시 문화로 65",
    "phone": "0503-5264-5051",
    "lat": 37.76024986,
    "lng": 126.77576354
  },
  {
    "name": "이삭토스트 김포사우점",
    "region": "경기",
    "district": "김포시",
    "address": "경기 김포시 북변동 826 사우테마프라자 106호",
    "road_address": "경기 김포시 사우중로 83",
    "phone": "031-998-1433",
    "lat": 37.62218604,
    "lng": 126.72076743
  },
  {
    "name": "이삭토스트 용인보정점",
    "region": "경기",
    "district": "용인시",
    "address": "경기 용인시 기흥구 보정동 1265-1 타워시티 108호",
    "road_address": "경기 용인시 기흥구 죽전로 46",
    "phone": "031-898-2498",
    "lat": 37.3202818,
    "lng": 127.11370314
  },
  {
    "name": "이삭토스트 화성시청점",
    "region": "경기",
    "district": "화성시",
    "address": "경기 화성시 만세구 남양읍 남양리 2072-11 메인프라자 1층 105호",
    "road_address": "경기 화성시 만세구 남양읍 시청로 119",
    "phone": "031-356-1412",
    "lat": 37.20043101,
    "lng": 126.82646284
  },
  {
    "name": "이삭토스트 용인수지동천점",
    "region": "경기",
    "district": "용인시",
    "address": "경기 용인시 수지구 동천동 282-4 B동",
    "road_address": "경기 용인시 수지구 수풍로 103",
    "phone": "0503-5371-7340",
    "lat": 37.33294398,
    "lng": 127.09311111
  },
  {
    "name": "이삭토스트 구리장자못점",
    "region": "경기",
    "district": "구리시",
    "address": "경기 구리시 수택동 874 새롬프라자8차 1층 105호",
    "road_address": "경기 구리시 장자대로 74",
    "phone": "031-567-2929",
    "lat": 37.58722423,
    "lng": 127.13871323
  },
  {
    "name": "이삭토스트 고양일산구일산점",
    "region": "경기",
    "district": "고양시",
    "address": "경기 고양시 일산서구 일산동 591-1",
    "road_address": "경기 고양시 일산서구 일청로 27",
    "phone": "031-977-0285",
    "lat": 37.68684069,
    "lng": 126.77111425
  },
  {
    "name": "이삭토스트 용인성복점",
    "region": "경기",
    "district": "용인시",
    "address": "경기 용인시 수지구 성복동 731 상가동 1층 106호",
    "road_address": "경기 용인시 수지구 성복2로 162",
    "phone": "",
    "lat": 37.3175646,
    "lng": 127.06891686
  },
  {
    "name": "이삭토스트 원흥역점",
    "region": "경기",
    "district": "고양시",
    "address": "경기 고양시 덕양구 원흥동 629-1",
    "road_address": "경기 고양시 덕양구 삼송로 12",
    "phone": "031-964-7787",
    "lat": 37.64972532,
    "lng": 126.87546658
  },
  {
    "name": "이삭토스트 남양주별내점",
    "region": "경기",
    "district": "남양주시",
    "address": "경기 남양주시 별내동 1049 별빛마을LH3단지상가 102호",
    "road_address": "경기 남양주시 별내5로 24",
    "phone": "031-564-2580",
    "lat": 37.65054679,
    "lng": 127.11564617
  },
  {
    "name": "이삭토스트 부천역점",
    "region": "경기",
    "district": "부천시",
    "address": "경기 부천시 소사구 심곡본동 316-2 부천역사쇼핑몰 가호 139호",
    "road_address": "경기 부천시 소사구 부천로 1",
    "phone": "032-614-8567",
    "lat": 37.48403891,
    "lng": 126.78284642
  },
  {
    "name": "이삭토스트 안성중앙로점",
    "region": "경기",
    "district": "안성시",
    "address": "경기 안성시 대천동 64 1층",
    "road_address": "경기 안성시 중앙로389번길 6",
    "phone": "031-677-5337",
    "lat": 37.00755918,
    "lng": 127.27024722
  },
  {
    "name": "이삭토스트 용인광교상현역점",
    "region": "경기",
    "district": "용인시",
    "address": "경기 용인시 수지구 상현동 1117-6 광교2차푸르지오씨티 C동 103호",
    "road_address": "경기 용인시 수지구 광교중앙로 305",
    "phone": "",
    "lat": 37.29733553,
    "lng": 127.06879013
  },
  {
    "name": "이삭토스트 동탄청계점",
    "region": "경기",
    "district": "화성시",
    "address": "경기 화성시 동탄구 청계동 535-2 센텀프라자 108-2호",
    "road_address": "경기 화성시 동탄구 동탄대로시범길 142",
    "phone": "",
    "lat": 37.1998625,
    "lng": 127.1133781
  },
  {
    "name": "이삭토스트 과천자이점",
    "region": "경기",
    "district": "과천시",
    "address": "경기 과천시 별양동 52 상가 1층 106호",
    "road_address": "경기 과천시 별양로 142",
    "phone": "070-8861-7262",
    "lat": 37.43030294,
    "lng": 126.99897523
  },
  {
    "name": "이삭토스트",
    "region": "경기",
    "district": "부천시",
    "address": "경기 부천시 원미구 역곡동 36-13",
    "road_address": "경기 부천시 원미구 부일로685번길 36",
    "phone": "032-341-5475",
    "lat": 37.48559227,
    "lng": 126.80562281
  },
  {
    "name": "이삭토스트 광명하안점",
    "region": "경기",
    "district": "광명시",
    "address": "경기 광명시 하안동 37-2 대연빌딩 1층 105호",
    "road_address": "경기 광명시 하안로 293-12",
    "phone": "02-894-3858",
    "lat": 37.46153617,
    "lng": 126.87923473
  },
  {
    "name": "이삭토스트 위례트램점",
    "region": "경기",
    "district": "성남시",
    "address": "경기 성남시 수정구 창곡동 509-1 우성트램타워 B동 1층 112호",
    "road_address": "경기 성남시 수정구 위례광장로 310",
    "phone": "031-757-7787",
    "lat": 37.47270919,
    "lng": 127.1429396
  },
  {
    "name": "이삭토스트 이천중앙점",
    "region": "경기",
    "district": "이천시",
    "address": "경기 이천시 창전동 160",
    "road_address": "경기 이천시 어재연로37번길 29",
    "phone": "031-631-2439",
    "lat": 37.2804591,
    "lng": 127.44400834
  },
  {
    "name": "이삭토스트 고양일산웨스턴돔점",
    "region": "경기",
    "district": "고양시",
    "address": "경기 고양시 일산동구 장항동 856-1 대양빌딩 1층 104호",
    "road_address": "경기 고양시 일산동구 정발산로 39",
    "phone": "031-905-3412",
    "lat": 37.65731778,
    "lng": 126.77315075
  },
  {
    "name": "이삭토스트 의정부경민대점",
    "region": "경기",
    "district": "의정부시",
    "address": "경기 의정부시 가능동 695-33 1층",
    "road_address": "경기 의정부시 흥선로16번길 88",
    "phone": "031-876-1886",
    "lat": 37.74416433,
    "lng": 127.02683104
  },
  {
    "name": "이삭토스트 안양역점",
    "region": "경기",
    "district": "안양시",
    "address": "경기 안양시 만안구 안양동 633-1",
    "road_address": "경기 안양시 만안구 만안로 208-1",
    "phone": "031-469-7330",
    "lat": 37.39952597,
    "lng": 126.92420926
  },
  {
    "name": "이삭토스트 성남수진점",
    "region": "경기",
    "district": "성남시",
    "address": "경기 성남시 중원구 성남동 2518 1층",
    "road_address": "경기 성남시 중원구 원터로105번길 2",
    "phone": "031-751-5796",
    "lat": 37.43611802,
    "lng": 127.14232649
  },
  {
    "name": "이삭토스트 화성봉담점",
    "region": "경기",
    "district": "화성시",
    "address": "경기 화성시 효행구 봉담읍 동화리 600-6 1층106호",
    "road_address": "경기 화성시 효행구 봉담읍 동화길 93-6",
    "phone": "031-296-0560",
    "lat": 37.21646882,
    "lng": 126.95930822
  },
  {
    "name": "이삭토스트 경기의정부동오마을점",
    "region": "경기",
    "district": "의정부시",
    "address": "경기 의정부시 신곡동 673 휴먼시티 1층 111호",
    "road_address": "경기 의정부시 추동로 9",
    "phone": "0503-5268-9922",
    "lat": 37.74295259,
    "lng": 127.05704794
  },
  {
    "name": "이삭토스트 김포신곡점",
    "region": "경기",
    "district": "김포시",
    "address": "경기 김포시 고촌읍 신곡리 880-1 113호",
    "road_address": "경기 김포시 고촌읍 수기로 109",
    "phone": "031-987-4792",
    "lat": 37.59389003,
    "lng": 126.76386143
  },
  {
    "name": "이삭토스트 구리수택점",
    "region": "경기",
    "district": "구리시",
    "address": "경기 구리시 수택동 847-5 도레미빌딩 1층 103호",
    "road_address": "경기 구리시 체육관로80번길 19",
    "phone": "031-514-3000",
    "lat": 37.59190897,
    "lng": 127.13906727
  },
  {
    "name": "이삭토스트 구리갈매점",
    "region": "경기",
    "district": "구리시",
    "address": "경기 구리시 갈매동 605-3 에스엠타워 1층 108호",
    "road_address": "경기 구리시 갈매중앙로 79",
    "phone": "031-574-5998",
    "lat": 37.63164491,
    "lng": 127.11696388
  },
  {
    "name": "이삭토스트 가능역점",
    "region": "경기",
    "district": "의정부시",
    "address": "경기 의정부시 가능동 643-18",
    "road_address": "경기 의정부시 가능로119번길 25",
    "phone": "031-874-1759",
    "lat": 37.74800201,
    "lng": 127.04393685
  },
  {
    "name": "이삭토스트",
    "region": "경기",
    "district": "수원시",
    "address": "경기 수원시 팔달구 북수동 25-12",
    "road_address": "경기 수원시 팔달구 정조로886번길 26",
    "phone": "031-253-2403",
    "lat": 37.2871744,
    "lng": 127.01683436
  },
  {
    "name": "이삭토스트",
    "region": "경기",
    "district": "남양주시",
    "address": "경기 남양주시 오남읍 양지리 105 1층",
    "road_address": "경기 남양주시 오남읍 진건오남로 793",
    "phone": "031-574-4043",
    "lat": 37.69747525,
    "lng": 127.20322116
  },
  {
    "name": "이삭토스트 안양성결대점",
    "region": "경기",
    "district": "안양시",
    "address": "경기 안양시 만안구 안양동 563-25",
    "road_address": "경기 안양시 만안구 성결대학로 34",
    "phone": "0503-5371-8373",
    "lat": 37.38246808,
    "lng": 126.93050438
  },
  {
    "name": "이삭토스트 광명철산역점",
    "region": "경기",
    "district": "광명시",
    "address": "경기 광명시 철산동 245-4 1층 106-1호",
    "road_address": "경기 광명시 철산로 27",
    "phone": "",
    "lat": 37.47682262,
    "lng": 126.86899565
  },
  {
    "name": "이삭토스트 화성향남점",
    "region": "경기",
    "district": "화성시",
    "address": "경기 화성시 만세구 향남읍 행정리 433-5",
    "road_address": "경기 화성시 만세구 향남읍 행정서로3길 4-54",
    "phone": "",
    "lat": 37.13006319,
    "lng": 126.91757806
  },
  {
    "name": "이삭토스트 수원탑동점",
    "region": "경기",
    "district": "수원시",
    "address": "경기 수원시 권선구 탑동 766-5 102호",
    "road_address": "경기 수원시 권선구 탑동로48번길 5-5",
    "phone": "",
    "lat": 37.27340761,
    "lng": 126.97425358
  },
  {
    "name": "이삭토스트 안양평촌점",
    "region": "경기",
    "district": "안양시",
    "address": "경기 안양시 동안구 호계동 1065 중앙상가 108호",
    "road_address": "경기 안양시 동안구 평촌대로 127",
    "phone": "031-385-1011",
    "lat": 37.38325646,
    "lng": 126.95954289
  },
  {
    "name": "이삭토스트 수원태장사거리점",
    "region": "경기",
    "district": "수원시",
    "address": "경기 수원시 영통구 망포동 386 센트럴타워 1층 113호",
    "road_address": "경기 수원시 영통구 영통로 136",
    "phone": "031-203-2492",
    "lat": 37.23948451,
    "lng": 127.05620988
  },
  {
    "name": "이삭토스트 남양주다산도농점",
    "region": "경기",
    "district": "남양주시",
    "address": "경기 남양주시 다산동 6169 1층 116호",
    "road_address": "경기 남양주시 다산중앙로82번안길 118",
    "phone": "",
    "lat": 37.61206636,
    "lng": 127.16462884
  },
  {
    "name": "이삭토스트 용인죽전점",
    "region": "경기",
    "district": "용인시",
    "address": "경기 용인시 수지구 죽전동 1189-4 테마프라자 1층 103호",
    "road_address": "경기 용인시 수지구 현암로 145",
    "phone": "031-889-8169",
    "lat": 37.33194643,
    "lng": 127.12542983
  },
  {
    "name": "이삭토스트 양주삼숭점",
    "region": "경기",
    "district": "양주시",
    "address": "경기 양주시 삼숭동 683-2 양주프라자2 2층 3225호",
    "road_address": "경기 양주시 삼숭로38번길 71",
    "phone": "031-844-2425",
    "lat": 37.79672058,
    "lng": 127.10515545
  },
  {
    "name": "이삭토스트 용인역북점",
    "region": "경기",
    "district": "용인시",
    "address": "경기 용인시 처인구 역북동 745 용인역북THE럭스나인 1층 B109호",
    "road_address": "경기 용인시 처인구 명지로 24",
    "phone": "031-526-6544",
    "lat": 37.23376073,
    "lng": 127.18832303
  },
  {
    "name": "이삭토스트 고양일산대화점",
    "region": "경기",
    "district": "고양시",
    "address": "경기 고양시 일산서구 대화동 2205-1 1층",
    "road_address": "경기 고양시 일산서구 중앙로 1574",
    "phone": "031-911-3154",
    "lat": 37.67654823,
    "lng": 126.7474203
  },
  {
    "name": "이삭토스트 이천하이닉스점",
    "region": "경기",
    "district": "이천시",
    "address": "경기 이천시 부발읍 아미리 726-9 현대프라자 107호",
    "road_address": "경기 이천시 부발읍 경충대로 2106",
    "phone": "031-933-0922",
    "lat": 37.2528236,
    "lng": 127.48946539
  },
  {
    "name": "이삭토스트 일산마두역점",
    "region": "경기",
    "district": "고양시",
    "address": "경기 고양시 일산동구 장항동 893-1 위너스21빌딩 1층 113호",
    "road_address": "경기 고양시 일산동구 장백로 194",
    "phone": "031-902-2820",
    "lat": 37.65197764,
    "lng": 126.776919
  },
  {
    "name": "이삭토스트 부천역곡북부점",
    "region": "경기",
    "district": "부천시",
    "address": "경기 부천시 원미구 역곡동 81-9 1층",
    "road_address": "경기 부천시 원미구 부일로 744",
    "phone": "032-668-8567",
    "lat": 37.48604664,
    "lng": 126.81247923
  },
  {
    "name": "이삭토스트 용인보라점",
    "region": "경기",
    "district": "용인시",
    "address": "경기 용인시 기흥구 보라동 573-6 1층 101호",
    "road_address": "경기 용인시 기흥구 한보라1로 8",
    "phone": "",
    "lat": 37.25398745,
    "lng": 127.10942262
  },
  {
    "name": "이삭토스트 경기구리아름마을점",
    "region": "경기",
    "district": "구리시",
    "address": "경기 구리시 인창동 523-8 1층",
    "road_address": "경기 구리시 동구릉로 90",
    "phone": "031-555-7165",
    "lat": 37.60798884,
    "lng": 127.13449121
  },
  {
    "name": "이삭토스트 동탄호수공원점",
    "region": "경기",
    "district": "화성시",
    "address": "경기 화성시 동탄구 산척동 728-5 1층",
    "road_address": "경기 화성시 동탄구 동탄순환대로 127-9",
    "phone": "031-372-5965",
    "lat": 37.16652792,
    "lng": 127.10747356
  },
  {
    "name": "이삭토스트 수원경희대점",
    "region": "경기",
    "district": "수원시",
    "address": "경기 수원시 영통구 영통동 1023-1 메가플러스4 1층 105호",
    "road_address": "경기 수원시 영통구 영일로 8",
    "phone": "031-203-1147",
    "lat": 37.24838454,
    "lng": 127.07596822
  },
  {
    "name": "이삭토스트 화성동탄역점",
    "region": "경기",
    "district": "화성시",
    "address": "경기 화성시 동탄구 여울동 969-3 1층 103호",
    "road_address": "경기 화성시 동탄구 동탄대로 489",
    "phone": "",
    "lat": 37.19735648,
    "lng": 127.09826416
  },
  {
    "name": "이삭토스트 이천마장점",
    "region": "경기",
    "district": "이천시",
    "address": "경기 이천시 마장면 오천리 426-2 1층",
    "road_address": "경기 이천시 마장면 오천로 51",
    "phone": "",
    "lat": 37.25262617,
    "lng": 127.3535758
  },
  {
    "name": "이삭토스트 고양향동점",
    "region": "경기",
    "district": "고양시",
    "address": "경기 고양시 덕양구 향동동 529 1층 117호",
    "road_address": "경기 고양시 덕양구 꽃마을로 4",
    "phone": "02-3158-1470",
    "lat": 37.59888659,
    "lng": 126.89228696
  },
  {
    "name": "이삭토스트 부천옥길점",
    "region": "경기",
    "district": "부천시",
    "address": "경기 부천시 소사구 옥길동 745-1 1층",
    "road_address": "경기 부천시 소사구 옥길로 116",
    "phone": "032-342-2344",
    "lat": 37.46695736,
    "lng": 126.8226451
  },
  {
    "name": "이삭토스트 경기안산원곡점",
    "region": "경기",
    "district": "안산시",
    "address": "경기 안산시 단원구 원곡동 1001 상가1동 122호",
    "road_address": "경기 안산시 단원구 화랑로 130",
    "phone": "031-484-8080",
    "lat": 37.32477373,
    "lng": 126.80337285
  },
  {
    "name": "이삭토스트 부천고강점",
    "region": "경기",
    "district": "부천시",
    "address": "경기 부천시 오정구 고강동 473-1 1층",
    "road_address": "경기 부천시 오정구 역곡로 479",
    "phone": "032-675-2425",
    "lat": 37.52721888,
    "lng": 126.81589118
  },
  {
    "name": "이삭토스트 평택비전점",
    "region": "경기",
    "district": "평택시",
    "address": "경기 평택시 비전동 613-1 1층",
    "road_address": "경기 평택시 평택3로 70-1",
    "phone": "031-657-2033",
    "lat": 36.99529679,
    "lng": 127.09474128
  },
  {
    "name": "이삭토스트 김포풍무역점",
    "region": "경기",
    "district": "김포시",
    "address": "경기 김포시 풍무동 1002 신유베라트 110호",
    "road_address": "경기 김포시 유현로 242",
    "phone": "031-988-9199",
    "lat": 37.61179807,
    "lng": 126.73141631
  },
  {
    "name": "이삭토스트 일산탄현점",
    "region": "경기",
    "district": "고양시",
    "address": "경기 고양시 일산서구 탄현동 1640",
    "road_address": "경기 고양시 일산서구 일현로 97-11",
    "phone": "031-919-1530",
    "lat": 37.69425945,
    "lng": 126.76386664
  },
  {
    "name": "이삭토스트 고양일산화정역점",
    "region": "경기",
    "district": "고양시",
    "address": "경기 고양시 덕양구 화정동 967-3 글로리아빌딩 1층 101호",
    "road_address": "경기 고양시 덕양구 화정로 53-1",
    "phone": "031-968-0515",
    "lat": 37.63548598,
    "lng": 126.83237158
  },
  {
    "name": "이삭토스트 평택동삭점",
    "region": "경기",
    "district": "평택시",
    "address": "경기 평택시 동삭동 854 평택센트럴자이4단지 416동 111호",
    "road_address": "경기 평택시 상서재로 50",
    "phone": "031-8094-1655",
    "lat": 37.01868268,
    "lng": 127.10112046
  },
  {
    "name": "이삭토스트 광명소하점",
    "region": "경기",
    "district": "광명시",
    "address": "경기 광명시 소하동 1341 1층 104호",
    "road_address": "경기 광명시 소하로 78",
    "phone": "02-6949-2231",
    "lat": 37.447917,
    "lng": 126.88334989
  },
  {
    "name": "이삭토스트 파주교하점",
    "region": "경기",
    "district": "파주시",
    "address": "경기 파주시 동패동 1696-2 이지타운 1층 106호",
    "road_address": "경기 파주시 청석로 262",
    "phone": "031-948-2307",
    "lat": 37.72523704,
    "lng": 126.71822013
  },
  {
    "name": "이삭토스트 진접역점",
    "region": "경기",
    "district": "남양주시",
    "address": "경기 남양주시 진접읍 금곡리 1042 엠타워 1층 102호",
    "road_address": "경기 남양주시 진접읍 해밀예당1로 220",
    "phone": "",
    "lat": 37.72009144,
    "lng": 127.20261032
  },
  {
    "name": "이삭토스트 수원매교역점",
    "region": "경기",
    "district": "수원시",
    "address": "경기 수원시 팔달구 매교동 300 1층",
    "road_address": "경기 수원시 팔달구 인계로 20",
    "phone": "031-895-6775",
    "lat": 37.26628382,
    "lng": 127.01658957
  },
  {
    "name": "이삭토스트 초지점",
    "region": "경기",
    "district": "안산시",
    "address": "경기 안산시 단원구 초지동 729-2",
    "road_address": "경기 안산시 단원구 광덕1로 63",
    "phone": "031-401-2385",
    "lat": 37.30868155,
    "lng": 126.8166115
  },
  {
    "name": "이삭토스트 위례호반점",
    "region": "경기",
    "district": "성남시",
    "address": "경기 성남시 수정구 창곡동 513 1층",
    "road_address": "경기 성남시 수정구 위례동로 153",
    "phone": "031-756-7975",
    "lat": 37.47360792,
    "lng": 127.14987013
  },
  {
    "name": "이삭토스트 의정부신한대점",
    "region": "경기",
    "district": "의정부시",
    "address": "경기 의정부시 호원동 119-34",
    "road_address": "경기 의정부시 망월로 5",
    "phone": "031-873-7879",
    "lat": 37.70840752,
    "lng": 127.0473213
  },
  {
    "name": "이삭토스트 용인강남대점",
    "region": "경기",
    "district": "용인시",
    "address": "경기 용인시 기흥구 구갈동 594-1 1층 108호",
    "road_address": "경기 용인시 기흥구 강남동로 6",
    "phone": "031-286-0211",
    "lat": 37.27149798,
    "lng": 127.12772536
  },
  {
    "name": "이삭토스트 의왕포일점",
    "region": "경기",
    "district": "의왕시",
    "address": "경기 의왕시 포일동 660 포일프라임타워 107호",
    "road_address": "경기 의왕시 포일세거리로 10",
    "phone": "031-422-3944",
    "lat": 37.39598855,
    "lng": 126.98561232
  },
  {
    "name": "이삭토스트 남양주호평점",
    "region": "경기",
    "district": "남양주시",
    "address": "경기 남양주시 호평동 641 에이스프라자 115호",
    "road_address": "경기 남양주시 늘을2로14번길 3",
    "phone": "",
    "lat": 37.65407639,
    "lng": 127.24414262
  },
  {
    "name": "이삭토스트 화성동탄목동점",
    "region": "경기",
    "district": "화성시",
    "address": "경기 화성시 동탄구 목동 487-9 1층",
    "road_address": "경기 화성시 동탄구 동탄순환대로20길 118",
    "phone": "031-375-2423",
    "lat": 37.18294435,
    "lng": 127.12483054
  },
  {
    "name": "이삭토스트 동두천지행역점",
    "region": "경기",
    "district": "동두천시",
    "address": "경기 동두천시 지행동 721-1 시티타워 1층 103호",
    "road_address": "경기 동두천시 지행로 64",
    "phone": "",
    "lat": 37.89223535,
    "lng": 127.05424005
  },
  {
    "name": "이삭토스트 광주샬롬점",
    "region": "경기",
    "district": "광주시",
    "address": "경기 광주시 태전동 261-43 1층 6호",
    "road_address": "경기 광주시 태봉로 35",
    "phone": "031-767-2021",
    "lat": 37.39005979,
    "lng": 127.23035405
  },
  {
    "name": "이삭토스트 군포당동점",
    "region": "경기",
    "district": "군포시",
    "address": "경기 군포시 당동 921-5",
    "road_address": "경기 군포시 고산로 256",
    "phone": "",
    "lat": 37.34657128,
    "lng": 126.94433676
  },
  {
    "name": "이삭토스트 의왕계원예술대점",
    "region": "경기",
    "district": "의왕시",
    "address": "경기 의왕시 내손동 757 신우프라자 107호",
    "road_address": "경기 의왕시 계원대학로 34",
    "phone": "031-424-4658",
    "lat": 37.37906917,
    "lng": 126.97498867
  },
  {
    "name": "이삭토스트 행신역점",
    "region": "경기",
    "district": "고양시",
    "address": "경기 고양시 덕양구 행신동 761-6 1층 103호",
    "road_address": "경기 고양시 덕양구 충장로 18",
    "phone": "031-973-2056",
    "lat": 37.61439771,
    "lng": 126.8344384
  },
  {
    "name": "이삭토스트 안산부곡점",
    "region": "경기",
    "district": "안산시",
    "address": "경기 안산시 상록구 부곡동 539 1층 113호",
    "road_address": "경기 안산시 상록구 정재로 22",
    "phone": "031-501-5544",
    "lat": 37.3326764,
    "lng": 126.86408402
  },
  {
    "name": "이삭토스트 경기광주신현점",
    "region": "경기",
    "district": "광주시",
    "address": "경기 광주시 신현동 676-6 1동 1층",
    "road_address": "경기 광주시 머루숯길 8",
    "phone": "031-713-4243",
    "lat": 37.3604144,
    "lng": 127.15578202
  },
  {
    "name": "이삭토스트 남양주덕소도심역점",
    "region": "경기",
    "district": "남양주시",
    "address": "경기 남양주시 와부읍 도곡리 997-13 재령빌딩 1층 5-1호",
    "road_address": "경기 남양주시 와부읍 덕소로 214",
    "phone": "031-568-3381",
    "lat": 37.57930564,
    "lng": 127.21983905
  },
  {
    "name": "이삭토스트 덕정점",
    "region": "경기",
    "district": "양주시",
    "address": "경기 양주시 덕정동 208-9 1층",
    "road_address": "경기 양주시 고암길 306-53",
    "phone": "031-858-4853",
    "lat": 37.83671878,
    "lng": 127.06813376
  },
  {
    "name": "이삭토스트 평내점",
    "region": "경기",
    "district": "남양주시",
    "address": "경기 남양주시 평내동 579-3",
    "road_address": "경기 남양주시 평내로29번길 49",
    "phone": "031-559-7349",
    "lat": 37.64586165,
    "lng": 127.23565827
  },
  {
    "name": "이삭토스트 평택안중점",
    "region": "경기",
    "district": "평택시",
    "address": "경기 평택시 안중읍 현화리 71 1층",
    "road_address": "경기 평택시 안중읍 안현로서6길 46",
    "phone": "031-683-0655",
    "lat": 36.98476936,
    "lng": 126.92438455
  },
  {
    "name": "이삭토스트 고양서정마을점",
    "region": "경기",
    "district": "고양시",
    "address": "경기 고양시 덕양구 행신동 1080-5 미라클프라자 1층 104호",
    "road_address": "경기 고양시 덕양구 서정마을1로 4-9",
    "phone": "031-979-7869",
    "lat": 37.6187933,
    "lng": 126.84548712
  },
  {
    "name": "이삭토스트 포천신읍점",
    "region": "경기",
    "district": "포천시",
    "address": "경기 포천시 신읍동 43-14 1층",
    "road_address": "경기 포천시 중앙로 122",
    "phone": "031-531-5959",
    "lat": 37.89718077,
    "lng": 127.20322893
  },
  {
    "name": "이삭토스트 안산고잔점",
    "region": "경기",
    "district": "안산시",
    "address": "경기 안산시 단원구 고잔동 769-3 거성타운 107호",
    "road_address": "경기 안산시 단원구 광덕동로 65",
    "phone": "031-482-2824",
    "lat": 37.31032007,
    "lng": 126.83252991
  },
  {
    "name": "이삭토스트 오산수청점",
    "region": "경기",
    "district": "오산시",
    "address": "경기 오산시 수청동 620-2 스마트캐슬 106호",
    "road_address": "경기 오산시 내삼미로 89",
    "phone": "031-375-8821",
    "lat": 37.17016973,
    "lng": 127.06595437
  },
  {
    "name": "이삭토스트 화성병점2호점",
    "region": "경기",
    "district": "화성시",
    "address": "경기 화성시 병점구 병점동 313-4 태성빌딩 1층",
    "road_address": "경기 화성시 병점구 병점2로 46",
    "phone": "031-225-2212",
    "lat": 37.20678444,
    "lng": 127.04168917
  },
  {
    "name": "이삭토스트 용인단국대점",
    "region": "경기",
    "district": "용인시",
    "address": "경기 용인시 수지구 죽전동 1328-2 단대프라자3 105호",
    "road_address": "경기 용인시 수지구 죽전로 150",
    "phone": "031-889-3061",
    "lat": 37.3239682,
    "lng": 127.12418903
  },
  {
    "name": "이삭토스트 시흥시화점",
    "region": "경기",
    "district": "시흥시",
    "address": "경기 시흥시 정왕동 1861-4 로얄타운 107호",
    "road_address": "경기 시흥시 옥구상가2길 4",
    "phone": "031-498-5592",
    "lat": 37.35378766,
    "lng": 126.72394306
  },
  {
    "name": "이삭토스트 시흥대야점",
    "region": "경기",
    "district": "시흥시",
    "address": "경기 시흥시 대야동 581-4 한국빌딩 1층",
    "road_address": "경기 시흥시 은행로 170",
    "phone": "031-315-4070",
    "lat": 37.4460036,
    "lng": 126.79857186
  },
  {
    "name": "이삭토스트 평택팽성점",
    "region": "경기",
    "district": "평택시",
    "address": "경기 평택시 팽성읍 송화리 779-1 송화프라자 103호",
    "road_address": "경기 평택시 팽성읍 부용로 27",
    "phone": "031-691-2446",
    "lat": 36.96323421,
    "lng": 127.05873256
  },
  {
    "name": "이삭토스트 용인동백점",
    "region": "경기",
    "district": "용인시",
    "address": "경기 용인시 기흥구 중동 829 골드프라자 1층 B112호",
    "road_address": "경기 용인시 기흥구 동백중앙로 283",
    "phone": "031-285-8656",
    "lat": 37.27756208,
    "lng": 127.1541374
  },
  {
    "name": "이삭토스트 파주운정해솔마을점",
    "region": "경기",
    "district": "파주시",
    "address": "경기 파주시 와동동 1303-3 윤정프라자 107-1호",
    "road_address": "경기 파주시 미래로602번길 3",
    "phone": "0503-5371-5131",
    "lat": 37.7312609,
    "lng": 126.75167065
  },
  {
    "name": "이삭토스트 파주운정이마트점",
    "region": "경기",
    "district": "파주시",
    "address": "경기 파주시 동패동 1761-1 삼우프라자2 1층 107호",
    "road_address": "경기 파주시 미래로 369-27",
    "phone": "031-8071-3535",
    "lat": 37.71153232,
    "lng": 126.74540425
  },
  {
    "name": "이삭토스트 민락2지구점",
    "region": "경기",
    "district": "의정부시",
    "address": "경기 의정부시 민락동 808-3 1층",
    "road_address": "경기 의정부시 오목로225번길 141",
    "phone": "031-851-7006",
    "lat": 37.74540555,
    "lng": 127.09527743
  },
  {
    "name": "이삭토스트 원당점",
    "region": "경기",
    "district": "고양시",
    "address": "경기 고양시 덕양구 성사동 501-2 명지캐럿86 1층 105호",
    "road_address": "경기 고양시 덕양구 호국로 822",
    "phone": "031-965-7255",
    "lat": 37.65845631,
    "lng": 126.83867319
  },
  {
    "name": "이삭토스트 동탄나루마을점",
    "region": "경기",
    "district": "화성시",
    "address": "경기 화성시 동탄구 반송동 220-1 훼미리빌딩 1층 107호",
    "road_address": "경기 화성시 동탄구 동탄솔빛로 61",
    "phone": "",
    "lat": 37.19417098,
    "lng": 127.07383581
  },
  {
    "name": "이삭토스트 수원월드메르디앙점",
    "region": "경기",
    "district": "수원시",
    "address": "경기 수원시 팔달구 우만동 600 1층",
    "road_address": "경기 수원시 팔달구 권광로 373",
    "phone": "031-212-9193",
    "lat": 37.27902305,
    "lng": 127.03245744
  },
  {
    "name": "이삭토스트 오산점",
    "region": "경기",
    "district": "오산시",
    "address": "경기 오산시 오산동 924-1",
    "road_address": "경기 오산시 운천로 80-5",
    "phone": "031-373-6566",
    "lat": 37.14963546,
    "lng": 127.07514891
  },
  {
    "name": "이삭토스트 부천상동세이브존점",
    "region": "경기",
    "district": "부천시",
    "address": "경기 부천시 원미구 상동 535-1 뱅뱅프라자 1층 103호",
    "road_address": "경기 부천시 원미구 송내대로265번길 85",
    "phone": "032-321-3995",
    "lat": 37.50744653,
    "lng": 126.75409632
  },
  {
    "name": "이삭토스트 수원금곡호매실동점",
    "region": "경기",
    "district": "수원시",
    "address": "경기 수원시 권선구 호매실동 392-9 성웅빌딩 1층 4호",
    "road_address": "경기 수원시 권선구 매실로 57",
    "phone": "",
    "lat": 37.26808377,
    "lng": 126.95701717
  },
  {
    "name": "이삭토스트 광주 탄벌점",
    "region": "경기",
    "district": "광주시",
    "address": "경기 광주시 탄벌동 41-18 1층",
    "road_address": "경기 광주시 벌원길 63-3",
    "phone": "031-699-4423",
    "lat": 37.41608265,
    "lng": 127.2479125
  },
  {
    "name": "이삭토스트 화성향남2지구",
    "region": "경기",
    "district": "화성시",
    "address": "경기 화성시 만세구 향남읍 하길리 1471-4 1층 103-2호",
    "road_address": "경기 화성시 만세구 향남읍 상신하길로298번길 11",
    "phone": "070-8691-2237",
    "lat": 37.11476561,
    "lng": 126.91103958
  },
  {
    "name": "이삭토스트 화성병점역점",
    "region": "경기",
    "district": "화성시",
    "address": "경기 화성시 병점구 병점동 884-4 병점노블레스 1층 102호",
    "road_address": "경기 화성시 병점구 병점노을4로 5",
    "phone": "",
    "lat": 37.20499852,
    "lng": 127.02915329
  },
  {
    "name": "이삭토스트 파주출판도시이채점",
    "region": "경기",
    "district": "파주시",
    "address": "경기 파주시 문발동 510-1 C별관 1층 107호",
    "road_address": "경기 파주시 문발로 220",
    "phone": "031-955-6260",
    "lat": 37.71363144,
    "lng": 126.68763687
  },
  {
    "name": "이삭토스트 안산한대앞역점",
    "region": "경기",
    "district": "안산시",
    "address": "경기 안산시 상록구 이동 716-11 덕성프라자 110호",
    "road_address": "경기 안산시 상록구 광덕1로 382",
    "phone": "031-405-4200",
    "lat": 37.30835829,
    "lng": 126.85195874
  },
  {
    "name": "이삭토스트 용인구성점",
    "region": "경기",
    "district": "용인시",
    "address": "경기 용인시 기흥구 언남동 336-7 멀티프라자",
    "road_address": "경기 용인시 기흥구 구성로 103",
    "phone": "031-8005-8228",
    "lat": 37.29389522,
    "lng": 127.12075166
  },
  {
    "name": "이삭토스트 부천시청역점",
    "region": "경기",
    "district": "부천시",
    "address": "경기 부천시 원미구 중동 1033 우신빌딩 1층",
    "road_address": "경기 부천시 원미구 길주로 189",
    "phone": "032-322-2080",
    "lat": 37.50532473,
    "lng": 126.76352429
  },
  {
    "name": "이삭토스트 파주운정해오름마을점",
    "region": "경기",
    "district": "파주시",
    "address": "경기 파주시 다율동 1044-8 1층",
    "road_address": "경기 파주시 청암로 75",
    "phone": "",
    "lat": 37.73491773,
    "lng": 126.73311063
  },
  {
    "name": "이삭토스트 경기시흥은계점",
    "region": "경기",
    "district": "시흥시",
    "address": "경기 시흥시 은행동 645-5 은계디스퀘어 1층 111호",
    "road_address": "경기 시흥시 은계번영길 28",
    "phone": "031-313-2624",
    "lat": 37.43644562,
    "lng": 126.80337486
  },
  {
    "name": "이삭토스트 남양주다산가운점",
    "region": "경기",
    "district": "남양주시",
    "address": "경기 남양주시 다산동 668-3 1층 113호",
    "road_address": "경기 남양주시 경춘로 368",
    "phone": "031-556-2425",
    "lat": 37.60467126,
    "lng": 127.15584604
  },
  {
    "name": "이삭토스트 고양도래울점",
    "region": "경기",
    "district": "고양시",
    "address": "경기 고양시 덕양구 도내동 958 대영프라자 1층 105호",
    "road_address": "경기 고양시 덕양구 도래울로 103",
    "phone": "",
    "lat": 37.6348645,
    "lng": 126.87127573
  },
  {
    "name": "이삭토스트 평택용죽점",
    "region": "경기",
    "district": "평택시",
    "address": "경기 평택시 용이동 688-4 101호",
    "road_address": "경기 평택시 용죽3로 17",
    "phone": "",
    "lat": 36.99328985,
    "lng": 127.12513886
  },
  {
    "name": "이삭토스트",
    "region": "경기",
    "district": "성남시",
    "address": "경기 성남시 수정구 복정동 686 1층",
    "road_address": "경기 성남시 수정구 복정로72번길 4",
    "phone": "",
    "lat": 37.4591539,
    "lng": 127.12678922
  },
  {
    "name": "이삭토스트 성남서판교점",
    "region": "경기",
    "district": "성남시",
    "address": "경기 성남시 분당구 운중동 943",
    "road_address": "경기 성남시 분당구 운중로 132",
    "phone": "",
    "lat": 37.39132,
    "lng": 127.07773836
  },
  {
    "name": "이삭토스트 평택소사벌점",
    "region": "경기",
    "district": "평택시",
    "address": "경기 평택시 비전동 1012-3 폴리프라자 1층 107호",
    "road_address": "경기 평택시 평남로 937",
    "phone": "031-651-8291",
    "lat": 37.00438404,
    "lng": 127.10458778
  },
  {
    "name": "이삭토스트 평택대점",
    "region": "경기",
    "district": "평택시",
    "address": "경기 평택시 용이동 466-1 1층 103호",
    "road_address": "경기 평택시 현신로 12",
    "phone": "031-655-7224",
    "lat": 36.99439198,
    "lng": 127.13571153
  },
  {
    "name": "이삭토스트 김포걸포점",
    "region": "경기",
    "district": "김포시",
    "address": "경기 김포시 걸포동 268-1 걸포프라자 1동 1층 101호",
    "road_address": "경기 김포시 걸포2로 35",
    "phone": "031-987-4614",
    "lat": 37.63359939,
    "lng": 126.70328918
  },
  {
    "name": "이삭토스트 가평현리점",
    "region": "경기",
    "district": "가평군",
    "address": "경기 가평군 조종면 현리 409-4 1층",
    "road_address": "경기 가평군 조종면 현창로 41",
    "phone": "",
    "lat": 37.81844265,
    "lng": 127.34817551
  },
  {
    "name": "이삭토스트 하늘마을점",
    "region": "경기",
    "district": "고양시",
    "address": "경기 고양시 일산동구 중산동 1836-2 현대프라자 1층 102호",
    "road_address": "경기 고양시 일산동구 중산로 63",
    "phone": "0507-2086-5947",
    "lat": 37.67773376,
    "lng": 126.78212782
  },
  {
    "name": "이삭토스트 세교점",
    "region": "경기",
    "district": "오산시",
    "address": "경기 오산시 금암동 503-2",
    "road_address": "경기 오산시 문헌공로 9",
    "phone": "031-373-2102",
    "lat": 37.17480397,
    "lng": 127.05114208
  },
  {
    "name": "이삭토스트 부천송내남부역점",
    "region": "경기",
    "district": "부천시",
    "address": "경기 부천시 소사구 송내동 299-4 1층 103호",
    "road_address": "경기 부천시 소사구 송내대로 32",
    "phone": "",
    "lat": 37.48635325,
    "lng": 126.75372677
  },
  {
    "name": "이삭토스트 수원법원사거리점",
    "region": "경기",
    "district": "수원시",
    "address": "경기 수원시 영통구 매탄동 196-2",
    "road_address": "경기 수원시 영통구 매여울로40번길 31",
    "phone": "031-213-0182",
    "lat": 37.27245955,
    "lng": 127.04685823
  },
  {
    "name": "이삭토스트 남양주덕소삼거리점",
    "region": "경기",
    "district": "남양주시",
    "address": "경기 남양주시 와부읍 덕소리 473-2 1층",
    "road_address": "경기 남양주시 와부읍 덕소로 92",
    "phone": "031-576-2072",
    "lat": 37.5860413,
    "lng": 127.21204332
  },
  {
    "name": "이삭토스트 일산식사점",
    "region": "경기",
    "district": "고양시",
    "address": "경기 고양시 일산동구 식사동 1522 CK메디컬프라자 1층 105호",
    "road_address": "경기 고양시 일산동구 위시티로 67",
    "phone": "031-968-6842",
    "lat": 37.6781212,
    "lng": 126.81085986
  },
  {
    "name": "이삭토스트",
    "region": "경기",
    "district": "광주시",
    "address": "경기 광주시 경안동 50-8",
    "road_address": "경기 광주시 경안안길 63-1",
    "phone": "0503-5371-7631",
    "lat": 37.41086143,
    "lng": 127.25628221
  },
  {
    "name": "이삭토스트",
    "region": "경기",
    "district": "이천시",
    "address": "경기 이천시 증포동 210-1",
    "road_address": "경기 이천시 이섭대천로 1411",
    "phone": "031-638-1199",
    "lat": 37.29402148,
    "lng": 127.45584644
  },
  {
    "name": "이삭토스트 의정부고산점",
    "region": "경기",
    "district": "의정부시",
    "address": "경기 의정부시 산곡동 690-1",
    "road_address": "경기 의정부시 서광로 135",
    "phone": "",
    "lat": 37.72897351,
    "lng": 127.11091293
  },
  {
    "name": "이삭토스트 의왕오전점",
    "region": "경기",
    "district": "의왕시",
    "address": "경기 의왕시 오전동 104-5",
    "road_address": "경기 의왕시 오전로 216",
    "phone": "031-427-2444",
    "lat": 37.35976015,
    "lng": 126.96746831
  },
  {
    "name": "이삭토스트 백마점",
    "region": "경기",
    "district": "고양시",
    "address": "경기 고양시 일산동구 마두동 724 강서빌딩 1층",
    "road_address": "경기 고양시 일산동구 일산로 228",
    "phone": "031-901-5141",
    "lat": 37.6567346,
    "lng": 126.78904093
  },
  {
    "name": "이삭토스트 수원화서시장점",
    "region": "경기",
    "district": "수원시",
    "address": "경기 수원시 팔달구 화서동 114-8 1층",
    "road_address": "경기 수원시 팔달구 동말로 56",
    "phone": "031-244-3487",
    "lat": 37.2786788,
    "lng": 127.00014433
  },
  {
    "name": "이삭토스트 안양평촌트리지아점",
    "region": "경기",
    "district": "안양시",
    "address": "경기 안양시 동안구 호계동 928-6 상가동 1004호",
    "road_address": "경기 안양시 동안구 귀인로 90",
    "phone": "",
    "lat": 37.38179315,
    "lng": 126.94999698
  },
  {
    "name": "이삭토스트 안양메가트리아점",
    "region": "경기",
    "district": "안양시",
    "address": "경기 안양시 만안구 안양동 1391 마드리드상가 1층 109호",
    "road_address": "경기 안양시 만안구 태평로52번길 21",
    "phone": "031-360-2474",
    "lat": 37.39560604,
    "lng": 126.93076216
  },
  {
    "name": "이삭토스트 남양주다산지금점",
    "region": "경기",
    "district": "남양주시",
    "address": "경기 남양주시 다산동 6217-2 파크애비뉴 106호",
    "road_address": "경기 남양주시 다산지금로 132",
    "phone": "031-557-2482",
    "lat": 37.60115955,
    "lng": 127.17366873
  },
  {
    "name": "이삭토스트 용인흥덕점",
    "region": "경기",
    "district": "용인시",
    "address": "경기 용인시 기흥구 영덕동 985-1 e-city B동 115호",
    "road_address": "경기 용인시 기흥구 흥덕2로87번길 18",
    "phone": "031-216-4748",
    "lat": 37.27563327,
    "lng": 127.07157568
  },
  {
    "name": "이삭토스트 영통아이파크캐슬점",
    "region": "경기",
    "district": "수원시",
    "address": "경기 수원시 영통구 망포동 760 상가 A동 1층 102호",
    "road_address": "경기 수원시 영통구 덕영대로 1400",
    "phone": "",
    "lat": 37.24265628,
    "lng": 127.04310138
  },
  {
    "name": "이삭토스트 김포운양점",
    "region": "경기",
    "district": "김포시",
    "address": "경기 김포시 운양동 1299-1 1동 125호",
    "road_address": "경기 김포시 김포한강1로 227",
    "phone": "031-983-4679",
    "lat": 37.65414639,
    "lng": 126.6825714
  },
  {
    "name": "이삭토스트 화성봉담2지구점",
    "region": "경기",
    "district": "화성시",
    "address": "경기 화성시 효행구 봉담읍 상리 690-1 어반센터프라자 1동 109호",
    "road_address": "경기 화성시 효행구 봉담읍 상리2길 55",
    "phone": "",
    "lat": 37.22507462,
    "lng": 126.94695129
  },
  {
    "name": "이삭토스트 용인죽전중앙점",
    "region": "경기",
    "district": "용인시",
    "address": "경기 용인시 수지구 죽전동 484-9 1층",
    "road_address": "경기 용인시 수지구 대지로 43",
    "phone": "031-546-1662",
    "lat": 37.32864184,
    "lng": 127.11437017
  },
  {
    "name": "이삭토스트 용인상현점",
    "region": "경기",
    "district": "용인시",
    "address": "경기 용인시 수지구 상현동 254-1 1동 1층 102호",
    "road_address": "경기 용인시 수지구 만현로 106",
    "phone": "",
    "lat": 37.30713466,
    "lng": 127.08489112
  },
  {
    "name": "이삭토스트 포천송우초교점",
    "region": "경기",
    "district": "포천시",
    "address": "경기 포천시 소흘읍 송우리 410-18 다산상가 1층",
    "road_address": "경기 포천시 소흘읍 봉솔로 62",
    "phone": "031-544-0989",
    "lat": 37.8290781,
    "lng": 127.14252984
  },
  {
    "name": "이삭토스트 오산대점",
    "region": "경기",
    "district": "오산시",
    "address": "경기 오산시 청학동 31-1 1층",
    "road_address": "경기 오산시 청학로 39",
    "phone": "031-377-1338",
    "lat": 37.1530522,
    "lng": 127.06290008
  },
  {
    "name": "이삭토스트 안성공도점",
    "region": "경기",
    "district": "안성시",
    "address": "경기 안성시 공도읍 만정리 821-1 1층 104호",
    "road_address": "경기 안성시 공도읍 공도로 91",
    "phone": "",
    "lat": 37.00008881,
    "lng": 127.17111701
  },
  {
    "name": "이삭토스트 수원파장점",
    "region": "경기",
    "district": "수원시",
    "address": "경기 수원시 장안구 정자동 535-12 1층",
    "road_address": "경기 수원시 장안구 파장로 83",
    "phone": "031-254-2479",
    "lat": 37.3067296,
    "lng": 126.99146333
  },
  {
    "name": "이삭토스트 일산주엽역점",
    "region": "경기",
    "district": "고양시",
    "address": "경기 고양시 일산서구 주엽동 109-1 일산우신프라자빌 104호",
    "road_address": "경기 고양시 일산서구 주화로 70",
    "phone": "",
    "lat": 37.66975382,
    "lng": 126.76030588
  },
  {
    "name": "이삭토스트 오산한신대점",
    "region": "경기",
    "district": "오산시",
    "address": "경기 오산시 양산동 437",
    "road_address": "경기 오산시 한신대길 130",
    "phone": "031-372-3751",
    "lat": 37.19528292,
    "lng": 127.0230268
  },
  {
    "name": "이삭토스트",
    "region": "경기",
    "district": "수원시",
    "address": "경기 수원시 영통구 영통동 998-1",
    "road_address": "경기 수원시 영통구 반달로7번길 40",
    "phone": "031-273-0656",
    "lat": 37.25370684,
    "lng": 127.07525216
  },
  {
    "name": "이삭토스트 양평용문점",
    "region": "경기",
    "district": "양평군",
    "address": "경기 양평군 용문면 다문리 734-5 1층",
    "road_address": "경기 양평군 용문면 용문역길 9",
    "phone": "031-772-1743",
    "lat": 37.48346293,
    "lng": 127.59385537
  },
  {
    "name": "이삭토스트 화성반월점",
    "region": "경기",
    "district": "화성시",
    "address": "경기 화성시 병점구 반월동 977-5 1층 112호",
    "road_address": "경기 화성시 병점구 영통로 66",
    "phone": "031-204-2433",
    "lat": 37.23613333,
    "lng": 127.06199086
  },
  {
    "name": "이삭토스트 월피점",
    "region": "경기",
    "district": "안산시",
    "address": "경기 안산시 상록구 월피동 445-6",
    "road_address": "경기 안산시 상록구 예술광장1로 22",
    "phone": "031-486-0764",
    "lat": 37.32932711,
    "lng": 126.84490841
  },
  {
    "name": "이삭토스트 김포통진점",
    "region": "경기",
    "district": "김포시",
    "address": "경기 김포시 통진읍 서암리 720-16 1층",
    "road_address": "경기 김포시 통진읍 조강로 56",
    "phone": "031-984-9626",
    "lat": 37.69075993,
    "lng": 126.59957568
  },
  {
    "name": "이삭토스트 수원구매탄점",
    "region": "경기",
    "district": "수원시",
    "address": "경기 수원시 영통구 매탄동 153-161 1층",
    "road_address": "경기 수원시 영통구 매여울로57번길 40",
    "phone": "031-211-2177",
    "lat": 37.27365788,
    "lng": 127.04222268
  },
  {
    "name": "이삭토스트 파주문산점",
    "region": "경기",
    "district": "파주시",
    "address": "경기 파주시 문산읍 문산리 61-62 1층",
    "road_address": "경기 파주시 문산읍 문향로67번길 14",
    "phone": "",
    "lat": 37.8583011,
    "lng": 126.78449396
  },
  {
    "name": "이삭토스트 하남풍산점",
    "region": "경기",
    "district": "하남시",
    "address": "경기 하남시 덕풍동 744 KN몰빌딩 114호",
    "road_address": "경기 하남시 덕풍동로 111-21",
    "phone": "031-792-2414",
    "lat": 37.55184352,
    "lng": 127.20778974
  },
  {
    "name": "이삭토스트 안양호계점",
    "region": "경기",
    "district": "안양시",
    "address": "경기 안양시 동안구 호계동 829-15 1층",
    "road_address": "경기 안양시 동안구 호성로 29",
    "phone": "031-455-7311",
    "lat": 37.36464722,
    "lng": 126.96399834
  },
  {
    "name": "이삭토스트 양주농협유통센터점",
    "region": "경기",
    "district": "양주시",
    "address": "경기 양주시 광사동 772 1층",
    "road_address": "경기 양주시 고덕로 280",
    "phone": "031-821-2311",
    "lat": 37.80117555,
    "lng": 127.0718117
  },
  {
    "name": "이삭토스트 송정점",
    "region": "경기",
    "district": "이천시",
    "address": "경기 이천시 송정동 314-4",
    "road_address": "경기 이천시 증신로291번길 137",
    "phone": "031-633-2492",
    "lat": 37.29522202,
    "lng": 127.4331959
  },
  {
    "name": "이삭토스트 성남분당수내파크점",
    "region": "경기",
    "district": "성남시",
    "address": "경기 성남시 분당구 수내동 56 파크타운상가 1층 74호",
    "road_address": "경기 성남시 분당구 내정로166번길 7-6",
    "phone": "031-718-1256",
    "lat": 37.37298108,
    "lng": 127.12019641
  },
  {
    "name": "이삭토스트 경기고양지축역점",
    "region": "경기",
    "district": "고양시",
    "address": "경기 고양시 덕양구 지축동 1005-2 청우스타시티 105호",
    "road_address": "경기 고양시 덕양구 지축로 66",
    "phone": "02-371-3730",
    "lat": 37.64937598,
    "lng": 126.91536902
  },
  {
    "name": "이삭토스트 화성병점진안점",
    "region": "경기",
    "district": "화성시",
    "address": "경기 화성시 병점구 진안동 914-2 미래프라자 1층 110호",
    "road_address": "경기 화성시 병점구 효행로 1059",
    "phone": "",
    "lat": 37.21474379,
    "lng": 127.04264949
  },
  {
    "name": "이삭토스트 능실마을점",
    "region": "경기",
    "district": "수원시",
    "address": "경기 수원시 권선구 호매실동 1400-2 금호프라자 1층 110호",
    "road_address": "경기 수원시 권선구 호매실로104번길 24-61",
    "phone": "031-296-8258",
    "lat": 37.25869862,
    "lng": 126.96264198
  },
  {
    "name": "이삭토스트 부천중동팰리스점",
    "region": "경기",
    "district": "부천시",
    "address": "경기 부천시 원미구 중동 753 원진빌딩 1층",
    "road_address": "경기 부천시 원미구 중동로 149",
    "phone": "032-668-6789",
    "lat": 37.49320397,
    "lng": 126.76678866
  },
  {
    "name": "이삭토스트 풍동점",
    "region": "경기",
    "district": "고양시",
    "address": "경기 고양시 일산동구 풍동 1280-1",
    "road_address": "경기 고양시 일산동구 숲속마을로 44",
    "phone": "031-907-4544",
    "lat": 37.66738059,
    "lng": 126.79832305
  },
  {
    "name": "이삭토스트 파주금릉점",
    "region": "경기",
    "district": "파주시",
    "address": "경기 파주시 금촌동 989-1 금촌프라자 104호",
    "road_address": "경기 파주시 금빛로 22",
    "phone": "0503-5371-5531",
    "lat": 37.75161031,
    "lng": 126.76684127
  },
  {
    "name": "이삭토스트 포천일동점",
    "region": "경기",
    "district": "포천시",
    "address": "경기 포천시 일동면 기산리 90-1",
    "road_address": "경기 포천시 일동면 화동로1051번길 4",
    "phone": "031-531-2333",
    "lat": 37.95740055,
    "lng": 127.31722958
  },
  {
    "name": "이삭토스트 남양주호평중흥점",
    "region": "경기",
    "district": "남양주시",
    "address": "경기 남양주시 호평동 617-4 1층",
    "road_address": "경기 남양주시 늘을3로 65-4",
    "phone": "031-594-2456",
    "lat": 37.65945892,
    "lng": 127.24726551
  },
  {
    "name": "이삭토스트 화성동탄능동점",
    "region": "경기",
    "district": "화성시",
    "address": "경기 화성시 동탄구 능동 1114-5 1층 102호",
    "road_address": "경기 화성시 동탄구 동탄지성로 135",
    "phone": "",
    "lat": 37.20922704,
    "lng": 127.06042886
  },
  {
    "name": "이삭토스트 토평점",
    "region": "경기",
    "district": "구리시",
    "address": "경기 구리시 토평동 1002-10",
    "road_address": "경기 구리시 검배로136번길 62",
    "phone": "031-553-6320",
    "lat": 37.59215775,
    "lng": 127.15072577
  },
  {
    "name": "이삭토스트 남양주마석점",
    "region": "경기",
    "district": "남양주시",
    "address": "경기 남양주시 화도읍 마석우리 383-2 중앙프라자 101호",
    "road_address": "경기 남양주시 화도읍 비룡로 62",
    "phone": "031-591-5030",
    "lat": 37.6575849,
    "lng": 127.30219159
  },
  {
    "name": "이삭토스트 안양연성대학교점",
    "region": "경기",
    "district": "안양시",
    "address": "경기 안양시 만안구 안양동 942-1 1층",
    "road_address": "경기 안양시 만안구 양화로37번길 10",
    "phone": "031-448-1224",
    "lat": 37.39693071,
    "lng": 126.9132527
  },
  {
    "name": "이삭토스트 포천양문점",
    "region": "경기",
    "district": "포천시",
    "address": "경기 포천시 영중면 양문리 809-4 1층",
    "road_address": "경기 포천시 영중면 양문로 105",
    "phone": "031-533-2432",
    "lat": 38.00216412,
    "lng": 127.2426735
  },
  {
    "name": "이삭토스트 송산그린시티점",
    "region": "경기",
    "district": "화성시",
    "address": "경기 화성시 만세구 새솔동 76-4 1층",
    "road_address": "경기 화성시 만세구 수노을중앙로 122",
    "phone": "",
    "lat": 37.28545947,
    "lng": 126.81722607
  },
  {
    "name": "이삭토스트전문점(장호원점)",
    "region": "경기",
    "district": "이천시",
    "address": "경기 이천시 장호원읍 장호원리 118-24",
    "road_address": "경기 이천시 장호원읍 샘재로 149-1",
    "phone": "031-642-4123",
    "lat": 37.11766438,
    "lng": 127.62904209
  },
  {
    "name": "이삭토스트 시흥장곡역점",
    "region": "경기",
    "district": "시흥시",
    "address": "경기 시흥시 장곡동 932-2 1층 106호",
    "road_address": "경기 시흥시 장현장곡로 2",
    "phone": "031-403-7777",
    "lat": 37.37885691,
    "lng": 126.78919624
  },
  {
    "name": "이삭토스트 의정부금오점",
    "region": "경기",
    "district": "의정부시",
    "address": "경기 의정부시 금오동 473-1 107호",
    "road_address": "경기 의정부시 청사로 45",
    "phone": "031-851-1040",
    "lat": 37.75230873,
    "lng": 127.06956773
  },
  {
    "name": "이삭토스트",
    "region": "경기",
    "district": "연천군",
    "address": "경기 연천군 전곡읍 전곡리 466-3 1층",
    "road_address": "경기 연천군 전곡읍 온골로 56",
    "phone": "031-835-6981",
    "lat": 38.02580813,
    "lng": 127.06798845
  },
  {
    "name": "이삭토스트",
    "region": "경기",
    "district": "화성시",
    "address": "경기 화성시 효행구 봉담읍 상리 15-10",
    "road_address": "경기 화성시 효행구 봉담읍 샘마을길 54",
    "phone": "",
    "lat": 37.21614747,
    "lng": 126.95220771
  },
  {
    "name": "이삭토스트 경기가평점",
    "region": "경기",
    "district": "가평군",
    "address": "경기 가평군 가평읍 읍내리 476-23 1층",
    "road_address": "경기 가평군 가평읍 가화로 99",
    "phone": "",
    "lat": 37.82864049,
    "lng": 127.51408082
  },
  {
    "name": "이삭토스트 안산시화공단점",
    "region": "경기",
    "district": "안산시",
    "address": "경기 안산시 단원구 성곡동 669-7 시화타원지식산업센터 C동 1층 104호",
    "road_address": "경기 안산시 단원구 번영1로 65",
    "phone": "",
    "lat": 37.31965103,
    "lng": 126.73687286
  },
  {
    "name": "이삭토스트 경기광주송정점",
    "region": "경기",
    "district": "광주시",
    "address": "경기 광주시 송정동 72-13",
    "road_address": "경기 광주시 수하길11번길 9",
    "phone": "0503-5371-7385",
    "lat": 37.41628651,
    "lng": 127.26160207
  },
  {
    "name": "이삭토스트 수원칠보점",
    "region": "경기",
    "district": "수원시",
    "address": "경기 수원시 권선구 금곡동 1085 비즈웍스 1층 113호",
    "road_address": "경기 수원시 권선구 금곡로102번길 15",
    "phone": "031-295-3336",
    "lat": 37.27352135,
    "lng": 126.94179058
  },
  {
    "name": "이삭토스트 남양주장현점",
    "region": "경기",
    "district": "남양주시",
    "address": "경기 남양주시 진접읍 장현리 681-5",
    "road_address": "경기 남양주시 진접읍 봉현로 20-1",
    "phone": "",
    "lat": 37.71555198,
    "lng": 127.18066552
  },
  {
    "name": "이삭토스트 예대점",
    "region": "경기",
    "district": "안산시",
    "address": "경기 안산시 단원구 고잔동 639-6",
    "road_address": "경기 안산시 단원구 예술대학로 155",
    "phone": "031-475-6861",
    "lat": 37.33088345,
    "lng": 126.83856611
  },
  {
    "name": "이삭토스트 고양일산현대백화점",
    "region": "경기",
    "district": "고양시",
    "address": "경기 고양시 일산서구 대화동 2602 레이킨스몰 1층 122호",
    "road_address": "경기 고양시 일산서구 호수로 817",
    "phone": "031-921-9009",
    "lat": 37.66796215,
    "lng": 126.75177686
  },
  {
    "name": "이삭토스트 시흥능곡점",
    "region": "경기",
    "district": "시흥시",
    "address": "경기 시흥시 능곡동 734 1층 103호",
    "road_address": "경기 시흥시 장현능곡로 188",
    "phone": "031-317-2402",
    "lat": 37.36931226,
    "lng": 126.81099436
  },
  {
    "name": "이삭토스트 의정부민락코스트코점",
    "region": "경기",
    "district": "의정부시",
    "address": "경기 의정부시 민락동 905 116호",
    "road_address": "경기 의정부시 용민로 493",
    "phone": "",
    "lat": 37.75001629,
    "lng": 127.11858079
  },
  {
    "name": "이삭토스트 퇴계원점",
    "region": "경기",
    "district": "남양주시",
    "address": "경기 남양주시 퇴계원읍 퇴계원리 255-24 1층 105호",
    "road_address": "경기 남양주시 퇴계원읍 퇴계원로 48",
    "phone": "",
    "lat": 37.65092093,
    "lng": 127.14207478
  },
  {
    "name": "이삭토스트 양평점",
    "region": "경기",
    "district": "양평군",
    "address": "경기 양평군 양평읍 양근리 421-3",
    "road_address": "경기 양평군 양평읍 양평시장길 31",
    "phone": "031-774-5955",
    "lat": 37.4910309,
    "lng": 127.49036707
  },
  {
    "name": "이삭토스트 경기광주쌍령점",
    "region": "경기",
    "district": "광주시",
    "address": "경기 광주시 쌍령동 368-12 1층",
    "road_address": "경기 광주시 경충대로1422번길 16",
    "phone": "031-767-7223",
    "lat": 37.3973783,
    "lng": 127.2767961
  },
  {
    "name": "이삭토스트 광명6동점",
    "region": "경기",
    "district": "광명시",
    "address": "경기 광명시 광명동 739-11 1층 104호",
    "road_address": "경기 광명시 도덕로 27",
    "phone": "02-2689-5563",
    "lat": 37.46837962,
    "lng": 126.85104464
  },
  {
    "name": "이삭토스트 안산한양대점",
    "region": "경기",
    "district": "안산시",
    "address": "경기 안산시 상록구 사동 1569-2 한성빌딩 1층 101호",
    "road_address": "경기 안산시 상록구 한양대학로 48",
    "phone": "031-409-3266",
    "lat": 37.30067978,
    "lng": 126.83827653
  },
  {
    "name": "이삭토스트 산본학원가점",
    "region": "경기",
    "district": "군포시",
    "address": "경기 군포시 산본동 1099-2 1층",
    "road_address": "경기 군포시 산본로 394",
    "phone": "031-393-7776",
    "lat": 37.36510302,
    "lng": 126.92965795
  },
  {
    "name": "이삭토스트 와동점",
    "region": "경기",
    "district": "안산시",
    "address": "경기 안산시 단원구 와동 700-9",
    "road_address": "경기 안산시 단원구 와동로 50",
    "phone": "031-475-1615",
    "lat": 37.33458243,
    "lng": 126.82956025
  },