[
  {
    "name": "교촌치킨 강남역",
    "address": "서울 강남구 역삼동 619-28",
    "phone": "080-320-3000",
    "lat": 37.5008834513131,
    "lng": 127.027484833498,
    "region": "서울특별시",
    "district": "강남구"
  },
  {
    "name": "교촌치킨 개포1호",
    "address": "서울 강남구 개포동 1229-18",
    "phone": "080-320-3000",
    "lat": 37.4762606293364,
    "lng": 127.04691282012,
    "region": "서울특별시",
    "district": "강남구"
  },
  {
    "name": "교촌치킨 개포2호",
    "address": "서울 강남구 개포동 158-4",
    "phone": "080-320-3000",
    "lat": 37.4827693400687,
    "lng": 127.061968372304,
    "region": "서울특별시",
    "district": "강남구"
  },
  {
    "name": "교촌치킨 논현1호(서울)",
    "address": "서울 강남구 논현동 163-13",
    "phone": "080-320-3000",
    "lat": 37.5081173128482,
    "lng": 127.02394649238,
    "region": "서울특별시",
    "district": "강남구"
  },
  {
    "name": "교촌치킨 대치2호",
    "address": "서울 강남구 대치동 989-4",
    "phone": "080-320-3000",
    "lat": 37.4986638278661,
    "lng": 127.06180339151,
    "region": "서울특별시",
    "district": "강남구"
  },
  {
    "name": "교촌치킨 도곡",
    "address": "서울 강남구 도곡동 416-4",
    "phone": "080-320-3000",
    "lat": 37.4853366698159,
    "lng": 127.04411442053,
    "region": "서울특별시",
    "district": "강남구"
  },
  {
    "name": "교촌치킨 삼성1호",
    "address": "서울 강남구 삼성동 44-18",
    "phone": "080-320-3000",
    "lat": 37.5120441649265,
    "lng": 127.049020915116,
    "region": "서울특별시",
    "district": "강남구"
  },
  {
    "name": "교촌치킨 선릉",
    "address": "서울 강남구 대치동 901-40",
    "phone": "080-320-3000",
    "lat": 37.5037500143161,
    "lng": 127.054851659767,
    "region": "서울특별시",
    "district": "강남구"
  },
  {
    "name": "교촌치킨 세곡",
    "address": "서울 강남구 자곡동 611",
    "phone": "080-320-3000",
    "lat": 37.4741313296609,
    "lng": 127.094085247529,
    "region": "서울특별시",
    "district": "강남구"
  },
  {
    "name": "교촌치킨 압구정신사",
    "address": "서울 강남구 신사동 640-5 대성빌딩 1층 1호",
    "phone": "080-320-3000",
    "lat": 37.5275496166582,
    "lng": 127.036297013102,
    "region": "서울특별시",
    "district": "강남구"
  },
  {
    "name": "교촌치킨 역삼1호",
    "address": "서울 강남구 역삼동 837-15",
    "phone": "080-320-3000",
    "lat": 37.4918998657854,
    "lng": 127.032159214307,
    "region": "서울특별시",
    "district": "강남구"
  },
  {
    "name": "교촌치킨 일원1동",
    "address": "서울 강남구 일원동 645",
    "phone": "080-320-3000",
    "lat": 37.4903698111867,
    "lng": 127.0854756091,
    "region": "서울특별시",
    "district": "강남구"
  },
  {
    "name": "교촌치킨 일원본동",
    "address": "서울 강남구 수서동 747 삼성아파트 상가 104호",
    "phone": "080-320-3000",
    "lat": 37.4848956433554,
    "lng": 127.09067960411,
    "region": "서울특별시",
    "district": "강남구"
  },
  {
    "name": "교촌치킨 청담역",
    "address": "서울 강남구 청담동 65 진흥아파트상가",
    "phone": "080-320-3000",
    "lat": 37.5201269549469,
    "lng": 127.051406246846,
    "region": "서울특별시",
    "district": "강남구"
  },
  {
    "name": "교촌치킨 덕성여대",
    "address": "서울 강북구 우이동 72-133",
    "phone": "080-320-3000",
    "lat": 37.6501952241108,
    "lng": 127.01313060536,
    "region": "서울특별시",
    "district": "강북구"
  },
  {
    "name": "교촌치킨 미아1호",
    "address": "서울 강북구 미아동 561-2 현대성우아파트 상가 104호",
    "phone": "080-320-3000",
    "lat": 37.6172043844266,
    "lng": 127.022104374602,
    "region": "서울특별시",
    "district": "강북구"
  },
  {
    "name": "교촌치킨 미아사거리",
    "address": "서울 강북구 미아동 49-15",
    "phone": "080-320-3000",
    "lat": 37.6122493565854,
    "lng": 127.032093291151,
    "region": "서울특별시",
    "district": "강북구"
  },
  {
    "name": "교촌치킨 미아역",
    "address": "서울 강북구 미아동 131-8",
    "phone": "080-320-3000",
    "lat": 37.6215399454564,
    "lng": 127.028386332394,
    "region": "서울특별시",
    "district": "강북구"
  },
  {
    "name": "교촌치킨 번동",
    "address": "서울 강북구 번동 169-1",
    "phone": "080-320-3000",
    "lat": 37.6272782129773,
    "lng": 127.041041227421,
    "region": "서울특별시",
    "district": "강북구"
  },
  {
    "name": "교촌치킨 수유1호",
    "address": "서울 강북구 수유동 385-2",
    "phone": "080-320-3000",
    "lat": 37.6409889615725,
    "lng": 127.017385211928,
    "region": "서울특별시",
    "district": "강북구"
  },
  {
    "name": "교촌치킨 수유2호",
    "address": "서울 강북구 수유동 57-2",
    "phone": "080-320-3000",
    "lat": 37.6319338778856,
    "lng": 127.018579776587,
    "region": "서울특별시",
    "district": "강북구"
  },
  {
    "name": "교촌치킨 수유역점",
    "address": "서울특별시 강북구 수유동 190-32",
    "phone": "080-320-3000",
    "lat": 37.6406970960545,
    "lng": 127.025515508482,
    "region": "서울특별시",
    "district": "강북구"
  },
  {
    "name": "교촌치킨 봉천1호",
    "address": "서울 관악구 봉천동 861-7",
    "phone": "080-320-3000",
    "lat": 37.4818887916789,
    "lng": 126.952208106801,
    "region": "서울특별시",
    "district": "관악구"
  },
  {
    "name": "교촌치킨 봉천2호",
    "address": "서울 관악구 봉천동 1674-20",
    "phone": "080-320-3000",
    "lat": 37.4792829105053,
    "lng": 126.958706553432,
    "region": "서울특별시",
    "district": "관악구"
  },
  {
    "name": "교촌치킨 봉천3호",
    "address": "서울 관악구 봉천동 1632-9",
    "phone": "080-320-3000",
    "lat": 37.47595093268,
    "lng": 126.964085204891,
    "region": "서울특별시",
    "district": "관악구"
  },
  {
    "name": "교촌치킨 봉천4호",
    "address": "서울 관악구 봉천동 931-12",
    "phone": "080-320-3000",
    "lat": 37.4832795886899,
    "lng": 126.941220074584,
    "region": "서울특별시",
    "district": "관악구"
  },
  {
    "name": "교촌치킨 신림1호",
    "address": "서울 관악구 신림동 518-56",
    "phone": "080-320-3000",
    "lat": 37.4859262317109,
    "lng": 126.91342466271,
    "region": "서울특별시",
    "district": "관악구"
  },
  {
    "name": "교촌치킨 신림2호",
    "address": "서울 관악구 신림동 1680-15",
    "phone": "080-320-3000",
    "lat": 37.4772691292269,
    "lng": 126.915750023639,
    "region": "서울특별시",
    "district": "관악구"
  },
  {
    "name": "교촌치킨 신림3호",
    "address": "서울 관악구 신림동 241-66",
    "phone": "080-320-3000",
    "lat": 37.4698774759589,
    "lng": 126.938996703722,
    "region": "서울특별시",
    "district": "관악구"
  },
  {
    "name": "교촌치킨 신림4호",
    "address": "서울 관악구 신림동 706-6",
    "phone": "080-320-3000",
    "lat": 37.4718694738169,
    "lng": 126.9193747253,
    "region": "서울특별시",
    "district": "관악구"
  },
  {
    "name": "교촌치킨 강일역",
    "address": "서울시 강동구 강일동 679-3",
    "phone": "080-320-3000",
    "lat": 37.5643846470445,
    "lng": 127.173726847681,
    "region": "서울특별시",
    "district": "강동구"
  },
  {
    "name": "교촌치킨 고덕1호(서울)",
    "address": "서울 강동구 고덕동 650-1",
    "phone": "080-320-3000",
    "lat": 37.5598072775326,
    "lng": 127.151656564082,
    "region": "서울특별시",
    "district": "강동구"
  },
  {
    "name": "교촌치킨 고덕비즈밸리",
    "address": "서울 강동구 고덕동 343-2 A동 113,114호",
    "phone": "080-320-3000",
    "lat": 37.5655485350633,
    "lng": 127.160101200692,
    "region": "서울특별시",
    "district": "강동구"
  },
  {
    "name": "교촌치킨 길1호",
    "address": "서울 강동구 길동 347-31",
    "phone": "080-320-3000",
    "lat": 37.5411138917307,
    "lng": 127.142566565367,
    "region": "서울특별시",
    "district": "강동구"
  },
  {
    "name": "교촌치킨 길동역",
    "address": "서울 강동구 길동 388-3",
    "phone": "080-320-3000",
    "lat": 37.5373854181526,
    "lng": 127.138518684767,
    "region": "서울특별시",
    "district": "강동구"
  },
  {
    "name": "교촌치킨 둔촌1호",
    "address": "서울 강동구 둔촌동 454-5",
    "phone": "080-320-3000",
    "lat": 37.5312071687173,
    "lng": 127.142009176436,
    "region": "서울특별시",
    "district": "강동구"
  },
  {
    "name": "교촌치킨 명일1호",
    "address": "서울 강동구 명일동 328-2",
    "phone": "080-320-3000",
    "lat": 37.5496716341099,
    "lng": 127.146928381473,
    "region": "서울특별시",
    "district": "강동구"
  },
  {
    "name": "교촌치킨 상일",
    "address": "서울 강동구 고덕동 200-3",
    "phone": "080-320-3000",
    "lat": 37.5584082222207,
    "lng": 127.170721118622,
    "region": "서울특별시",
    "district": "강동구"
  },
  {
    "name": "교촌치킨 상일2호",
    "address": "서울 강동구 구천면로 640",
    "phone": "080-320-3000",
    "lat": 37.5502858368826,
    "lng": 127.169085796412,
    "region": "서울특별시",
    "district": "강동구"
  },
  {
    "name": "교촌치킨 성내",
    "address": "서울 강동구 강동구 성내동 609",
    "phone": "080-320-3000",
    "lat": 37.5359614393341,
    "lng": 127.123185062155,
    "region": "서울특별시",
    "district": "강동구"
  },
  {
    "name": "교촌치킨 암사1호",
    "address": "서울 강동구 암사동 504-37",
    "phone": "080-320-3000",
    "lat": 37.553127929723,
    "lng": 127.128316476572,
    "region": "서울특별시",
    "district": "강동구"
  },
  {
    "name": "교촌치킨 암사2호",
    "address": "서울 강동구 암사동 451-18",
    "phone": "080-320-3000",
    "lat": 37.5550004893973,
    "lng": 127.137506020679,
    "region": "서울특별시",
    "district": "강동구"
  },
  {
    "name": "교촌치킨 천호1호",
    "address": "서울 강동구 천호동 571",
    "phone": "080-320-3000",
    "lat": 37.5372215425851,
    "lng": 127.131974711687,
    "region": "서울특별시",
    "district": "강동구"
  },
  {
    "name": "교촌치킨 가양",
    "address": "서울 강서구 등촌동 75-1",
    "phone": "080-320-3000",
    "lat": 37.5612523915367,
    "lng": 126.853995081496,
    "region": "서울특별시",
    "district": "강서구"
  },
  {
    "name": "교촌치킨 강서구청",
    "address": "서울 강서구 화곡동 986-16",
    "phone": "080-320-3000",
    "lat": 37.5495850122849,
    "lng": 126.847291351308,
    "region": "서울특별시",
    "district": "강서구"
  },
  {
    "name": "교촌치킨 까치산역",
    "address": "서울 강서구 화곡동 343-62 라인씨티 1층",
    "phone": "080-320-3000",
    "lat": 37.5307750886442,
    "lng": 126.846777605195,
    "region": "서울특별시",
    "district": "강서구"
  },
  {
    "name": "교촌치킨 등촌",
    "address": "서울 강서구 등촌동 649-14",
    "phone": "080-320-3000",
    "lat": 37.5522103230909,
    "lng": 126.863306109381,
    "region": "서울특별시",
    "district": "강서구"
  },
  {
    "name": "교촌치킨 마곡1호",
    "address": "서울 강서구 강서로 마곡동 784-11 마곡오드카운티1차 111호",
    "phone": "080-320-3000",
    "lat": 37.5640014500247,
    "lng": 126.839510938746,
    "region": "서울특별시",
    "district": "강서구"
  },
  {
    "name": "교촌치킨 마곡역",
    "address": "서울 강서구 마곡동 774-1",
    "phone": "080-320-3000",
    "lat": 37.5597511346403,
    "lng": 126.830891231788,
    "region": "서울특별시",
    "district": "강서구"
  },
  {
    "name": "교촌치킨 발산",
    "address": "서울 강서구 내발산동 648-15",
    "phone": "080-320-3000",
    "lat": 37.5574915054029,
    "lng": 126.843758715445,
    "region": "서울특별시",
    "district": "강서구"
  },
  {
    "name": "교촌치킨 방화1호",
    "address": "서울 강서구 방화동 571-1",
    "phone": "080-320-3000",
    "lat": 37.5736279995936,
    "lng": 126.813662630224,
    "region": "서울특별시",
    "district": "강서구"
  },
  {
    "name": "교촌치킨 방화2호",
    "address": "서울 강서구 방화동 249-20",
    "phone": "080-320-3000",
    "lat": 37.5683638844818,
    "lng": 126.813056353935,
    "region": "서울특별시",
    "district": "강서구"
  },
  {
    "name": "교촌치킨 염창",
    "address": "서울 강서구 염창동 249-5",
    "phone": "080-320-3000",
    "lat": 37.5505236199905,
    "lng": 126.87295544566,
    "region": "서울특별시",
    "district": "강서구"
  },
  {
    "name": "교촌치킨 화곡2호",
    "address": "서울 강서구 화곡동 400-45",
    "phone": "080-320-3000",
    "lat": 37.5382637172118,
    "lng": 126.840960091173,
    "region": "서울특별시",
    "district": "강서구"
  },
  {
    "name": "교촌치킨 화곡4동",
    "address": "서울 강서구 곰달래로 266",
    "phone": "080-320-3000",
    "lat": 37.5320688133544,
    "lng": 126.862497962937,
    "region": "서울특별시",
    "district": "강서구"
  },
  {
    "name": "교촌치킨 건대",
    "address": "서울 광진구 화양동 9-18",
    "phone": "080-320-3000",
    "lat": 37.5416985402032,
    "lng": 127.069389679935,
    "region": "서울특별시",
    "district": "광진구"
  },
  {
    "name": "교촌치킨 광장",
    "address": "서울 광진구 광장동 530-13",
    "phone": "080-320-3000",
    "lat": 37.5419612458348,
    "lng": 127.095718349482,
    "region": "서울특별시",
    "district": "광진구"
  },
  {
    "name": "교촌치킨 구의역",
    "address": "서울 광진구 구의동 257-70",
    "phone": "080-320-3000",
    "lat": 37.5389680420214,
    "lng": 127.085118513944,
    "region": "서울특별시",
    "district": "광진구"
  },
  {
    "name": "교촌치킨 자양1호",
    "address": "서울 광진구 자양3동 584-28",
    "phone": "080-320-3000",
    "lat": 37.5310490159621,
    "lng": 127.074801312089,
    "region": "서울특별시",
    "district": "광진구"
  },
  {
    "name": "교촌치킨 자양2호",
    "address": "서울 광진구 자양동 624-42",
    "phone": "080-320-3000",
    "lat": 37.5346482148677,
    "lng": 127.082036936595,
    "region": "서울특별시",
    "district": "광진구"
  },
  {
    "name": "교촌치킨 중곡1호",
    "address": "서울 광진구 중곡동 243-1",
    "phone": "080-320-3000",
    "lat": 37.5626703174233,
    "lng": 127.080510238136,
    "region": "서울특별시",
    "district": "광진구"
  },
  {
    "name": "교촌치킨 중곡2호",
    "address": "서울 광진구 중곡동 24-2",
    "phone": "080-320-3000",
    "lat": 37.5633543053926,
    "lng": 127.086686363492,
    "region": "서울특별시",
    "district": "광진구"
  },
  {
    "name": "교촌치킨 개봉1호",
    "address": "서울 구로구 개봉동 403-159",
    "phone": "080-320-3000",
    "lat": 37.4884076519628,
    "lng": 126.856475306106,
    "region": "서울특별시",
    "district": "구로구"
  },
  {
    "name": "교촌치킨 고척",
    "address": "서울 구로구 고척동 256-14",
    "phone": "080-320-3000",
    "lat": 37.5017983833808,
    "lng": 126.850429552247,
    "region": "서울특별시",
    "district": "구로구"
  },
  {
    "name": "교촌치킨 구로2호",
    "address": "서울 구로구 구로동 74-30",
    "phone": "080-320-3000",
    "lat": 37.4961085929484,
    "lng": 126.893058972549,
    "region": "서울특별시",
    "district": "구로구"
  },
  {
    "name": "교촌치킨 구로디지털",
    "address": "서울 구로구 구로동 826-1",
    "phone": "080-320-3000",
    "lat": 37.4825798382715,
    "lng": 126.898007817732,
    "region": "서울특별시",
    "district": "구로구"
  },
  {
    "name": "교촌치킨 남구로",
    "address": "서울 구로구 구로동 704-38",
    "phone": "080-320-3000",
    "lat": 37.4916817062163,
    "lng": 126.882286556478,
    "region": "서울특별시",
    "district": "구로구"
  },
  {
    "name": "교촌치킨 동양미래대학",
    "address": "서울특별시 구로구 고척동 52-196",
    "phone": "080-320-3000",
    "lat": 37.5008023053032,
    "lng": 126.866429468473,
    "region": "서울특별시",
    "district": "구로구"
  },
  {
    "name": "교촌치킨 신도림1호",
    "address": "서울 구로구 신도림동 648 신도림6차대림아파트 상가 902동 111호",
    "phone": "080-320-3000",
    "lat": 37.5056826985762,
    "lng": 126.8828227159,
    "region": "서울특별시",
    "district": "구로구"
  },
  {
    "name": "교촌치킨 오류1호",
    "address": "서울 구로구 오류1동 10-3",
    "phone": "080-320-3000",
    "lat": 37.4954964472945,
    "lng": 126.84209571158,
    "region": "서울특별시",
    "district": "구로구"
  },
  {
    "name": "교촌치킨 천왕역",
    "address": "서울 구로구 오류동 203-1 1층",
    "phone": "080-320-3000",
    "lat": 37.4894896491752,
    "lng": 126.837598979161,
    "region": "서울특별시",
    "district": "구로구"
  },
  {
    "name": "교촌치킨 항동",
    "address": "서울특별시 구로구 연동로 233 102호",
    "phone": "080-320-3000",
    "lat": 37.4816933475509,
    "lng": 126.820550970604,
    "region": "서울특별시",
    "district": "구로구"
  },
  {
    "name": "교촌치킨 가산디지털",
    "address": "서울 금천구 가산동 371-6 가산비지니스센터 2층",
    "phone": "080-320-3000",
    "lat": 37.4801745287284,
    "lng": 126.881070224411,
    "region": "서울특별시",
    "district": "금천구"
  },
  {
    "name": "교촌치킨 독산1호",
    "address": "서울 금천구 독산동 961-10",
    "phone": "080-320-3000",
    "lat": 37.4773866226526,
    "lng": 126.903943505919,
    "region": "서울특별시",
    "district": "금천구"
  },
  {
    "name": "교촌치킨 독산2동",
    "address": "서울 금천구 독산동 1059-4",
    "phone": "080-320-3000",
    "lat": 37.4612582799071,
    "lng": 126.898465172887,
    "region": "서울특별시",
    "district": "금천구"
  },
  {
    "name": "교촌치킨 시흥1호",
    "address": "서울 금천구 시흥2동 264-17",
    "phone": "080-320-3000",
    "lat": 37.450202631868,
    "lng": 126.913471500716,
    "region": "서울특별시",
    "district": "금천구"
  },
  {
    "name": "교촌치킨 시흥2호",
    "address": "서울 금천구 시흥1동 905-5",
    "phone": "080-320-3000",
    "lat": 37.4500474277027,
    "lng": 126.903847378189,
    "region": "서울특별시",
    "district": "금천구"
  },
  {
    "name": "교촌치킨 공릉1호",
    "address": "서울 노원구 공릉동 338-6",
    "phone": "080-320-3000",
    "lat": 37.6229728021909,
    "lng": 127.079161547735,
    "region": "서울특별시",
    "district": "노원구"
  },
  {
    "name": "교촌치킨 공릉2호",
    "address": "서울 노원구 공릉동 461-1",
    "phone": "080-320-3000",
    "lat": 37.6302369828184,
    "lng": 127.075766121192,
    "region": "서울특별시",
    "district": "노원구"
  },
  {
    "name": "교촌치킨 공릉3호",
    "address": "서울 노원구 공릉동 568-27",
    "phone": "080-320-3000",
    "lat": 37.6230902829774,
    "lng": 127.073461747285,
    "region": "서울특별시",
    "district": "노원구"
  },
  {
    "name": "교촌치킨 상계4단지",
    "address": "서울 노원구 상계동 749-5",
    "phone": "080-320-3000",
    "lat": 37.6500654838418,
    "lng": 127.062217257976,
    "region": "서울특별시",
    "district": "노원구"
  },
  {
    "name": "교촌치킨 상계보람",
    "address": "서울 노원구 상계동 456-70",
    "phone": "080-320-3000",
    "lat": 37.6631612640087,
    "lng": 127.066178536257,
    "region": "서울특별시",
    "district": "노원구"
  },
  {
    "name": "교촌치킨 상계역",
    "address": "서울 노원구 중계동 137-39",
    "phone": "080-320-3000",
    "lat": 37.662034668768,
    "lng": 127.075494689438,
    "region": "서울특별시",
    "district": "노원구"
  },
  {
    "name": "교촌치킨 석계역",
    "address": "서울 노원구 월계1동 73-13",
    "phone": "080-320-3000",
    "lat": 37.6175365013678,
    "lng": 127.063869218539,
    "region": "서울특별시",
    "district": "노원구"
  },
  {
    "name": "교촌치킨 수락산역",
    "address": "서울 노원구 상계동 1025-20",
    "phone": "080-320-3000",
    "lat": 37.6746528926682,
    "lng": 127.055552607872,
    "region": "서울특별시",
    "district": "노원구"
  },
  {
    "name": "교촌치킨 인덕대",
    "address": "서울 노원구 월계동 951 월계센트럴아이파크 상가동 101호",
    "phone": "080-320-3000",
    "lat": 37.6302464149326,
    "lng": 127.057463536772,
    "region": "서울특별시",
    "district": "노원구"
  },
  {
    "name": "교촌치킨 중계1호",
    "address": "서울 노원구 중계1동 360-9",
    "phone": "080-320-3000",
    "lat": 37.6495969425124,
    "lng": 127.076379560612,
    "region": "서울특별시",
    "district": "노원구"
  },
  {
    "name": "교촌치킨 중계역",
    "address": "서울 노원구 중계동 503",
    "phone": "080-320-3000",
    "lat": 37.6420263458055,
    "lng": 127.064108404044,
    "region": "서울특별시",
    "district": "노원구"
  },
  {
    "name": "교촌치킨 하계1호",
    "address": "서울 노원구 하계1동 251 청구상가 201동 101호, 102호",
    "phone": "080-320-3000",
    "lat": 37.6393900179795,
    "lng": 127.071556102983,
    "region": "서울특별시",
    "district": "노원구"
  },
  {
    "name": "교촌치킨 경희대",
    "address": "서울 동대문구 회기동 42-16",
    "phone": "080-320-3000",
    "lat": 37.5929131099913,
    "lng": 127.051447213224,
    "region": "서울특별시",
    "district": "동대문구"
  },
  {
    "name": "교촌치킨 답십리1호",
    "address": "서울 동대문구 답십리동 53-50",
    "phone": "080-320-3000",
    "lat": 37.5722777504864,
    "lng": 127.057124651132,
    "region": "서울특별시",
    "district": "동대문구"
  },
  {
    "name": "교촌치킨 서울시립대",
    "address": "서울 동대문구 전농동 295-5",
    "phone": "080-320-3000",
    "lat": 37.5769482070059,
    "lng": 127.057555684241,
    "region": "서울특별시",
    "district": "동대문구"
  },
  {
    "name": "교촌치킨 신이문",
    "address": "서울 동대문구 이문동 255-222",
    "phone": "080-320-3000",
    "lat": 37.6028163670273,
    "lng": 127.062776273894,
    "region": "서울특별시",
    "district": "동대문구"
  },
  {
    "name": "교촌치킨 안암",
    "address": "서울 동대문구 제기동 142-8",
    "phone": "080-320-3000",
    "lat": 37.5861118645051,
    "lng": 127.032806559515,
    "region": "서울특별시",
    "district": "동대문구"
  },
  {
    "name": "교촌치킨 용두",
    "address": "서울 동대문구 왕산로28길 55",
    "phone": "080-320-3000",
    "lat": 37.5756977673929,
    "lng": 127.039180695667,
    "region": "서울특별시",
    "district": "동대문구"
  },
  {
    "name": "교촌치킨 장안1호",
    "address": "서울 동대문구 전농동 1-171",
    "phone": null,
    "lat": 37.5812915700481,
    "lng": 127.068156052664,
    "region": "서울특별시",
    "district": "동대문구"
  },
  {
    "name": "교촌치킨 장안2호",
    "address": "서울 동대문구  장안동 375-3",
    "phone": "080-320-3000",
    "lat": 37.5672479717211,
    "lng": 127.068113938484,
    "region": "서울특별시",
    "district": "동대문구"
  },
  {
    "name": "교촌치킨 청량리역",
    "address": "서울 동대문구 청량리동 50-14",
    "phone": "080-320-3000",
    "lat": 37.5835959365796,
    "lng": 127.049143762387,
    "region": "서울특별시",
    "district": "동대문구"
  },
  {
    "name": "교촌치킨 도봉동",
    "address": "서울 도봉구 도봉2동 623-163",
    "phone": "080-320-3000",
    "lat": 37.6717046494467,
    "lng": 127.046296542884,
    "region": "서울특별시",
    "district": "도봉구"
  },
  {
    "name": "교촌치킨 방학",
    "address": "서울 도봉구 방학동 659-32",
    "phone": "080-320-3000",
    "lat": 37.6669900017538,
    "lng": 127.038800201279,
    "region": "서울특별시",
    "district": "도봉구"
  },
  {
    "name": "교촌치킨 쌍문1호",
    "address": "서울 도봉구 방학동 263-56",
    "phone": "080-320-3000",
    "lat": 37.6609471388466,
    "lng": 127.035305596485,
    "region": "서울특별시",
    "district": "도봉구"
  },
  {
    "name": "교촌치킨 쌍문역",
    "address": "서울 도봉구 쌍문3동 88-127",
    "phone": "080-320-3000",
    "lat": 37.6507190959414,
    "lng": 127.035613510952,
    "region": "서울특별시",
    "district": "도봉구"
  },
  {
    "name": "교촌치킨 창3동",
    "address": "서울 도봉구 창동 568-2",
    "phone": "080-320-3000",
    "lat": 37.6407454688827,
    "lng": 127.040390120006,
    "region": "서울특별시",
    "district": "도봉구"
  },
  {
    "name": "교촌치킨 창동",
    "address": "서울 도봉구 창동 296-37",
    "phone": "080-320-3000",
    "lat": 37.6542013260365,
    "lng": 127.041089017939,
    "region": "서울특별시",
    "district": "도봉구"
  },
  {
    "name": "교촌치킨 노량진",
    "address": "서울 동작구 노량진동 37-1",
    "phone": "080-320-3000",
    "lat": 37.5122957571674,
    "lng": 126.938699333267,
    "region": "서울특별시",
    "district": "동작구"
  },
  {
    "name": "교촌치킨 사당1호",
    "address": "서울 동작구 사당3동 155-2 1F",
    "phone": "080-320-3000",
    "lat": 37.484193059937,
    "lng": 126.977413977618,
    "region": "서울특별시",
    "district": "동작구"
  },
  {
    "name": "교촌치킨 사당2호",
    "address": "서울 동작구 사당동 708-817",
    "phone": "080-320-3000",
    "lat": 37.4863077213225,
    "lng": 126.97230793755,
    "region": "서울특별시",
    "district": "동작구"
  },
  {
    "name": "교촌치킨 상도",
    "address": "서울 동작구 상도동 535 상도2차 두산위브트레지움아파트 상가",
    "phone": "080-320-3000",
    "lat": 37.5038809752107,
    "lng": 126.942773692126,
    "region": "서울특별시",
    "district": "동작구"
  },
  {
    "name": "교촌치킨 상도중앙",
    "address": "서울 동작구 상도동 159-26",
    "phone": "080-320-3000",
    "lat": 37.500482685615,
    "lng": 126.949570300753,
    "region": "서울특별시",
    "district": "동작구"
  },
  {
    "name": "교촌치킨 숭실대",
    "address": "서울 동작구 상도동 489-9",
    "phone": "080-320-3000",
    "lat": 37.4957198665943,
    "lng": 126.953729988028,
    "region": "서울특별시",
    "district": "동작구"
  },
  {
    "name": "교촌치킨 신대방",
    "address": "서울 동작구 신대방동 607-28",
    "phone": "080-320-3000",
    "lat": 37.489474907032,
    "lng": 126.90743783699,
    "region": "서울특별시",
    "district": "동작구"
  },
  {
    "name": "교촌치킨 신대방삼거리",
    "address": "서울 동작구 대방동 407-46",
    "phone": "080-320-3000",
    "lat": 37.499363759262,
    "lng": 126.927179953976,
    "region": "서울특별시",
    "district": "동작구"
  },
  {
    "name": "교촌치킨 흑석1호",
    "address": "서울 동작구 흑석동 180-6",
    "phone": "080-320-3000",
    "lat": 37.5086963803633,
    "lng": 126.961667220241,
    "region": "서울특별시",
    "district": "동작구"
  },
  {
    "name": "교촌치킨 도화(서울)",
    "address": "서울 마포구 도화동 55",
    "phone": "080-320-3000",
    "lat": 37.5382972994254,
    "lng": 126.946422881654,
    "region": "서울특별시",
    "district": "마포구"
  },
  {
    "name": "교촌치킨 망원2동",
    "address": "서울 마포구 망원동 482-9",
    "phone": "080-320-3000",
    "lat": 37.5581854330997,
    "lng": 126.907796225083,
    "region": "서울특별시",
    "district": "마포구"
  },
  {
    "name": "교촌치킨 상암",
    "address": "서울 마포구 상암동 34-45",
    "phone": "080-320-3000",
    "lat": 37.576727828664,
    "lng": 126.894555830195,
    "region": "서울특별시",
    "district": "마포구"
  },
  {
    "name": "교촌치킨 성산2동",
    "address": "서울 마포구 성산동 592",
    "phone": "080-320-3000",
    "lat": 37.5634258633541,
    "lng": 126.903357766726,
    "region": "서울특별시",
    "district": "마포구"
  },
  {
    "name": "교촌치킨 신공덕",
    "address": "서울 마포구 신공덕동 159(신공덕 래미안상가 1동109호)",
    "phone": "080-320-3000",
    "lat": 37.5463786459557,
    "lng": 126.958031350919,
    "region": "서울특별시",
    "district": "마포구"
  },
  {
    "name": "교촌치킨 신수",
    "address": "서울 마포구 신수동 451번지 세양청마루아파트 상가 101호",
    "phone": "080-320-3000",
    "lat": 37.5477891200048,
    "lng": 126.936715409695,
    "region": "서울특별시",
    "district": "마포구"
  },
  {
    "name": "교촌치킨 아현",
    "address": "서울 마포구 아현동 774(마포래미안 푸르지오 101동 상가 115호)",
    "phone": "080-320-3000",
    "lat": 37.5527449529781,
    "lng": 126.952862736041,
    "region": "서울특별시",
    "district": "마포구"
  },
  {
    "name": "교촌치킨 연남",
    "address": "서울 마포구 연남동 369-20",
    "phone": "080-320-3000",
    "lat": 37.5634099823492,
    "lng": 126.920743059838,
    "region": "서울특별시",
    "district": "마포구"
  },
  {
    "name": "교촌치킨 용강(서울)",
    "address": "서울 마포구 대흥동 500-10",
    "phone": "080-320-3000",
    "lat": 37.5436538878204,
    "lng": 126.944397412133,
    "region": "서울특별시",
    "district": "마포구"
  },
  {
    "name": "교촌치킨 홍대",
    "address": "서울 마포구 서교동 371-3",
    "phone": "080-320-3000",
    "lat": 37.5535959126381,
    "lng": 126.920133279708,
    "region": "서울특별시",
    "district": "마포구"
  },
  {
    "name": "교촌치킨 독립문",
    "address": "서울 서대문구 냉천동 226",
    "phone": "080-320-3000",
    "lat": 37.5676243952638,
    "lng": 126.964505661858,
    "region": "서울특별시",
    "district": "서대문구"
  },
  {
    "name": "교촌치킨 명지대",
    "address": "서울 서대문구 남가좌동 344-7",
    "phone": "080-320-3000",
    "lat": 37.5780321558453,
    "lng": 126.921981902823,
    "region": "서울특별시",
    "district": "서대문구"
  },
  {
    "name": "교촌치킨 북가좌1호",
    "address": "서울 서대문구 북가좌동 385-8",
    "phone": "080-320-3000",
    "lat": 37.575294773203,
    "lng": 126.90684494192,
    "region": "서울특별시",
    "district": "서대문구"
  },
  {
    "name": "교촌치킨 북아현1호",
    "address": "서울 서대문구 북아현동 1006",
    "phone": "080-320-3000",
    "lat": 37.560934562008,
    "lng": 126.956361680898,
    "region": "서울특별시",
    "district": "서대문구"
  },
  {
    "name": "교촌치킨 신촌",
    "address": "서울 서대문구 창천동 41-14",
    "phone": "080-320-3000",
    "lat": 37.5581294871725,
    "lng": 126.93768451827,
    "region": "서울특별시",
    "district": "서대문구"
  },
  {
    "name": "교촌치킨 연희(서울)",
    "address": "서울 서대문구 연희동 188-15",
    "phone": "080-320-3000",
    "lat": 37.5660179875175,
    "lng": 126.929222817891,
    "region": "서울특별시",
    "district": "서대문구"
  },
  {
    "name": "교촌치킨 홍은1호",
    "address": "서울 서대문구 홍제동 279-52",
    "phone": "080-320-3000",
    "lat": 37.5958431732303,
    "lng": 126.94864135716,
    "region": "서울특별시",
    "district": "서대문구"
  },
  {
    "name": "교촌치킨 홍은사거리",
    "address": "서울 서대문구 홍제동 326-20",
    "phone": "080-320-3000",
    "lat": 37.5902791691259,
    "lng": 126.941987487983,
    "region": "서울특별시",
    "district": "서대문구"
  },
  {
    "name": "교촌치킨 반포1호",
    "address": "서울 서초구 반포동 94-7",
    "phone": "080-320-3000",
    "lat": 37.4989132512891,
    "lng": 126.998199752407,
    "region": "서울특별시",
    "district": "서초구"
  },
  {
    "name": "교촌치킨 반포삼호가든",
    "address": "서울 서초구 반포동 53-7",
    "phone": "080-320-3000",
    "lat": 37.5012958144771,
    "lng": 127.011101069056,
    "region": "서울특별시",
    "district": "서초구"
  },
  {
    "name": "교촌치킨 방배1호",
    "address": "서울 서초구 방배동 769-9",
    "phone": "080-320-3000",
    "lat": 37.4948418945575,
    "lng": 126.98622731002,
    "region": "서울특별시",
    "district": "서초구"
  },
  {
    "name": "교촌치킨 방배2호",
    "address": "서울특별시 서초구 방배동 924-8 상아빌딩1층",
    "phone": "080-320-3000",
    "lat": 37.4833664829011,
    "lng": 126.995700494509,
    "region": "서울특별시",
    "district": "서초구"
  },
  {
    "name": "교촌치킨 서초1호",
    "address": "서울 서초구 서초동 1357-56",
    "phone": "080-320-3000",
    "lat": 37.4875068766319,
    "lng": 127.030945212271,
    "region": "서울특별시",
    "district": "서초구"
  },
  {
    "name": "교촌치킨 서초2호",
    "address": "서울 서초구 서초동 1669-15",
    "phone": "080-320-3000",
    "lat": 37.4934887743943,
    "lng": 127.017124805319,
    "region": "서울특별시",
    "district": "서초구"
  },
  {
    "name": "교촌치킨 서초3호",
    "address": "서울 서초구 서초동 1579-5",
    "phone": "080-320-3000",
    "lat": 37.4882561940276,
    "lng": 127.013487218015,
    "region": "서울특별시",
    "district": "서초구"
  },
  {
    "name": "교촌치킨 양재1호",
    "address": "서울특별시 서초구 양재동 319-1",
    "phone": "080-320-3000",
    "lat": 37.4706954584219,
    "lng": 127.039766678223,
    "region": "서울특별시",
    "district": "서초구"
  },
  {
    "name": "교촌치킨 우면",
    "address": "서울 서초구 우면동 720",
    "phone": "080-320-3000",
    "lat": 37.4636344096655,
    "lng": 127.02623346136,
    "region": "서울특별시",
    "district": "서초구"
  },
  {
    "name": "교촌치킨 잠원1호",
    "address": "서울 서초구 잠원동 15-4",
    "phone": "080-320-3000",
    "lat": 37.5157507816091,
    "lng": 127.017360642274,
    "region": "서울특별시",
    "district": "서초구"
  },
  {
    "name": "교촌치킨 금호역",
    "address": "서울 성동구 금호동4가 1380",
    "phone": "080-320-3000",
    "lat": 37.5481685992726,
    "lng": 127.018712526658,
    "region": "서울특별시",
    "district": "성동구"
  },
  {
    "name": "교촌치킨 성수1호",
    "address": "서울 성동구 성수동2가 235-1",
    "phone": "080-320-3000",
    "lat": 37.5370325286674,
    "lng": 127.060727462158,
    "region": "서울특별시",
    "district": "성동구"
  },
  {
    "name": "교촌치킨 성수역",
    "address": "서울 성동구 성수동2가 289-251",
    "phone": "080-320-3000",
    "lat": 37.5461103780497,
    "lng": 127.054624227129,
    "region": "서울특별시",
    "district": "성동구"
  },
  {
    "name": "교촌치킨 왕십리1호",
    "address": "서울 성동구 하왕십리동 946-15",
    "phone": null,
    "lat": 37.5639554353539,
    "lng": 127.029668373843,
    "region": "서울특별시",
    "district": "성동구"
  },
  {
    "name": "교촌치킨 왕십리도선",
    "address": "서울 성동구 홍익동 131-1",
    "phone": "080-320-3000",
    "lat": 37.5648618640432,
    "lng": 127.036047986165,
    "region": "서울특별시",
    "district": "성동구"
  },
  {
    "name": "교촌치킨 용답",
    "address": "서울 성동구 용답동 60-18",
    "phone": "080-320-3000",
    "lat": 37.5647572175527,
    "lng": 127.052495541133,
    "region": "서울특별시",
    "district": "성동구"
  },
  {
    "name": "교촌치킨 응봉",
    "address": "서울 성동구 응봉동 100",
    "phone": "080-320-3000",
    "lat": 37.5519307590448,
    "lng": 127.033264500403,
    "region": "서울특별시",
    "district": "성동구"
  },
  {
    "name": "교촌치킨 한양대",
    "address": "서울 성동구 행당동 3-29",
    "phone": "080-320-3000",
    "lat": 37.5604959808139,
    "lng": 127.041059347701,
    "region": "서울특별시",
    "district": "성동구"
  },
  {
    "name": "교촌치킨 길음뉴타운",
    "address": "서울 성북구 길음동 1284-17",
    "phone": "080-320-3000",
    "lat": 37.6062696127752,
    "lng": 127.021664784961,
    "region": "서울특별시",
    "district": "성북구"
  },
  {
    "name": "교촌치킨 동소문",
    "address": "서울 성북구 동선동5가 147-13",
    "phone": "080-320-3000",
    "lat": 37.5970433932828,
    "lng": 127.015235608359,
    "region": "서울특별시",
    "district": "성북구"
  },
  {
    "name": "교촌치킨 보문",
    "address": "서울 성북구 보문동7가 99",
    "phone": "080-320-3000",
    "lat": 37.5796517898894,
    "lng": 127.022148740986,
    "region": "서울특별시",
    "district": "성북구"
  },
  {
    "name": "교촌치킨 석관장위",
    "address": "서울 성북구 장위동 50-46",
    "phone": "080-320-3000",
    "lat": 37.6119166231453,
    "lng": 127.058406241068,
    "region": "서울특별시",
    "district": "성북구"
  },
  {
    "name": "교촌치킨 월곡",
    "address": "서울특별시 성북구 하월곡동 76-27",
    "phone": "080-320-3000",
    "lat": 37.6081980121297,
    "lng": 127.036001731439,
    "region": "서울특별시",
    "district": "성북구"
  },
  {
    "name": "교촌치킨 정릉1호",
    "address": "서울 성북구 정릉동 285-11",
    "phone": "080-320-3000",
    "lat": 37.6108494426592,
    "lng": 127.009175197012,
    "region": "서울특별시",
    "district": "성북구"
  },
  {
    "name": "교촌치킨 정릉중앙",
    "address": "서울 성북구 정릉동 227-74",
    "phone": "080-320-3000",
    "lat": 37.6099540023734,
    "lng": 127.014851132946,
    "region": "서울특별시",
    "district": "성북구"
  },
  {
    "name": "교촌치킨 종암",
    "address": "서울 성북구 종암동 3-544",
    "phone": "080-320-3000",
    "lat": 37.6028880962242,
    "lng": 127.031678642195,
    "region": "서울특별시",
    "district": "성북구"
  },
  {
    "name": "교촌치킨 가락2호",
    "address": "서울 송파구 가락동 75-7",
    "phone": "080-320-3000",
    "lat": 37.4970150470846,
    "lng": 127.120028523398,
    "region": "서울특별시",
    "district": "송파구"
  },
  {
    "name": "교촌치킨 거여가락1호",
    "address": "서울 송파구 가락동 180-9",
    "phone": "080-320-3000",
    "lat": 37.492511221009,
    "lng": 127.135571837513,
    "region": "서울특별시",
    "district": "송파구"
  },
  {
    "name": "교촌치킨 마천1호",
    "address": "서울 송파구 거여동 32-6",
    "phone": "080-320-3000",
    "lat": 37.4926931654285,
    "lng": 127.149082787019,
    "region": "서울특별시",
    "district": "송파구"
  },
  {
    "name": "교촌치킨 문정법조",
    "address": "서울 송파구 문정동 620 송파푸르지오시티 B09호",
    "phone": "080-320-3000",
    "lat": 37.4807632360361,
    "lng": 127.121246188872,
    "region": "서울특별시",
    "district": "송파구"
  },
  {
    "name": "교촌치킨 방이2호",
    "address": "서울 송파구 방이동 69-4",
    "phone": "080-320-3000",
    "lat": 37.5132431589164,
    "lng": 127.109623432063,
    "region": "서울특별시",
    "district": "송파구"
  },
  {
    "name": "교촌치킨 방이역",
    "address": "서울 송파구 오금동 41-23 성암빌딩 1층",
    "phone": "080-320-3000",
    "lat": 37.5073495916431,
    "lng": 127.128577380286,
    "region": "서울특별시",
    "district": "송파구"
  },
  {
    "name": "교촌치킨 석촌",
    "address": "서울 송파구 석촌동 163-1",
    "phone": "080-320-3000",
    "lat": 37.5067146869636,
    "lng": 127.103504352304,
    "region": "서울특별시",
    "district": "송파구"
  },
  {
    "name": "교촌치킨 송파1호",
    "address": "서울 송파구 송파동 147",
    "phone": "080-320-3000",
    "lat": 37.507163803165,
    "lng": 127.116597471538,
    "region": "서울특별시",
    "district": "송파구"
  },
  {
    "name": "교촌치킨 올림픽공원",
    "address": "서울 송파구 풍납동 401-4",
    "phone": "080-320-3000",
    "lat": 37.5273313862439,
    "lng": 127.118336337706,
    "region": "서울특별시",
    "district": "송파구"
  },
  {
    "name": "교촌치킨 위례송파",
    "address": "서울 송파구 장지동 897",
    "phone": "080-320-3000",
    "lat": 37.474605333209,
    "lng": 127.141544657341,
    "region": "서울특별시",
    "district": "송파구"
  },
  {
    "name": "교촌치킨 잠실1호",
    "address": "서울 송파구 잠실동 177-3",
    "phone": "080-320-3000",
    "lat": 37.5105978145428,
    "lng": 127.079849385969,
    "region": "서울특별시",
    "district": "송파구"
  },
  {
    "name": "교촌치킨 잠실2호",
    "address": "서울 송파구 신천동 7",
    "phone": "080-320-3000",
    "lat": 37.5188849274204,
    "lng": 127.099280476931,
    "region": "서울특별시",
    "district": "송파구"
  },
  {
    "name": "교촌치킨 장지",
    "address": "서울 송파구 문정동 102-1",
    "phone": "080-320-3000",
    "lat": 37.4854737449635,
    "lng": 127.131325867192,
    "region": "서울특별시",
    "district": "송파구"
  },
  {
    "name": "교촌치킨 헬리오시티",
    "address": "서울 송파구 가락동 913 헬리오시티 상가 3A동 01호",
    "phone": "080-320-3000",
    "lat": 37.4974199508211,
    "lng": 127.107103026758,
    "region": "서울특별시",
    "district": "송파구"
  },
  {
    "name": "교촌치킨 목3동",
    "address": "서울 양천구 목동 722-8 호성빌딩",
    "phone": "080-320-3000",
    "lat": 37.5390242655337,
    "lng": 126.863978185433,
    "region": "서울특별시",
    "district": "양천구"
  },
  {
    "name": "교촌치킨 목동2호",
    "address": "서울 양천구 목동 909-8 이화프라자 1층 101호",
    "phone": "080-320-3000",
    "lat": 37.5368898789213,
    "lng": 126.88361423173,
    "region": "서울특별시",
    "district": "양천구"
  },
  {
    "name": "교촌치킨 목동오거리",
    "address": "서울 양천구 목동 940 현대아이파크상가 102",
    "phone": "080-320-3000",
    "lat": 37.5289917139437,
    "lng": 126.864995711742,
    "region": "서울특별시",
    "district": "양천구"
  },
  {
    "name": "교촌치킨 목동파크자이",
    "address": "서울 양천구 신정동 171-68",
    "phone": "080-320-3000",
    "lat": 37.5085476906359,
    "lng": 126.868993160186,
    "region": "서울특별시",
    "district": "양천구"
  },
  {
    "name": "교촌치킨 신월1호",
    "address": "서울 양천구 신월동 602-8",
    "phone": "080-320-3000",
    "lat": 37.5200830807285,
    "lng": 126.84491025722,
    "region": "서울특별시",
    "district": "양천구"
  },
  {
    "name": "교촌치킨 신월2호",
    "address": "서울 양천구 신월7동 972-6",
    "phone": "080-320-3000",
    "lat": 37.5205201388765,
    "lng": 126.834925453109,
    "region": "서울특별시",
    "district": "양천구"
  },
  {
    "name": "교촌치킨 신월사거리",
    "address": "서울 양천구 신월동 166-5",
    "phone": "080-320-3000",
    "lat": 37.5349086720191,
    "lng": 126.828600209012,
    "region": "서울특별시",
    "district": "양천구"
  },
  {
    "name": "교촌치킨 신정1호",
    "address": "서울 양천구 신정동 1022-5",
    "phone": "080-320-3000",
    "lat": 37.519676109041,
    "lng": 126.859083918703,
    "region": "서울특별시",
    "district": "양천구"
  },
  {
    "name": "교촌치킨 신트리",
    "address": "서울 양천구 신정동 1267 목동뉴프라자",
    "phone": "080-320-3000",
    "lat": 37.5132382179747,
    "lng": 126.855540992075,
    "region": "서울특별시",
    "district": "양천구"
  },
  {
    "name": "교촌치킨 오목교",
    "address": "서울 양천구 신정동 1296 아이파크 상가 1층",
    "phone": "080-320-3000",
    "lat": 37.5216475157313,
    "lng": 126.872162794181,
    "region": "서울특별시",
    "district": "양천구"
  },
  {
    "name": "교촌치킨 화곡1호",
    "address": "서울 양천구 신월동 23-17",
    "phone": "080-320-3000",
    "lat": 37.5399758670859,
    "lng": 126.833302998667,
    "region": "서울특별시",
    "district": "양천구"
  },
  {
    "name": "교촌치킨 당산",
    "address": "서울 영등포구 영등포동8가 35-1",
    "phone": "080-320-3000",
    "lat": 37.5267498125371,
    "lng": 126.905036547682,
    "region": "서울특별시",
    "district": "영등포구"
  },
  {
    "name": "교촌치킨 대림2호",
    "address": "서울 영등포구 대림동 783-1",
    "phone": "080-320-3000",
    "lat": 37.5025266968388,
    "lng": 126.896257599918,
    "region": "서울특별시",
    "district": "영등포구"
  },
  {
    "name": "교촌치킨 문래",
    "address": "서울 영등포구 문래동3가 77-34",
    "phone": "080-320-3000",
    "lat": 37.5193801261739,
    "lng": 126.889564333848,
    "region": "서울특별시",
    "district": "영등포구"
  },
  {
    "name": "교촌치킨 선유도역",
    "address": "서울 영등포구 양평동4가 147-3",
    "phone": "080-320-3000",
    "lat": 37.5372296129649,
    "lng": 126.895628426331,
    "region": "서울특별시",
    "district": "영등포구"
  },
  {
    "name": "교촌치킨 신길1호",
    "address": "서울 영등포구 신길동 296-14",
    "phone": "080-320-3000",
    "lat": 37.5076833556693,
    "lng": 126.90407208842,
    "region": "서울특별시",
    "district": "영등포구"
  },
  {
    "name": "교촌치킨 신길2호",
    "address": "서울 영등포구 신길7동 674",
    "phone": "080-320-3000",
    "lat": 37.5029314877119,
    "lng": 126.921168934896,
    "region": "서울특별시",
    "district": "영등포구"
  },
  {
    "name": "교촌치킨 신풍역",
    "address": "서울 영등포구 신길동 445-2",
    "phone": "080-320-3000",
    "lat": 37.4988566743976,
    "lng": 126.908059549938,
    "region": "서울특별시",
    "district": "영등포구"
  },
  {
    "name": "교촌치킨 여의도",
    "address": "서울 영등포구 여의도동 44-31",
    "phone": "080-320-3000",
    "lat": 37.5197859965277,
    "lng": 126.930282208957,
    "region": "서울특별시",
    "district": "영등포구"
  },
  {
    "name": "교촌치킨 영등포1호",
    "address": "서울 영등포구 신길동 232-42",
    "phone": "080-320-3000",
    "lat": 37.5070288628978,
    "lng": 126.910734866125,
    "region": "서울특별시",
    "district": "영등포구"
  },
  {
    "name": "교촌치킨 영등포역",
    "address": "서울 영등포구 영등포동3가 21-10",
    "phone": "080-320-3000",
    "lat": 37.5177411915579,
    "lng": 126.907715927092,
    "region": "서울특별시",
    "district": "영등포구"
  },
  {
    "name": "교촌치킨 동부이촌",
    "address": "서울 용산구 이촌1동 301-153 오성상가 103",
    "phone": "080-320-3000",
    "lat": 37.5207552983188,
    "lng": 126.97458851238,
    "region": "서울특별시",
    "district": "용산구"
  },
  {
    "name": "교촌치킨 보광",
    "address": "서울 용산구 보광동 217-13",
    "phone": "080-320-3000",
    "lat": 37.5261964760828,
    "lng": 126.998696752134,
    "region": "서울특별시",
    "district": "용산구"
  },
  {
    "name": "교촌치킨 숙대",
    "address": "서울 용산구 청파동2가 90-11",
    "phone": "080-320-3000",
    "lat": 37.5449874621639,
    "lng": 126.969669252109,
    "region": "서울특별시",
    "district": "용산구"
  },
  {
    "name": "교촌치킨 신용산역",
    "address": "서울 용산구 한강로2가 122-5",
    "phone": "080-320-3000",
    "lat": 37.5304219129306,
    "lng": 126.970109139045,
    "region": "서울특별시",
    "district": "용산구"
  },
  {
    "name": "교촌치킨 용문",
    "address": "서울 용산구 용문동 28-26",
    "phone": "080-320-3000",
    "lat": 37.537783786742,
    "lng": 126.959982290799,
    "region": "서울특별시",
    "district": "용산구"
  },
  {
    "name": "교촌치킨 후암",
    "address": "서울 용산구 후암동 244-59",
    "phone": "080-320-3000",
    "lat": 37.5485176185605,
    "lng": 126.977992083053,
    "region": "서울특별시",
    "district": "용산구"
  },
  {
    "name": "교촌치킨 구산역",
    "address": "서울 은평구 갈현동 464-14",
    "phone": "080-320-3000",
    "lat": 37.6128763938806,
    "lng": 126.917250875964,
    "region": "서울특별시",
    "district": "은평구"
  },
  {
    "name": "교촌치킨 녹번",
    "address": "서울 은평구 녹번동 82-47",
    "phone": "080-320-3000",
    "lat": 37.6034750182875,
    "lng": 126.925783055997,
    "region": "서울특별시",
    "district": "은평구"
  },
  {
    "name": "교촌치킨 대조",
    "address": "서울특별시 은평구 대조동 231",
    "phone": "080-320-3000",
    "lat": 37.609031353119,
    "lng": 126.9217710449,
    "region": "서울특별시",
    "district": "은평구"
  },
  {
    "name": "교촌치킨 불광1동",
    "address": "서울 은평구 불광동 554-1 라비앙프라자1층 101호",
    "phone": "080-320-3000",
    "lat": 37.6123769978684,
    "lng": 126.932107684448,
    "region": "서울특별시",
    "district": "은평구"
  },
  {
    "name": "교촌치킨 신사1동",
    "address": "서울 은평구 신사동 29-13",
    "phone": "080-320-3000",
    "lat": 37.5977377755288,
    "lng": 126.910569654841,
    "region": "서울특별시",
    "district": "은평구"
  },
  {
    "name": "교촌치킨 역촌1호",
    "address": "서울 은평구 역촌동 55-1",
    "phone": "080-320-3000",
    "lat": 37.6053569840705,
    "lng": 126.911144898302,
    "region": "서울특별시",
    "district": "은평구"
  },
  {
    "name": "교촌치킨 연신내",
    "address": "서울 은평구 불광동 484-72",
    "phone": "080-320-3000",
    "lat": 37.6204534089883,
    "lng": 126.92049224652,
    "region": "서울특별시",
    "district": "은평구"
  },
  {
    "name": "교촌치킨 은평뉴타운",
    "address": "서울 은평구 진관동 22 은평뉴타운상가 914-103호",
    "phone": "080-320-3000",
    "lat": 37.6427418080124,
    "lng": 126.920884329286,
    "region": "서울특별시",
    "district": "은평구"
  },
  {
    "name": "교촌치킨 응암1동",
    "address": "서울 은평구 응암동 236-33",
    "phone": "080-320-3000",
    "lat": 37.5932379279702,
    "lng": 126.922921697141,
    "region": "서울특별시",
    "district": "은평구"
  },
  {
    "name": "교촌치킨 응암오거리",
    "address": "서울 은평구 응암동 595-51",
    "phone": "080-320-3000",
    "lat": 37.587484012627,
    "lng": 126.914795926658,
    "region": "서울특별시",
    "district": "은평구"
  },
  {
    "name": "교촌치킨 증산(서울)",
    "address": "서울 은평구 증산동 209-18",
    "phone": "080-320-3000",
    "lat": 37.5826404088071,
    "lng": 126.905502123367,
    "region": "서울특별시",
    "district": "은평구"
  },
  {
    "name": "교촌치킨 대학로",
    "address": "서울 종로구 명륜동4가 113-1",
    "phone": "080-320-3000",
    "lat": 37.5820799726622,
    "lng": 127.000480025927,
    "region": "서울특별시",
    "district": "종로구"
  },
  {
    "name": "교촌치킨 숭인",
    "address": "서울 종로구 숭인2동 183-13",
    "phone": "080-320-3000",
    "lat": 37.574610826853,
    "lng": 127.020077569319,
    "region": "서울특별시",
    "district": "종로구"
  },
  {
    "name": "교촌치킨 안국",
    "address": "서울 종로구 화동 138-7",
    "phone": "080-320-3000",
    "lat": 37.5793394819854,
    "lng": 126.98254592351,
    "region": "서울특별시",
    "district": "종로구"
  },
  {
    "name": "교촌치킨 종로1호",
    "address": "서울 종로구 관철동 13-13",
    "phone": "080-320-3000",
    "lat": 37.5693679178965,
    "lng": 126.986045392158,
    "region": "서울특별시",
    "district": "종로구"
  },
  {
    "name": "교촌치킨 평창",
    "address": "서울 종로구 평창동 158-1",
    "phone": "080-320-3000",
    "lat": 37.6068210649059,
    "lng": 126.9692177715,
    "region": "서울특별시",
    "district": "종로구"
  },
  {
    "name": "교촌치킨 동대문1호",
    "address": "서울 중구 창신동 464-6",
    "phone": "080-320-3000",
    "lat": 37.5712639503972,
    "lng": 127.010717519182,
    "region": "서울특별시",
    "district": "중구"
  },
  {
    "name": "교촌치킨 서울시청",
    "address": "서울 중구 태평로2가 55",
    "phone": "080-320-3000",
    "lat": 37.5637371471553,
    "lng": 126.977349238217,
    "region": "서울특별시",
    "district": "중구"
  },
  {
    "name": "교촌치킨 신당1호",
    "address": "서울 중구 신당동 846",
    "phone": "080-320-3000",
    "lat": 37.5623973725096,
    "lng": 127.017280913393,
    "region": "서울특별시",
    "district": "중구"
  },
  {
    "name": "교촌치킨 약수",
    "address": "서울 중구 신당동 374-14",
    "phone": "080-320-3000",
    "lat": 37.5561812284644,
    "lng": 127.011177110521,
    "region": "서울특별시",
    "district": "중구"
  },
  {
    "name": "교촌치킨 망우본동",
    "address": "서울 중랑구 망우동 251-2",
    "phone": "080-320-3000",
    "lat": 37.6070805411035,
    "lng": 127.10593060852,
    "region": "서울특별시",
    "district": "중랑구"
  },
  {
    "name": "교촌치킨 면목1호",
    "address": "서울 중랑구 면목동 103-6",
    "phone": "080-320-3000",
    "lat": 37.5891537351856,
    "lng": 127.089935697107,
    "region": "서울특별시",
    "district": "중랑구"
  },
  {
    "name": "교촌치킨 면목2호",
    "address": "서울 중랑구 면목2동 191-126",
    "phone": "080-320-3000",
    "lat": 37.589711834897,
    "lng": 127.073646207506,
    "region": "서울특별시",
    "district": "중랑구"
  },
  {
    "name": "교촌치킨 묵동",
    "address": "서울 중랑구 묵동 175-2",
    "phone": null,
    "lat": 37.6125944730494,
    "lng": 127.077578498306,
    "region": "서울특별시",
    "district": "중랑구"
  },
  {
    "name": "교촌치킨 사가정역",
    "address": "서울 중랑구 면목동 496-14",
    "phone": "080-320-3000",
    "lat": 37.5815202015687,
    "lng": 127.088214170534,
    "region": "서울특별시",
    "district": "중랑구"
  },
  {
    "name": "교촌치킨 상봉1호",
    "address": "서울 중랑구 상봉동 91-1",
    "phone": "080-320-3000",
    "lat": 37.5967813322755,
    "lng": 127.088649118365,
    "region": "서울특별시",
    "district": "중랑구"
  },
  {
    "name": "교촌치킨 신내1호",
    "address": "서울 중랑구 신내동 797",
    "phone": "080-320-3000",
    "lat": 37.6060544878653,
    "lng": 127.097141297689,
    "region": "서울특별시",
    "district": "중랑구"
  },
  {
    "name": "교촌치킨 중화",
    "address": "서울 중랑구 중화동 304-34",
    "phone": "080-320-3000",
    "lat": 37.5995869817655,
    "lng": 127.078792513755,
    "region": "서울특별시",
    "district": "중랑구"
  },
  {
    "name": "교촌치킨 구서1호",
    "address": "부산 금정구 구서2동 1024-1",
    "phone": "051-516-8600",
    "lat": 35.2580102333053,
    "lng": 129.08624653278,
    "region": "부산광역시",
    "district": "금정구"
  },
  {
    "name": "교촌치킨 구서역",
    "address": "부산 금정구 구서동 457-23",
    "phone": "051-583-2661",
    "lat": 35.2449934011511,
    "lng": 129.088751704006,
    "region": "부산광역시",
    "district": "금정구"
  },
  {
    "name": "교촌치킨 남산1호",
    "address": "부산 금정구 남산동 99-6",
    "phone": "051-581-9968",
    "lat": 35.2679748294539,
    "lng": 129.089288572208,
    "region": "부산광역시",
    "district": "금정구"
  },
  {
    "name": "교촌치킨 부곡1호",
    "address": "부산 금정구 부곡동 23-15",
    "phone": "051-517-3009",
    "lat": 35.2424368471745,
    "lng": 129.093641932234,
    "region": "부산광역시",
    "district": "금정구"
  },
  {
    "name": "교촌치킨 부곡2호",
    "address": "부산 금정구 부곡1동 324-20",
    "phone": "051-516-0111",
    "lat": 35.2240127446509,
    "lng": 129.091411302966,
    "region": "부산광역시",
    "district": "금정구"
  },
  {
    "name": "교촌치킨 부산대",
    "address": "부산 금정구 금강로 장전동 418-13",
    "phone": "051-582-8588",
    "lat": 35.2320892819705,
    "lng": 129.085433047253,
    "region": "부산광역시",
    "district": "금정구"
  },
  {
    "name": "교촌치킨 서동1호",
    "address": "부산 금정구 서동 210-6",
    "phone": "051-526-8292",
    "lat": 35.2142229131685,
    "lng": 129.106361526688,
    "region": "부산광역시",
    "district": "금정구"
  },
  {
    "name": "교촌치킨 장전1호",
    "address": "부산 금정구 장전동 134-19",
    "phone": "051-514-8200",
    "lat": 35.2379572404486,
    "lng": 129.083777572101,
    "region": "부산광역시",
    "district": "금정구"
  },
  {
    "name": "교촌치킨 국제신도시",
    "address": "부산 강서구 명지동 3412-6",
    "phone": "051-291-9993",
    "lat": 35.0977305030311,
    "lng": 128.919624650676,
    "region": "부산광역시",
    "district": "강서구"
  },
  {
    "name": "교촌치킨 명지법원네오",
    "address": "부산 강서구 명지동 3432-1 2동 102호",
    "phone": "051-201-1991",
    "lat": 35.0935623455617,
    "lng": 128.910260416124,
    "region": "부산광역시",
    "district": "강서구"
  },
  {
    "name": "교촌치킨 명지신도시",
    "address": "부산 강서구 명지동 3256-5",
    "phone": "051-271-7725",
    "lat": 35.0858859037317,
    "lng": 128.909764727715,
    "region": "부산광역시",
    "district": "강서구"
  },
  {
    "name": "교촌치킨 신호",
    "address": "부산 강서구 신호동 317-15",
    "phone": "051-941-9207",
    "lat": 35.082148707396,
    "lng": 128.872731448036,
    "region": "부산광역시",
    "district": "강서구"
  },
  {
    "name": "교촌치킨 에코델타시티1호",
    "address": "부산 강서구 강동동 4998-4",
    "phone": "051-973-7835",
    "lat": 35.1423918766982,
    "lng": 128.915038508784,
    "region": "부산광역시",
    "district": "강서구"
  },
  {
    "name": "교촌치킨 지사",
    "address": "부산 강서구 지사동 1191-5",
    "phone": "051-831-6880",
    "lat": 35.1494876861787,
    "lng": 128.83306566741,
    "region": "부산광역시",
    "district": "강서구"
  },
  {
    "name": "교촌치킨 기장",
    "address": "부산 기장군 기장읍 동부리 134-2",
    "phone": "051-722-9945",
    "lat": 35.2475908725016,
    "lng": 129.214318446814,
    "region": "부산광역시",
    "district": "기장군"
  },
  {
    "name": "교촌치킨 일광신도시",
    "address": "부산 기장군 일광면 삼성리 833-4",
    "phone": "051-721-9400",
    "lat": 35.2647785682542,
    "lng": 129.225382665588,
    "region": "부산광역시",
    "district": "기장군"
  },
  {
    "name": "교촌치킨 정관1호",
    "address": "부산 기장군 정관읍 매학리 751-1",
    "phone": "051-728-9233",
    "lat": 35.321662311398,
    "lng": 129.181680251199,
    "region": "부산광역시",
    "district": "기장군"
  },
  {
    "name": "교촌치킨 정관2호",
    "address": "부산 기장군 모전리 747-7",
    "phone": "051-728-5399",
    "lat": 35.3347614639483,
    "lng": 129.168384443279,
    "region": "부산광역시",
    "district": "기장군"
  },
  {
    "name": "교촌치킨 대연1호",
    "address": "부산 남구 대연동 1013-8",
    "phone": "051-639-9292",
    "lat": 35.1300073604968,
    "lng": 129.089986778463,
    "region": "부산광역시",
    "district": "남구"
  },
  {
    "name": "교촌치킨 대연2호",
    "address": "부산 남구 대연동 52-7",
    "phone": "051-621-4800",
    "lat": 35.1366685584378,
    "lng": 129.102079379174,
    "region": "부산광역시",
    "district": "남구"
  },
  {
    "name": "교촌치킨 대연3호",
    "address": "부산 남구 대연동 1161-9",
    "phone": "051-622-1991",
    "lat": 35.1254619304902,
    "lng": 129.088940465975,
    "region": "부산광역시",
    "district": "남구"
  },
  {
    "name": "교촌치킨 못골",
    "address": "부산 남구 대연동 1543-33",
    "phone": "051-637-7733",
    "lat": 35.1382119318583,
    "lng": 129.08682645764,
    "region": "부산광역시",
    "district": "남구"
  },
  {
    "name": "교촌치킨 문현1호",
    "address": "부산 남구 문현동 359-5",
    "phone": "051-634-8292",
    "lat": 35.1364003532844,
    "lng": 129.071404512855,
    "region": "부산광역시",
    "district": "남구"
  },
  {
    "name": "교촌치킨 용호1호",
    "address": "부산 남구 용호동 555-19",
    "phone": "051-626-3999",
    "lat": 35.1103764056037,
    "lng": 129.11099284067,
    "region": "부산광역시",
    "district": "남구"
  },
  {
    "name": "교촌치킨 용호2호",
    "address": "부산 남구 동명로 126",
    "phone": "051-715-7542",
    "lat": 35.1197848496929,
    "lng": 129.11073955864,
    "region": "부산광역시",
    "district": "남구"
  },
  {
    "name": "교촌치킨 용호2호",
    "address": "부산 남구 용호동 396-1",
    "phone": "051-715-7542",
    "lat": 35.1197355518418,
    "lng": 129.110708783127,
    "region": "부산광역시",
    "district": "남구"
  },
  {
    "name": "교촌치킨 범일1호",
    "address": "부산 동구 범일동 833-2",
    "phone": "051-642-8558",
    "lat": 35.1399340661182,
    "lng": 129.059922265936,
    "region": "부산광역시",
    "district": "동구"
  },
  {
    "name": "교촌치킨 수정1호",
    "address": "부산 동구 수정동 844-25",
    "phone": "051-469-8880",
    "lat": 35.1281958839396,
    "lng": 129.044860732407,
    "region": "부산광역시",
    "district": "동구"
  },
  {
    "name": "교촌치킨 초량",
    "address": "부산 동구 초량동 132-1",
    "phone": "051-441-9994",
    "lat": 35.1205880024867,
    "lng": 129.039408805259,
    "region": "부산광역시",
    "district": "동구"
  },
  {
    "name": "교촌치킨 명륜(부산)",
    "address": "부산 동래구 명륜동 644-9",
    "phone": "051-555-9224",
    "lat": 35.2089640566714,
    "lng": 129.081466658808,
    "region": "부산광역시",
    "district": "동래구"
  },
  {
    "name": "교촌치킨 명장1호",
    "address": "부산 동래구 명장동 26-24번지 국제아파트 상가 106호",
    "phone": "051-525-9233",
    "lat": 35.2055749284023,
    "lng": 129.099756884897,
    "region": "부산광역시",
    "district": "동래구"
  },
  {
    "name": "교촌치킨 복천",
    "address": "부산 동래구 복천동 476-1",
    "phone": "051-555-8592",
    "lat": 35.2058516073186,
    "lng": 129.085631301199,
    "region": "부산광역시",
    "district": "동래구"
  },
  {
    "name": "교촌치킨 사직1호(부산)",
    "address": "부산 동래구 사직동 137-26",
    "phone": "051-505-9289",
    "lat": 35.1998551156556,
    "lng": 129.070375048759,
    "region": "부산광역시",
    "district": "동래구"
  },
  {
    "name": "교촌치킨 사직2호",
    "address": "부산 동래구 사직동 89-16",
    "phone": "051-501-9995",
    "lat": 35.1956263436798,
    "lng": 129.059255125254,
    "region": "부산광역시",
    "district": "동래구"
  },
  {
    "name": "교촌치킨 수안",
    "address": "부산 동래구 수안동 192-4",
    "phone": "051-557-1990",
    "lat": 35.201010569352,
    "lng": 129.084378862652,
    "region": "부산광역시",
    "district": "동래구"
  },
  {
    "name": "교촌치킨 안락2호",
    "address": "부산 동래구 안락동 599-36",
    "phone": "051-526-7171",
    "lat": 35.1946676919207,
    "lng": 129.104458269596,
    "region": "부산광역시",
    "district": "동래구"
  },
  {
    "name": "교촌치킨 온천1호",
    "address": "부산 동래구 온천동 210-46",
    "phone": "051-555-2016",
    "lat": 35.2188463854207,
    "lng": 129.081223344019,
    "region": "부산광역시",
    "district": "동래구"
  },
  {
    "name": "교촌치킨 온천2호",
    "address": "부산 동래구 온천동 1411-47",
    "phone": "051-506-4949",
    "lat": 35.2029725947381,
    "lng": 129.066656092979,
    "region": "부산광역시",
    "district": "동래구"
  },
  {
    "name": "교촌치킨 가야",
    "address": "부산 부산진구 가야동 478",
    "phone": "051-894-9909",
    "lat": 35.1476908266723,
    "lng": 129.030704862534,
    "region": "부산광역시",
    "district": "부산진구"
  },
  {
    "name": "교촌치킨 개금1호",
    "address": "부산 부산진구 개금동 2-1",
    "phone": "051-894-6071",
    "lat": 35.1616134289451,
    "lng": 129.025889000325,
    "region": "부산광역시",
    "district": "부산진구"
  },
  {
    "name": "교촌치킨 개금역",
    "address": "부산 부산진구 개금동 523-17",
    "phone": "051-894-8292",
    "lat": 35.1513247004189,
    "lng": 129.020002231846,
    "region": "부산광역시",
    "district": "부산진구"
  },
  {
    "name": "교촌치킨 당감",
    "address": "부산 부산진구 당감동 411-1",
    "phone": "051-891-9979",
    "lat": 35.1654806404905,
    "lng": 129.037912165293,
    "region": "부산광역시",
    "district": "부산진구"
  },
  {
    "name": "교촌치킨 범천",
    "address": "부산 부산진구 범천동 1278-11",
    "phone": "051-637-9982",
    "lat": 35.1467703576102,
    "lng": 129.055144225679,
    "region": "부산광역시",
    "district": "부산진구"
  },
  {
    "name": "교촌치킨 부암1호",
    "address": "부산 부산진구 부암동 301-33",
    "phone": "051-808-6060",
    "lat": 35.1668402255992,
    "lng": 129.049025181543,
    "region": "부산광역시",
    "district": "부산진구"
  },
  {
    "name": "교촌치킨 서면",
    "address": "부산 부산진구 부전동 266-24",
    "phone": "051-808-9981",
    "lat": 35.1592799291573,
    "lng": 129.059940412523,
    "region": "부산광역시",
    "district": "부산진구"
  },
  {
    "name": "교촌치킨 양정",
    "address": "부산 부산진구 양정동 310-6",
    "phone": "051-853-5458",
    "lat": 35.1737057856019,
    "lng": 129.072820438401,
    "region": "부산광역시",
    "district": "부산진구"
  },
  {
    "name": "교촌치킨 연지",
    "address": "부산 부산진구 연지동 40-12",
    "phone": "051-807-7701",
    "lat": 35.1723177122873,
    "lng": 129.059359738516,
    "region": "부산광역시",
    "district": "부산진구"
  },
  {
    "name": "교촌치킨 전포1호",
    "address": "부산 부산진구 전포동 337-20",
    "phone": "051-808-5592",
    "lat": 35.1546429125205,
    "lng": 129.067930245502,
    "region": "부산광역시",
    "district": "부산진구"
  },
  {
    "name": "교촌치킨 초읍대공원",
    "address": "부산 부산진구 초읍동 288-6",
    "phone": "051-807-3492",
    "lat": 35.180582016589,
    "lng": 129.0474822473,
    "region": "부산광역시",
    "district": "부산진구"
  },
  {
    "name": "교촌치킨 구포1호",
    "address": "부산 북구 구포3동 1228-1",
    "phone": "051-363-9992",
    "lat": 35.1983475582151,
    "lng": 129.008427296128,
    "region": "부산광역시",
    "district": "북구"
  },
  {
    "name": "교촌치킨 구포2호",
    "address": "부산 북구 구포동 932-35",
    "phone": "051-341-1992",
    "lat": 35.2000429692594,
    "lng": 128.997051927961,
    "region": "부산광역시",
    "district": "북구"
  },
  {
    "name": "교촌치킨 금곡(부산)",
    "address": "부산 북구 금곡동 57-6",
    "phone": "051-365-1991",
    "lat": 35.2640595163269,
    "lng": 129.020049673781,
    "region": "부산광역시",
    "district": "북구"
  },
  {
    "name": "교촌치킨 덕천2호",
    "address": "부산 북구 덕천3동 781-2",
    "phone": "051-331-3179",
    "lat": 35.2107596265309,
    "lng": 129.019186255273,
    "region": "부산광역시",
    "district": "북구"
  },
  {
    "name": "교촌치킨 덕천역",
    "address": "부산 북구 덕천동 402-12",
    "phone": "051-336-1991",
    "lat": 35.2096052127254,
    "lng": 129.007540706087,
    "region": "부산광역시",
    "district": "북구"
  },
  {
    "name": "교촌치킨 만덕1호",
    "address": "부산 북구 만덕동 294",
    "phone": "051-341-7771",
    "lat": 35.21227069738,
    "lng": 129.036488224391,
    "region": "부산광역시",
    "district": "북구"
  },
  {
    "name": "교촌치킨 만덕2호",
    "address": "부산 북구 만덕3동 915-6",
    "phone": "051-337-4300",
    "lat": 35.2116124261132,
    "lng": 129.028545074003,
    "region": "부산광역시",
    "district": "북구"
  },
  {
    "name": "교촌치킨 화명1호",
    "address": "부산 북구 화명동 749",
    "phone": "051-338-9933",
    "lat": 35.2348586252776,
    "lng": 129.020646052987,
    "region": "부산광역시",
    "district": "북구"
  },
  {
    "name": "교촌치킨 화명3호",
    "address": "부산 북구 화명동 182-5(2층)",
    "phone": null,
    "lat": 35.2452281166683,
    "lng": 129.013076298967,
    "region": "부산광역시",
    "district": "북구"
  },
  {
    "name": "교촌치킨 화명신도시",
    "address": "부산 북구 화명동 2266-1",
    "phone": "051-342-9282",
    "lat": 35.2362318328097,
    "lng": 129.008684493937,
    "region": "부산광역시",
    "district": "북구"
  },
  {
    "name": "교촌치킨 괘법",
    "address": "부산 사상구 괘법동 516-1",
    "phone": "051-325-0090",
    "lat": 35.1677708208443,
    "lng": 128.980528328819,
    "region": "부산광역시",
    "district": "사상구"
  },
  {
    "name": "교촌치킨 덕포",
    "address": "부산 사상구 덕포동 767-10",
    "phone": "051-303-5592",
    "lat": 35.1757189389617,
    "lng": 128.988680664709,
    "region": "부산광역시",
    "district": "사상구"
  },
  {
    "name": "교촌치킨 동서대",
    "address": "부산 사상구 주례동 55-176",
    "phone": "051-325-2827",
    "lat": 35.1497663834574,
    "lng": 129.013692742718,
    "region": "부산광역시",
    "district": "사상구"
  },
  {
    "name": "교촌치킨 모라",
    "address": "부산 사상구 모라동 1349-4",
    "phone": "051-322-9998",
    "lat": 35.189951017072,
    "lng": 128.991325880772,
    "region": "부산광역시",
    "district": "사상구"
  },
  {
    "name": "교촌치킨 신주례",
    "address": "부산 사상구 주례2동 3-17",
    "phone": "051-315-9977",
    "lat": 35.1538862641214,
    "lng": 129.015659632523,
    "region": "부산광역시",
    "district": "사상구"
  },
  {
    "name": "교촌치킨 엄궁",
    "address": "부산 사상구 엄궁동 40-94",
    "phone": "051-311-7599",
    "lat": 35.1282998823493,
    "lng": 128.974745401148,
    "region": "부산광역시",
    "district": "사상구"
  },
  {
    "name": "교촌치킨 학장",
    "address": "부산 사상구 학장동 산149-16",
    "phone": "051-313-9925",
    "lat": 35.1368859737854,
    "lng": 128.976171495261,
    "region": "부산광역시",
    "district": "사상구"
  },
  {
    "name": "교촌치킨 괴정1호",
    "address": "부산 사하구 괴정동 487-24",
    "phone": "051-202-9951",
    "lat": 35.0963634478415,
    "lng": 128.992711675452,
    "region": "부산광역시",
    "district": "사하구"
  },
  {
    "name": "교촌치킨 다대1호",
    "address": "부산 사하구 다대동 926-7",
    "phone": "051-265-4446",
    "lat": 35.0610327194194,
    "lng": 128.973621352445,
    "region": "부산광역시",
    "district": "사하구"
  },
  {
    "name": "교촌치킨 다대2호",
    "address": "부산 사하구 다대동 1014",
    "phone": "051-266-8806",
    "lat": 35.0586297357103,
    "lng": 128.965946245842,
    "region": "부산광역시",
    "district": "사하구"
  },
  {
    "name": "교촌치킨 당리괴정2호",
    "address": "부산 사하구 괴정동 577-42",
    "phone": "051-207-9242",
    "lat": 35.0999991427388,
    "lng": 128.983352365139,
    "region": "부산광역시",
    "district": "사하구"
  },
  {
    "name": "교촌치킨 신평1호",
    "address": "부산 사하구 신평동 262-20",
    "phone": "051-294-8853",
    "lat": 35.0914149370322,
    "lng": 128.973495291673,
    "region": "부산광역시",
    "district": "사하구"
  },
  {
    "name": "교촌치킨 장림",
    "address": "부산 사하구 장림동 590",
    "phone": "051-266-1182",
    "lat": 35.0759782535466,
    "lng": 128.972457440266,
    "region": "부산광역시",
    "district": "사하구"
  },
  {
    "name": "교촌치킨 하단1호",
    "address": "부산 사하구 하단동 505-8",
    "phone": "051-202-4780",
    "lat": 35.110058256289,
    "lng": 128.966202794194,
    "region": "부산광역시",
    "district": "사하구"
  },
  {
    "name": "교촌치킨 하단2호",
    "address": "부산 사하구 하단동 605-42",
    "phone": "051-292-8592",
    "lat": 35.1037149185344,
    "lng": 128.961914030464,
    "region": "부산광역시",
    "district": "사하구"
  },
  {
    "name": "교촌치킨 남부민",
    "address": "부산 서구 충무동2가 3-1",
    "phone": "051-247-9282",
    "lat": 35.0954581982202,
    "lng": 129.022553298626,
    "region": "부산광역시",
    "district": "서구"
  },
  {
    "name": "교촌치킨 대신",
    "address": "부산 서구 서대신동1가 163-1",
    "phone": "051-231-9992",
    "lat": 35.1093913110355,
    "lng": 129.014772676247,
    "region": "부산광역시",
    "district": "서구"
  },
  {
    "name": "교촌치킨 송도감천",
    "address": "부산 서구 암남동 64-2 상가동 108호,109호(암남동)",
    "phone": "051-231-9292",
    "lat": 35.0812584009957,
    "lng": 129.017194801219,
    "region": "부산광역시",
    "district": "서구"
  },
  {
    "name": "교촌치킨 아미부민",
    "address": "부산 서구 부민동1가 11-3",
    "phone": "051-242-3651",
    "lat": 35.1045812582619,
    "lng": 129.021068036677,
    "region": "부산광역시",
    "district": "서구"
  },
  {
    "name": "교촌치킨 광안1호",
    "address": "부산 수영구 광안동 120-13",
    "phone": "051-754-9210",
    "lat": 35.1613620506096,
    "lng": 129.117006408145,
    "region": "부산광역시",
    "district": "수영구"
  },
  {
    "name": "교촌치킨 광안2호",
    "address": "부산 수영구 광안동 168-3",
    "phone": "051-754-2092",
    "lat": 35.1537013361814,
    "lng": 129.112383922428,
    "region": "부산광역시",
    "district": "수영구"
  },
  {
    "name": "교촌치킨 남천",
    "address": "부산 수영구 남천동 17-12",
    "phone": "051-611-9289",
    "lat": 35.1422721850921,
    "lng": 129.109473024325,
    "region": "부산광역시",
    "district": "수영구"
  },
  {
    "name": "교촌치킨 망미1호",
    "address": "부산 수영구 망미동 419-31",
    "phone": "051-759-9925",
    "lat": 35.1740334339106,
    "lng": 129.108280757764,
    "region": "부산광역시",
    "district": "수영구"
  },
  {
    "name": "교촌치킨 민락(부산)",
    "address": "부산 수영구 민락동 165-15",
    "phone": "051-757-9294",
    "lat": 35.1582142986308,
    "lng": 129.120840072495,
    "region": "부산광역시",
    "district": "수영구"
  },
  {
    "name": "교촌치킨 수영",
    "address": "부산 수영구 수영동 503-23",
    "phone": "051-761-4992",
    "lat": 35.1685707134231,
    "lng": 129.119787749713,
    "region": "부산광역시",
    "district": "수영구"
  },
  {
    "name": "교촌치킨 거제법조",
    "address": "부산 연제구 거제동 891-14",
    "phone": "051-505-5511",
    "lat": 35.1931568098938,
    "lng": 129.066563261964,
    "region": "부산광역시",
    "district": "연제구"
  },
  {
    "name": "교촌치킨 시청(부산)",
    "address": "부산 연제구 거제3동 34-19",
    "phone": "051-851-9945",
    "lat": 35.1868514347402,
    "lng": 129.076421073279,
    "region": "부산광역시",
    "district": "연제구"
  },
  {
    "name": "교촌치킨 연산1호",
    "address": "부산 연제구 연산동 479-9",
    "phone": "051-757-3532",
    "lat": 35.1833483619466,
    "lng": 129.106846294249,
    "region": "부산광역시",
    "district": "연제구"
  },
  {
    "name": "교촌치킨 연산2호",
    "address": "부산광역시 연제구 연산동 586-1",
    "phone": "051-853-9980",
    "lat": 35.1901505043658,
    "lng": 129.082274176639,
    "region": "부산광역시",
    "district": "연제구"
  },
  {
    "name": "교촌치킨 연산3호",
    "address": "부산 연제구 연산동 2133-48",
    "phone": "051-851-7211",
    "lat": 35.1740309420569,
    "lng": 129.092684946915,
    "region": "부산광역시",
    "district": "연제구"
  },
  {
    "name": "교촌치킨 대교남항",
    "address": "부산 영도구 남항동1가 82",
    "phone": "051-417-9999",
    "lat": 35.0901783326449,
    "lng": 129.03839339113,
    "region": "부산광역시",
    "district": "영도구"
  },
  {
    "name": "교촌치킨 동삼",
    "address": "부산 영도구 동삼동 219-146",
    "phone": "051-405-9995",
    "lat": 35.0828291038755,
    "lng": 129.071118798869,
    "region": "부산광역시",
    "district": "영도구"
  },
  {
    "name": "교촌치킨 봉래영선",
    "address": "부산 영도구 영선동1가 12-10",
    "phone": null,
    "lat": 35.0913099594508,
    "lng": 129.043610011763,
    "region": "부산광역시",
    "district": "영도구"
  },
  {
    "name": "교촌치킨 청학",
    "address": "부산 영도구 청학동 8-11",
    "phone": "051-417-9996",
    "lat": 35.0951164245314,
    "lng": 129.063777185019,
    "region": "부산광역시",
    "district": "영도구"
  },
  {
    "name": "교촌치킨 남포부평",
    "address": "부산 중구 중앙동1가 23-6",
    "phone": "051-253-7942",
    "lat": 35.1004479337156,
    "lng": 129.035637675604,
    "region": "부산광역시",
    "district": "중구"
  },
  {
    "name": "교촌치킨 영주대청",
    "address": "부산 중구 대청동4가 82-13",
    "phone": "051-441-4942",
    "lat": 35.1037235215851,
    "lng": 129.029038761401,
    "region": "부산광역시",
    "district": "중구"
  },
  {
    "name": "교촌치킨 마린시티",
    "address": "부산 해운대구 우동 1434-2",
    "phone": "051-731-1929",
    "lat": 35.1572363816251,
    "lng": 129.148268445559,
    "region": "부산광역시",
    "district": "해운대구"
  },
  {
    "name": "교촌치킨 반송(부산)",
    "address": "부산 해운대구 반송2동 216-150",
    "phone": "051-545-9289",
    "lat": 35.2296792929201,
    "lng": 129.154877833618,
    "region": "부산광역시",
    "district": "해운대구"
  },
  {
    "name": "교촌치킨 반여1호",
    "address": "부산 해운대구 반여동 1628-5",
    "phone": "051-524-1991",
    "lat": 35.2011168533375,
    "lng": 129.123676737229,
    "region": "부산광역시",
    "district": "해운대구"
  },
  {
    "name": "교촌치킨 센텀파크",
    "address": "부산 해운대구 센텀동로 102 117호",
    "phone": "051-781-7999",
    "lat": 35.1765866865981,
    "lng": 129.126489620138,
    "region": "부산광역시",
    "district": "해운대구"
  },
  {
    "name": "교촌치킨 송정(부산)",
    "address": "부산 해운대구 송정동 227-7",
    "phone": "051-702-5006",
    "lat": 35.1821953725628,
    "lng": 129.20399874301,
    "region": "부산광역시",
    "district": "해운대구"
  },
  {
    "name": "교촌치킨 우동벡스코",
    "address": "부산 해운대구 우동 1090-13",
    "phone": "051-744-2474",
    "lat": 35.1694583585361,
    "lng": 129.13859462993,
    "region": "부산광역시",
    "district": "해운대구"
  },
  {
    "name": "교촌치킨 재송1호",
    "address": "부산 해운대구 반여동 1291-1019",
    "phone": "051-782-9989",
    "lat": 35.1940593272009,
    "lng": 129.130637291665,
    "region": "부산광역시",
    "district": "해운대구"
  },
  {
    "name": "교촌치킨 재송2호",
    "address": "부산 해운대구 재송동 1083-10",
    "phone": "051-784-9992",
    "lat": 35.1874928847377,
    "lng": 129.125002063554,
    "region": "부산광역시",
    "district": "해운대구"
  },
  {
    "name": "교촌치킨 좌동1호",
    "address": "부산 해운대구 좌동 970",
    "phone": "051-703-9917",
    "lat": 35.1738292543327,
    "lng": 129.175901046329,
    "region": "부산광역시",
    "district": "해운대구"
  },
  {
    "name": "교촌치킨 좌동2호",
    "address": "부산 해운대구 좌동 1341-8",
    "phone": "051-743-1995",
    "lat": 35.1716633133236,
    "lng": 129.166431475256,
    "region": "부산광역시",
    "district": "해운대구"
  },
  {
    "name": "교촌치킨 좌동3호",
    "address": "부산 해운대구 좌동 1484-1",
    "phone": "051-704-9399",
    "lat": 35.1690025360276,
    "lng": 129.178284184642,
    "region": "부산광역시",
    "district": "해운대구"
  },
  {
    "name": "교촌치킨 해운대역",
    "address": "부산 해운대구 우동 639-4",
    "phone": "051-746-9288",
    "lat": 35.162436880869,
    "lng": 129.157276272164,
    "region": "부산광역시",
    "district": "해운대구"
  },
  {
    "name": "교촌치킨 계명",
    "address": "대구시 남구 양지로 107",
    "phone": "053-626-9992",
    "lat": 35.8516988125357,
    "lng": 128.57951959617,
    "region": "대구광역시",
    "district": "남구"
  },
  {
    "name": "교촌치킨 대명1호",
    "address": "대구 남구 대명동 1098-4",
    "phone": "053-629-9994",
    "lat": 35.838926622593,
    "lng": 128.564175134155,
    "region": "대구광역시",
    "district": "남구"
  },
  {
    "name": "교촌치킨 봉덕",
    "address": "대구 남구 봉덕동 687-32",
    "phone": "053-471-1222",
    "lat": 35.8426335386331,
    "lng": 128.597220685368,
    "region": "대구광역시",
    "district": "남구"
  },
  {
    "name": "교촌치킨 앞산",
    "address": "대구 남구 대명동 336-11",
    "phone": "053-657-9999",
    "lat": 35.8401158174026,
    "lng": 128.580375696145,
    "region": "대구광역시",
    "district": "남구"
  },
  {
    "name": "교촌치킨 이천대봉",
    "address": "대구 남구 이천동 184-9",
    "phone": "053-476-5800",
    "lat": 35.8545634919237,
    "lng": 128.60353481283,
    "region": "대구광역시",
    "district": "남구"
  },
  {
    "name": "교촌치킨 감삼성당",
    "address": "대구 달서구 감삼동 317-3",
    "phone": "053-552-6999",
    "lat": 35.8437085370166,
    "lng": 128.540008308961,
    "region": "대구광역시",
    "district": "달서구"
  },
  {
    "name": "교촌치킨 대곡",
    "address": "대구 달서구 도원동 1442-2 1층 107호",
    "phone": "053-635-3599",
    "lat": 35.80604389851,
    "lng": 128.535209670613,
    "region": "대구광역시",
    "district": "달서구"
  },
  {
    "name": "교촌치킨 대곡2지구",
    "address": "대구 달서구 대곡동 1068",
    "phone": "053-637-7556",
    "lat": 35.8034500723354,
    "lng": 128.529145289042,
    "region": "대구광역시",
    "district": "달서구"
  },
  {
    "name": "교촌치킨 두류",
    "address": "대구 달서구 두류동 620-12",
    "phone": "053-525-1202",
    "lat": 35.8520751755262,
    "lng": 128.5548211855,
    "region": "대구광역시",
    "district": "달서구"
  },
  {
    "name": "교촌치킨 상인",
    "address": "대구 달서구 상인동 1555-1",
    "phone": "053-637-6999",
    "lat": 35.8125241959512,
    "lng": 128.545681046987,
    "region": "대구광역시",
    "district": "달서구"
  },
  {
    "name": "교촌치킨 성서",
    "address": "대구 달서구 신당동 1761-5",
    "phone": "053-583-6969",
    "lat": 35.8580534875326,
    "lng": 128.499663667129,
    "region": "대구광역시",
    "district": "달서구"
  },
  {
    "name": "교촌치킨 송현(대구)",
    "address": "대구 달서구 송현1동 207-2",
    "phone": "053-656-9945",
    "lat": 35.8321009894175,
    "lng": 128.552943918245,
    "region": "대구광역시",
    "district": "달서구"
  },
  {
    "name": "교촌치킨 신월성",
    "address": "대구 달서구 월성동 1842",
    "phone": "053-634-9996",
    "lat": 35.8243736546667,
    "lng": 128.526316568493,
    "region": "대구광역시",
    "district": "달서구"
  },
  {
    "name": "교촌치킨 용산",
    "address": "대구 달서구 용산동 950-1",
    "phone": "053-524-4999",
    "lat": 35.8562005620349,
    "lng": 128.530845397185,
    "region": "대구광역시",
    "district": "달서구"
  },
  {
    "name": "교촌치킨 용산새방",
    "address": "대구 달서구 용산동 499-2",
    "phone": "053-592-6999",
    "lat": 35.8585487849963,
    "lng": 128.521618135105,
    "region": "대구광역시",
    "district": "달서구"
  },
  {
    "name": "교촌치킨 월성",
    "address": "대구 달서구 본동 1135-4",
    "phone": "053-571-9992",
    "lat": 35.8327764667059,
    "lng": 128.537698808683,
    "region": "대구광역시",
    "district": "달서구"
  },
  {
    "name": "교촌치킨 장기",
    "address": "대구 달서구 장기동 826-6",
    "phone": "053-523-0111",
    "lat": 35.8420663020564,
    "lng": 128.529254104264,
    "region": "대구광역시",
    "district": "달서구"
  },
  {
    "name": "교촌치킨 진천(대구)",
    "address": "대구 달서구 진천동 504",
    "phone": "053-635-9992",
    "lat": 35.8131675844226,
    "lng": 128.52481643744,
    "region": "대구광역시",
    "district": "달서구"
  },
  {
    "name": "교촌치킨 호산파호",
    "address": "대구 달서구 호산동 357-116",
    "phone": "053-592-5924",
    "lat": 35.8494160062162,
    "lng": 128.485510092434,
    "region": "대구광역시",
    "district": "달서구"
  },
  {
    "name": "교촌치킨 구지",
    "address": "대구 달성군 구지면 응암리 1204-2",
    "phone": "053-615-2992",
    "lat": 35.6566216214986,
    "lng": 128.418928708266,
    "region": "대구광역시",
    "district": "달성군"
  },
  {
    "name": "교촌치킨 논공",
    "address": "대구 달성군 논공읍 북리 803-148",
    "phone": "053-615-9945",
    "lat": 35.7298559740478,
    "lng": 128.445373473072,
    "region": "대구광역시",
    "district": "달성군"
  },
  {
    "name": "교촌치킨 다사",
    "address": "대구 달성군 다사읍 죽곡리 809-1",
    "phone": "053-592-9991",
    "lat": 35.8567888400467,
    "lng": 128.464557480778,
    "region": "대구광역시",
    "district": "달성군"
  },
  {
    "name": "교촌치킨 명곡",
    "address": "대구 달성군 화원읍 명곡리 320-1",
    "phone": "053-644-2999",
    "lat": 35.7988162677017,
    "lng": 128.492589302374,
    "region": "대구광역시",
    "district": "달성군"
  },
  {
    "name": "교촌치킨 서재세천",
    "address": "대구 달성군 다사읍 서재리 423-15",
    "phone": null,
    "lat": 35.8714501605548,
    "lng": 128.497201320533,
    "region": "대구광역시",
    "district": "달성군"
  },
  {
    "name": "교촌치킨 옥포(대구)",
    "address": "대구 달성군 옥포읍 교항리 2911",
    "phone": "053-625-1991",
    "lat": 35.7813194420486,
    "lng": 128.441459971366,
    "region": "대구광역시",
    "district": "달성군"
  },
  {
    "name": "교촌치킨 테크노폴리스",
    "address": "대구 달성군 유가면 봉리 606 하이젠스타 115호",
    "phone": "053-617-1991",
    "lat": 35.6930756627163,
    "lng": 128.458221638684,
    "region": "대구광역시",
    "district": "달성군"
  },
  {
    "name": "교촌치킨 화원",
    "address": "대구 달성군 화원읍 천내리 241-1",
    "phone": "053-635-9981",
    "lat": 35.8043906345618,
    "lng": 128.496269554444,
    "region": "대구광역시",
    "district": "달성군"
  },
  {
    "name": "교촌치킨 대구혁신",
    "address": "대구 동구 각산동 1098-5 102호",
    "phone": "053-955-1991",
    "lat": 35.8776975792422,
    "lng": 128.72224089684,
    "region": "대구광역시",
    "district": "동구"
  },
  {
    "name": "교촌치킨 동구청",
    "address": "대구 동구 신암동 345-3",
    "phone": "053-959-9950",
    "lat": 35.8846380713563,
    "lng": 128.632834503458,
    "region": "대구광역시",
    "district": "동구"
  },
  {
    "name": "교촌치킨 동촌",
    "address": "대구 동구 검사동 1111",
    "phone": "053-984-1999",
    "lat": 35.8864573095357,
    "lng": 128.651978555459,
    "region": "대구광역시",
    "district": "동구"
  },
  {
    "name": "교촌치킨 동호",
    "address": "대구 동구 동호동 384-7",
    "phone": "053-963-8558",
    "lat": 35.8655487398463,
    "lng": 128.724116768858,
    "region": "대구광역시",
    "district": "동구"
  },
  {
    "name": "교촌치킨 방촌",
    "address": "대구 동구 방촌동 1118-121",
    "phone": "053-983-3993",
    "lat": 35.8767991987686,
    "lng": 128.669464584244,
    "region": "대구광역시",
    "district": "동구"
  },
  {
    "name": "교촌치킨 신천1호(대구)",
    "address": "대구 동구 신천동 501-5",
    "phone": "053-742-9985",
    "lat": 35.8747927863831,
    "lng": 128.617211246011,
    "region": "대구광역시",
    "district": "동구"
  },
  {
    "name": "교촌치킨 신천2호",
    "address": "대구 동구 신청동 377-12",
    "phone": "053-741-9010",
    "lat": 35.8747519927873,
    "lng": 128.629030939928,
    "region": "대구광역시",
    "district": "동구"
  },
  {
    "name": "교촌치킨 율하(대구)",
    "address": "대구 동구 율하동 1222",
    "phone": "053-964-3347",
    "lat": 35.8670090219828,
    "lng": 128.696194256813,
    "region": "대구광역시",
    "district": "동구"
  },
  {
    "name": "교촌치킨 이시아",
    "address": "대구 동구 봉무동 1543",
    "phone": "053-755-9922",
    "lat": 35.922868014121,
    "lng": 128.636770775056,
    "region": "대구광역시",
    "district": "동구"
  },
  {
    "name": "교촌치킨 지묘",
    "address": "대구 동구 지묘동 808-3",
    "phone": "053-985-1003",
    "lat": 35.9423230416732,
    "lng": 128.637469161287,
    "region": "대구광역시",
    "district": "동구"
  },
  {
    "name": "교촌치킨 지저불로",
    "address": "대구광역시 동구 지저동 761-7",
    "phone": "053-981-5770",
    "lat": 35.8933870722073,
    "lng": 128.637726324763,
    "region": "대구광역시",
    "district": "동구"
  },
  {
    "name": "교촌치킨 관음",
    "address": "대구 북구 관음동 1383-9",
    "phone": "053-326-9998",
    "lat": 35.9394974880879,
    "lng": 128.549484268465,
    "region": "대구광역시",
    "district": "북구"
  },
  {
    "name": "교촌치킨 구암",
    "address": "대구 북구 태전동 1074-6",
    "phone": "053-322-5844",
    "lat": 35.9252899343309,
    "lng": 128.548520075547,
    "region": "대구광역시",
    "district": "북구"
  },
  {
    "name": "교촌치킨 금호지구",
    "address": "대구 북구 사수동 912",
    "phone": "053-312-1990",
    "lat": 35.8970530660575,
    "lng": 128.516214676878,
    "region": "대구광역시",
    "district": "북구"
  },
  {
    "name": "교촌치킨 도남지구",
    "address": "대구 북구 국우동 592-1",
    "phone": "053-323-1991",
    "lat": 35.9506011713865,
    "lng": 128.579992108261,
    "region": "대구광역시",
    "district": "북구"
  },
  {
    "name": "교촌치킨 동서변",
    "address": "대구 북구 동변동 669-4",
    "phone": "053-958-9991",
    "lat": 35.9210195689185,
    "lng": 128.603080818582,
    "region": "대구광역시",
    "district": "북구"
  },
  {
    "name": "교촌치킨 동천3지구",
    "address": "대구 북구 동천동 906-3",
    "phone": "053-321-0900",
    "lat": 35.9428202766152,
    "lng": 128.559549239908,
    "region": "대구광역시",
    "district": "북구"
  },
  {
    "name": "교촌치킨 복현1호",
    "address": "대구 북구 복현동 426-5",
    "phone": "053-953-3399",
    "lat": 35.8955179335276,
    "lng": 128.617113137542,
    "region": "대구광역시",
    "district": "북구"
  },
  {
    "name": "교촌치킨 복현2호",
    "address": "대구 북구 복현동 134-2",
    "phone": "053-383-9970",
    "lat": 35.8995985784902,
    "lng": 128.621880882057,
    "region": "대구광역시",
    "district": "북구"
  },
  {
    "name": "교촌치킨 산격",
    "address": "대구 북구 산격동 1400-20",
    "phone": "053-383-1203",
    "lat": 35.8921055431375,
    "lng": 128.608079148413,
    "region": "대구광역시",
    "district": "북구"
  },
  {
    "name": "교촌치킨 신암대현",
    "address": "대구 북구 대현동 153-4",
    "phone": "053-952-9992",
    "lat": 35.8820540279,
    "lng": 128.61166443,
    "region": "대구광역시",
    "district": "북구"
  },
  {
    "name": "교촌치킨 연경",
    "address": "대구 북구 연경동 949-1",
    "phone": "053-982-9292",
    "lat": 35.9425135676058,
    "lng": 128.615131678294,
    "region": "대구광역시",
    "district": "북구"
  },
  {
    "name": "교촌치킨 원대노원",
    "address": "대구 북구 노원동3가 892-1",
    "phone": "053-355-3306",
    "lat": 35.8922365887989,
    "lng": 128.567916625495,
    "region": "대구광역시",
    "district": "북구"
  },
  {
    "name": "교촌치킨 읍내(대구)",
    "address": "대구 북구 읍내동 1449 202동 103호",
    "phone": "053-312-4499",
    "lat": 35.9541217402322,
    "lng": 128.55223546527,
    "region": "대구광역시",
    "district": "북구"
  },
  {
    "name": "교촌치킨 칠성고성",
    "address": "대구 북구 칠성동2가 42-9",
    "phone": "053-353-9400",
    "lat": 35.8829287433207,
    "lng": 128.591054953686,
    "region": "대구광역시",
    "district": "북구"
  },
  {
    "name": "교촌치킨 침산",
    "address": "대구 북구 침산동 457-31",
    "phone": "053-356-9995",
    "lat": 35.8901854891203,
    "lng": 128.583854153235,
    "region": "대구광역시",
    "district": "북구"
  },
  {
    "name": "교촌치킨 태전(대구)",
    "address": "대구 북구 태전동 155-35",
    "phone": "053-312-9980",
    "lat": 35.9229870783419,
    "lng": 128.544525428836,
    "region": "대구광역시",
    "district": "북구"
  },
  {
    "name": "교촌치킨 팔달매천",
    "address": "대구 북구 매천동 682",
    "phone": "053-311-9910",
    "lat": 35.9085767624143,
    "lng": 128.542545069419,
    "region": "대구광역시",
    "district": "북구"
  },
  {
    "name": "교촌치킨 학정",
    "address": "대구 북구 학정동 282-14",
    "phone": "053-321-1991",
    "lat": 35.9527280241,
    "lng": 128.565174688,
    "region": "대구광역시",
    "district": "북구"
  },
  {
    "name": "교촌치킨 내당",
    "address": "대구 서구 내당동 219-7",
    "phone": "053-522-9199",
    "lat": 35.8595340790291,
    "lng": 128.561130556309,
    "region": "대구광역시",
    "district": "서구"
  },
  {
    "name": "교촌치킨 달성비산",
    "address": "대구 서구 비산동 440-5",
    "phone": "053-551-9925",
    "lat": 35.874646902123,
    "lng": 128.570900381562,
    "region": "대구광역시",
    "district": "서구"
  },
  {
    "name": "교촌치킨 평리",
    "address": "대구광역시 서구 평리동 1680, 평리푸르지오 115동 상가 101호",
    "phone": "053-556-9989",
    "lat": 35.869350949206,
    "lng": 128.559692426292,
    "region": "대구광역시",
    "district": "서구"
  },
  {
    "name": "교촌치킨 만촌1호",
    "address": "대구 수성구 만촌동 849-2",
    "phone": "053-745-7123",
    "lat": 35.8575829630684,
    "lng": 128.648095656178,
    "region": "대구광역시",
    "district": "수성구"
  },
  {
    "name": "교촌치킨 만촌2호",
    "address": "대구 수성구 만촌1동 1326-32",
    "phone": "053-755-8592",
    "lat": 35.8718503668516,
    "lng": 128.636643946237,
    "region": "대구광역시",
    "district": "수성구"
  },
  {
    "name": "교촌치킨 범물",
    "address": "대구 수성구 범물동 1374-4",
    "phone": "053-782-6464",
    "lat": 35.8176481491213,
    "lng": 128.644140747975,
    "region": "대구광역시",
    "district": "수성구"
  },
  {
    "name": "교촌치킨 범어1호",
    "address": "대구 수성구 범어동 249-6",
    "phone": "053-742-9912",
    "lat": 35.8569479755162,
    "lng": 128.633817632901,
    "region": "대구광역시",
    "district": "수성구"
  },
  {
    "name": "교촌치킨 범어2호",
    "address": "대구 수성구 범어동 478-12",
    "phone": "053-752-1991",
    "lat": 35.8633530398012,
    "lng": 128.623807023931,
    "region": "대구광역시",
    "district": "수성구"
  },
  {
    "name": "교촌치킨 수성(대구)",
    "address": "대구 수성구 수성동4가 1022-11",
    "phone": "053-743-3993",
    "lat": 35.8606164970766,
    "lng": 128.617445671794,
    "region": "대구광역시",
    "district": "수성구"
  },
  {
    "name": "교촌치킨 시지1호",
    "address": "대구 수성구 매호동 1328-12",
    "phone": "053-792-9981",
    "lat": 35.8436059095125,
    "lng": 128.707868142271,
    "region": "대구광역시",
    "district": "수성구"
  },
  {
    "name": "교촌치킨 시지2호",
    "address": "대구 수성구 시지동 489-2",
    "phone": "053-792-7729",
    "lat": 35.8396396312022,
    "lng": 128.693701410654,
    "region": "대구광역시",
    "district": "수성구"
  },
  {
    "name": "교촌치킨 시지3호",
    "address": "대구 수성구 신매동 593-4",
    "phone": "053-791-8225",
    "lat": 35.8321846816113,
    "lng": 128.707508206977,
    "region": "대구광역시",
    "district": "수성구"
  },
  {
    "name": "교촌치킨 중동",
    "address": "대구 수성구 중동 258-3",
    "phone": "053-765-9901",
    "lat": 35.8437872749,
    "lng": 128.61229234,
    "region": "대구광역시",
    "district": "수성구"
  },
  {
    "name": "교촌치킨 지산",
    "address": "대구 수성구 지산동 1234 상가동 19호",
    "phone": "053-784-1991",
    "lat": 35.8229566258757,
    "lng": 128.629936788224,
    "region": "대구광역시",
    "district": "수성구"
  },
  {
    "name": "교촌치킨 파동",
    "address": "대구 수성구 상동 380-2",
    "phone": "053-761-5901",
    "lat": 35.8317850024249,
    "lng": 128.611433397184,
    "region": "대구광역시",
    "district": "수성구"
  },
  {
    "name": "교촌치킨 황금",
    "address": "대구 수성구 황금동 843-1",
    "phone": "053-765-6999",
    "lat": 35.843668536642,
    "lng": 128.6238384568,
    "region": "대구광역시",
    "district": "수성구"
  },
  {
    "name": "교촌치킨 남산",
    "address": "대구 중구 남산동 94-25",
    "phone": "053-255-9982",
    "lat": 35.8636837857413,
    "lng": 128.581684255208,
    "region": "대구광역시",
    "district": "중구"
  },
  {
    "name": "교촌치킨 중앙(대구)",
    "address": "대구 중구 남일동 33-9",
    "phone": "053-425-9919",
    "lat": 35.8704463127139,
    "lng": 128.593704496615,
    "region": "대구광역시",
    "district": "중구"
  },
  {
    "name": "교촌치킨 강화",
    "address": "인천 강화군 강화읍 갑곳리 199-1",
    "phone": "032-933-3244",
    "lat": 37.7432598997589,
    "lng": 126.492165018102,
    "region": "인천광역시",
    "district": "강화군"
  },
  {
    "name": "교촌치킨 계산1호",
    "address": "인천 계양구 계산동 1081-10",
    "phone": "032-555-9980",
    "lat": 37.5359477555223,
    "lng": 126.736895452652,
    "region": "인천광역시",
    "district": "계양구"
  },
  {
    "name": "교촌치킨 계산2호",
    "address": "인천 계양구 계산동 61-2",
    "phone": "032-551-5592",
    "lat": 37.5381291917917,
    "lng": 126.730831941802,
    "region": "인천광역시",
    "district": "계양구"
  },
  {
    "name": "교촌치킨 계산3호",
    "address": "인천 계양구 계산동 942-30",
    "phone": "032-553-9289",
    "lat": 37.5407855986107,
    "lng": 126.72173434191,
    "region": "인천광역시",
    "district": "계양구"
  },
  {
    "name": "교촌치킨 임학박촌",
    "address": "인천 계양구 박촌동 52-3",
    "phone": "032-553-3999",
    "lat": 37.5560944277617,
    "lng": 126.745290053727,
    "region": "인천광역시",
    "district": "계양구"
  },
  {
    "name": "교촌치킨 작전1호",
    "address": "인천 계양구 작전동 149-1",
    "phone": "032-547-8933",
    "lat": 37.5277813880987,
    "lng": 126.733806241031,
    "region": "인천광역시",
    "district": "계양구"
  },
  {
    "name": "교촌치킨 효성1호",
    "address": "인천 계양구 효성1동 21-11 현대아파트 상가동 101호, 102호, 103호",
    "phone": "032-544-6711",
    "lat": 37.5330346664793,
    "lng": 126.713218875352,
    "region": "인천광역시",
    "district": "계양구"
  },
  {
    "name": "교촌치킨 효성2호",
    "address": "인천 계양구 효성2동 273-3",
    "phone": "032-542-9244",
    "lat": 37.5263945136128,
    "lng": 126.711085793914,
    "region": "인천광역시",
    "district": "계양구"
  },
  {
    "name": "교촌치킨 관교",
    "address": "인천 남구 관교동 321-5",
    "phone": "032-441-9994",
    "lat": 37.4469910322869,
    "lng": 126.692631864538,
    "region": "인천광역시",
    "district": "남구"
  },
  {
    "name": "교촌치킨 용현2동",
    "address": "인천 남구 용현동 558-32",
    "phone": "032-889-1400",
    "lat": 37.4558843539774,
    "lng": 126.640984805935,
    "region": "인천광역시",
    "district": "남구"
  },
  {
    "name": "교촌치킨 용현5동",
    "address": "인천 남구 용현동 630-45",
    "phone": "032-888-9191",
    "lat": 37.4524426830326,
    "lng": 126.633994178275,
    "region": "인천광역시",
    "district": "남구"
  },
  {
    "name": "교촌치킨 주안1호",
    "address": "인천 남구 주안동 1523-2",
    "phone": "032-428-9592",
    "lat": 37.447861745025,
    "lng": 126.686584492423,
    "region": "인천광역시",
    "district": "남구"
  },
  {
    "name": "교촌치킨 주안2호",
    "address": "인천 남구 도화동 432-2",
    "phone": "032-863-1991",
    "lat": 37.4598770570753,
    "lng": 126.674154543699,
    "region": "인천광역시",
    "district": "남구"
  },
  {
    "name": "교촌치킨 주안3호",
    "address": "인천 남구 주안동 929-11",
    "phone": "032-427-8892",
    "lat": 37.4628373039759,
    "lng": 126.690092599556,
    "region": "인천광역시",
    "district": "남구"
  },
  {
    "name": "교촌치킨 학익1호",
    "address": "인천 남구 학익동 293-37",
    "phone": "032-863-6363",
    "lat": 37.4446734899366,
    "lng": 126.666012651884,
    "region": "인천광역시",
    "district": "남구"
  },
  {
    "name": "교촌치킨 간석1호",
    "address": "인천 남동구 구월동 70-80",
    "phone": "032-432-6765",
    "lat": 37.4580205809021,
    "lng": 126.71466296255,
    "region": "인천광역시",
    "district": "남동구"
  },
  {
    "name": "교촌치킨 구월",
    "address": "인천 남동구 구월동 1133-13",
    "phone": "032-433-3232",
    "lat": 37.45369862637,
    "lng": 126.704114319897,
    "region": "인천광역시",
    "district": "남동구"
  },
  {
    "name": "교촌치킨 구월아시아드",
    "address": "인천 남동구 구월동 1517-2",
    "phone": "032-214-1991",
    "lat": 37.4431359115175,
    "lng": 126.716659654274,
    "region": "인천광역시",
    "district": "남동구"
  },
  {
    "name": "교촌치킨 논현1호(인천)",
    "address": "인천 남동구 논현동 620-8",
    "phone": "032-434-0096",
    "lat": 37.4020299517569,
    "lng": 126.721538970953,
    "region": "인천광역시",
    "district": "남동구"
  },
  {
    "name": "교촌치킨 논현에코메트로",
    "address": "인천 남동구 논현동 752-1",
    "phone": "032-437-1991",
    "lat": 37.398462318052,
    "lng": 126.734241720453,
    "region": "인천광역시",
    "district": "남동구"
  },
  {
    "name": "교촌치킨 만수1호",
    "address": "인천 남동구 만수동 1045 103호",
    "phone": "032-461-7600",
    "lat": 37.4412800404646,
    "lng": 126.736499544822,
    "region": "인천광역시",
    "district": "남동구"
  },
  {
    "name": "교촌치킨 만수2호",
    "address": "인천 남동구 만수동 1118-2",
    "phone": "032-469-1848",
    "lat": 37.4614045032595,
    "lng": 126.733056092747,
    "region": "인천광역시",
    "district": "남동구"
  },
  {
    "name": "교촌치킨 만수3호",
    "address": "인천 남동구 간석3동 921-14",
    "phone": "032-461-9999",
    "lat": 37.4611238678518,
    "lng": 126.720786476543,
    "region": "인천광역시",
    "district": "남동구"
  },
  {
    "name": "교촌치킨 만수역",
    "address": "인천 남동구 만수동 886-35",
    "phone": "032-471-8292",
    "lat": 37.4554746858186,
    "lng": 126.728664104437,
    "region": "인천광역시",
    "district": "남동구"
  },
  {
    "name": "교촌치킨 서창",
    "address": "인천 남동구 서창동 706",
    "phone": "032-467-1991",
    "lat": 37.4229175552727,
    "lng": 126.749854082479,
    "region": "인천광역시",
    "district": "남동구"
  },
  {
    "name": "교촌치킨 소래포구",
    "address": "인천 남동구 논현동 671-3",
    "phone": "032-439-0333",
    "lat": 37.4014614533441,
    "lng": 126.734484117374,
    "region": "인천광역시",
    "district": "남동구"
  },
  {
    "name": "교촌치킨 송현(인천)",
    "address": "인천 동구 송림동 234-1",
    "phone": "032-765-8338",
    "lat": 37.4735506221066,
    "lng": 126.637223962173,
    "region": "인천광역시",
    "district": "동구"
  },
  {
    "name": "교촌치킨 갈산",
    "address": "인천 부평구 갈산동 55-8",
    "phone": "032-525-1991",
    "lat": 37.5174439917981,
    "lng": 126.731201942208,
    "region": "인천광역시",
    "district": "부평구"
  },
  {
    "name": "교촌치킨 부개3동",
    "address": "인천 부평구 부개동 12-176",
    "phone": "032-521-9982",
    "lat": 37.5037691926652,
    "lng": 126.735986037102,
    "region": "인천광역시",
    "district": "부평구"
  },
  {
    "name": "교촌치킨 부평1호",
    "address": "인천 부평구 부평동 451-30",
    "phone": "032-525-9982",
    "lat": 37.5017641267726,
    "lng": 126.721327333149,
    "region": "인천광역시",
    "district": "부평구"
  },
  {
    "name": "교촌치킨 부평2호",
    "address": "인천 부평구 부평동 889-8",
    "phone": "032-518-9800",
    "lat": 37.5047820378244,
    "lng": 126.724980442211,
    "region": "인천광역시",
    "district": "부평구"
  },
  {
    "name": "교촌치킨 부평역",
    "address": "인천 부평구 부평동 192-14",
    "phone": "032-503-1991",
    "lat": 37.4938480454086,
    "lng": 126.725697663287,
    "region": "인천광역시",
    "district": "부평구"
  },
  {
    "name": "교촌치킨 산곡1호",
    "address": "인천 부평구 산곡동 369-270",
    "phone": "032-508-9001",
    "lat": 37.4919274928213,
    "lng": 126.70448825993,
    "region": "인천광역시",
    "district": "부평구"
  },
  {
    "name": "교촌치킨 산곡2호",
    "address": "인천 부평구 청천동 259-15",
    "phone": "032-244-2626",
    "lat": 37.5063702489468,
    "lng": 126.714877939937,
    "region": "인천광역시",
    "district": "부평구"
  },
  {
    "name": "교촌치킨 산곡3호",
    "address": "인천 부평구 산곡2동 251-1",
    "phone": "032-508-8892",
    "lat": 37.5002311246583,
    "lng": 126.70304418089,
    "region": "인천광역시",
    "district": "부평구"
  },
  {
    "name": "교촌치킨 삼산(부평)",
    "address": "인천 부평구 삼산동 433-1",
    "phone": "050-8389-8917",
    "lat": 37.5160146026298,
    "lng": 126.733929483948,
    "region": "인천광역시",
    "district": "부평구"
  },
  {
    "name": "교촌치킨 십정1호",
    "address": "인천 부평구 십정동 440-11",
    "phone": "032-437-8989",
    "lat": 37.4691984323955,
    "lng": 126.699658360108,
    "region": "인천광역시",
    "district": "부평구"
  },
  {
    "name": "교촌치킨 청천",
    "address": "인천 부평구 청천동 14-8",
    "phone": "032-501-1991",
    "lat": 37.5197235901193,
    "lng": 126.704201190462,
    "region": "인천광역시",
    "district": "부평구"
  },
  {
    "name": "교촌치킨 가정루원시티",
    "address": "인천 서구 가정동 614-14",
    "phone": "032-564-1990",
    "lat": 37.5279223327133,
    "lng": 126.671026884571,
    "region": "인천광역시",
    "district": "서구"
  },
  {
    "name": "교촌치킨 가좌",
    "address": "인천 서구 가좌동 30-78",
    "phone": "032-579-9989",
    "lat": 37.4940773152616,
    "lng": 126.684297223195,
    "region": "인천광역시",
    "district": "서구"
  },
  {
    "name": "교촌치킨 검단1호",
    "address": "인천 서구 왕길동 641-9",
    "phone": "032-561-9772",
    "lat": 37.6012349561822,
    "lng": 126.654703784537,
    "region": "인천광역시",
    "district": "서구"
  },
  {
    "name": "교촌치킨 검단신도시1호",
    "address": "인천 서구 이음5로 34",
    "phone": "032-298-9292",
    "lat": 37.5938638621639,
    "lng": 126.711506465771,
    "region": "인천광역시",
    "district": "서구"
  },
  {
    "name": "교촌치킨 검암",
    "address": "인천 서구 검암동 626-2번지 태건프라자 105호",
    "phone": "032-568-2313",
    "lat": 37.5620625394521,
    "lng": 126.673511724473,
    "region": "인천광역시",
    "district": "서구"
  },
  {
    "name": "교촌치킨 당하",
    "address": "인천 서구 마전동 585",
    "phone": "032-568-9949",
    "lat": 37.5951072631077,
    "lng": 126.672212428641,
    "region": "인천광역시",
    "district": "서구"
  },
  {
    "name": "교촌치킨 불로원당",
    "address": "인천 서구 당하동 1033-3 조이빌 103",
    "phone": "032-564-9994",
    "lat": 37.5930321099812,
    "lng": 126.699568794772,
    "region": "인천광역시",
    "district": "서구"
  },
  {
    "name": "교촌치킨 석남가정",
    "address": "인천 서구 가정동 505-4",
    "phone": "032-578-9988",
    "lat": 37.5177010361996,
    "lng": 126.673492440301,
    "region": "인천광역시",
    "district": "서구"
  },
  {
    "name": "교촌치킨 연희1호(인천)",
    "address": "인천 서구 심곡동 257-15",
    "phone": "032-567-0092",
    "lat": 37.5420994729272,
    "lng": 126.673281969389,
    "region": "인천광역시",
    "district": "서구"
  },
  {
    "name": "교촌치킨 청라호수공원",
    "address": "인천 서구 청라동 152-15",
    "phone": "032-568-1991",
    "lat": 37.5325725135229,
    "lng": 126.636938271354,
    "region": "인천광역시",
    "district": "서구"
  },
  {
    "name": "교촌치킨 동춘",
    "address": "인천 연수구 동춘동 934-1",
    "phone": "032-815-9114",
    "lat": 37.4074637361459,
    "lng": 126.671911237271,
    "region": "인천광역시",
    "district": "연수구"
  },
  {
    "name": "교촌치킨 선학연수3호",
    "address": "인천 연수구 선학동 406-2",
    "phone": "032-815-3993",
    "lat": 37.4270106319065,
    "lng": 126.698403205933,
    "region": "인천광역시",
    "district": "연수구"
  },
  {
    "name": "교촌치킨 송도1호",
    "address": "인천 연수구 송도동 21-59  302동 102호",
    "phone": "032-858-8883",
    "lat": 37.396498041153,
    "lng": 126.649810543946,
    "region": "인천광역시",
    "district": "연수구"
  },
  {
    "name": "교촌치킨 송도8공구",
    "address": "인천 연수구 송도동 316",
    "phone": "032-858-1991",
    "lat": 37.410352365805,
    "lng": 126.626616559837,
    "region": "인천광역시",
    "district": "연수구"
  },
  {
    "name": "교촌치킨 송도드림시티",
    "address": "인천 연수구 송도동 3-2",
    "phone": "032-505-1991",
    "lat": 37.3949456709326,
    "lng": 126.650143007649,
    "region": "인천광역시",
    "district": "연수구"
  },
  {
    "name": "교촌치킨 송도캠퍼스타운",
    "address": "인천 연수구 송도동 155(송도아메리칸타운파크)",
    "phone": "032-811-2019",
    "lat": 37.3850838575804,
    "lng": 126.662171507605,
    "region": "인천광역시",
    "district": "연수구"
  },
  {
    "name": "교촌치킨 연수중앙",
    "address": "인천 연수구 연수동 626",
    "phone": "032-821-9945",
    "lat": 37.4131530330122,
    "lng": 126.679237760046,
    "region": "인천광역시",
    "district": "연수구"
  },
  {
    "name": "교촌치킨 옥련",
    "address": "인천 연수구 옥련동 194-4",
    "phone": null,
    "lat": 37.4238908062032,
    "lng": 126.644409360093,
    "region": "인천광역시",
    "district": "연수구"
  },
  {
    "name": "교촌치킨 공항신도시",
    "address": "인천 중구 운서동 2801-3",
    "phone": "032-746-5810",
    "lat": 37.4944525361425,
    "lng": 126.49126727057,
    "region": "인천광역시",
    "district": "중구"
  },
  {
    "name": "교촌치킨 영종하늘도시",
    "address": "인천 중구 중산동 1884-4",
    "phone": "032-751-8933",
    "lat": 37.4888602120272,
    "lng": 126.56179134044,
    "region": "인천광역시",
    "district": "중구"
  },
  {
    "name": "교촌치킨 운서",
    "address": "인천 중구 운서동 2913-3",
    "phone": "032-747-1997",
    "lat": 37.4828825888815,
    "lng": 126.510407533743,
    "region": "인천광역시",
    "district": "중구"
  },
  {
    "name": "교촌치킨 선운지구",
    "address": "광주 광산구 선암동 777",
    "phone": "062-945-1991",
    "lat": 35.1489515750231,
    "lng": 126.770364114504,
    "region": "광주광역시",
    "district": "광산구"
  },
  {
    "name": "교촌치킨 소촌우산",
    "address": "광주 광산구 소촌동 244-6",
    "phone": "062-942-1200",
    "lat": 35.1574943360062,
    "lng": 126.795335409392,
    "region": "광주광역시",
    "district": "광산구"
  },
  {
    "name": "교촌치킨 송정1호",
    "address": "광주 광산구 도산동 1143",
    "phone": "062-944-9992",
    "lat": 35.1291963138138,
    "lng": 126.791737341295,
    "region": "광주광역시",
    "district": "광산구"
  },
  {
    "name": "교촌치킨 수완1호",
    "address": "광주 광산구 장덕동 1479번지 1층",
    "phone": "062-956-1991",
    "lat": 35.1914333604914,
    "lng": 126.81395135788,
    "region": "광주광역시",
    "district": "광산구"
  },
  {
    "name": "교촌치킨 수완2호",
    "address": "광주 광산구 수완동 1126",
    "phone": "062-961-9299",
    "lat": 35.1913089726802,
    "lng": 126.828482358228,
    "region": "광주광역시",
    "district": "광산구"
  },
  {
    "name": "교촌치킨 신가",
    "address": "광주 광산구 신가동 974-6",
    "phone": "062-956-6662",
    "lat": 35.1854156079163,
    "lng": 126.83355623032,
    "region": "광주광역시",
    "district": "광산구"
  },
  {
    "name": "교촌치킨 신창",
    "address": "광주 광산구 신창동 1236-1",
    "phone": "062-962-9282",
    "lat": 35.1944244626802,
    "lng": 126.838079327087,
    "region": "광주광역시",
    "district": "광산구"
  },
  {
    "name": "교촌치킨 운남1호",
    "address": "광주 광산구 월곡2동 683-1",
    "phone": "062-952-9930",
    "lat": 35.1761713883576,
    "lng": 126.811465614684,
    "region": "광주광역시",
    "district": "광산구"
  },
  {
    "name": "교촌치킨 첨단1호",
    "address": "광주 광산구 산월동 884-2",
    "phone": "062-973-8892",
    "lat": 35.2101022192983,
    "lng": 126.850410057413,
    "region": "광주광역시",
    "district": "광산구"
  },
  {
    "name": "교촌치킨 첨단2호",
    "address": "광주 광산구 쌍암동 655-4번지",
    "phone": "062-973-1292",
    "lat": 35.2204936502924,
    "lng": 126.842407927387,
    "region": "광주광역시",
    "district": "광산구"
  },
  {
    "name": "교촌치킨 첨단중앙",
    "address": "광주 광산구 월계동 887-3",
    "phone": "062-971-8585",
    "lat": 35.2150184349404,
    "lng": 126.844807117941,
    "region": "광주광역시",
    "district": "광산구"
  },
  {
    "name": "교촌치킨 하남1호",
    "address": "광주 광산구 산정동 977-13",
    "phone": "062-951-9944",
    "lat": 35.1667669401863,
    "lng": 126.803711486555,
    "region": "광주광역시",
    "district": "광산구"
  },
  {
    "name": "교촌치킨 하남2지구",
    "address": "광주 광산구 산정동 1039",
    "phone": "062-962-1122",
    "lat": 35.1763535378151,
    "lng": 126.801361129536,
    "region": "광주광역시",
    "district": "광산구"
  },
  {
    "name": "교촌치킨 노대효천",
    "address": "광주 남구 노대동 819",
    "phone": "062-651-1991",
    "lat": 35.1023588095073,
    "lng": 126.901418994381,
    "region": "광주광역시",
    "district": "남구"
  },
  {
    "name": "교촌치킨 백운",
    "address": "광주 남구 서동 71-15",
    "phone": "062-652-9989",
    "lat": 35.1431870563207,
    "lng": 126.905645712351,
    "region": "광주광역시",
    "district": "남구"
  },
  {
    "name": "교촌치킨 봉선1호",
    "address": "광주 남구 주월1동 1253-4",
    "phone": "062-654-9994",
    "lat": 35.1331422605031,
    "lng": 126.910379701777,
    "region": "광주광역시",
    "district": "남구"
  },
  {
    "name": "교촌치킨 봉선2호",
    "address": "광주 남구 봉선동 164-1",
    "phone": "062-655-9945",
    "lat": 35.1262843472784,
    "lng": 126.915687950253,
    "region": "광주광역시",
    "district": "남구"
  },
  {
    "name": "교촌치킨 주월",
    "address": "광주 남구 월산동 1034-17",
    "phone": "062-676-9555",
    "lat": 35.1386157877678,
    "lng": 126.893146324106,
    "region": "광주광역시",
    "district": "남구"
  },
  {
    "name": "교촌치킨 진월",
    "address": "광주 남구 진월동 426-1",
    "phone": "062-672-9292",
    "lat": 35.1158822984905,
    "lng": 126.897521810625,
    "region": "광주광역시",
    "district": "남구"
  },
  {
    "name": "교촌치킨 계림",
    "address": "광주 동구 대인동 319-6",
    "phone": "062-222-8599",
    "lat": 35.1562228100386,
    "lng": 126.914007718046,
    "region": "광주광역시",
    "district": "동구"
  },
  {
    "name": "교촌치킨 조선대",
    "address": "광주광역시 동구 지산동 476",
    "phone": "062-234-9933",
    "lat": 35.1458214593666,
    "lng": 126.930736290836,
    "region": "광주광역시",
    "district": "동구"
  },
  {
    "name": "교촌치킨 학동",
    "address": "광주 동구 학동 735-16",
    "phone": "062-236-0082",
    "lat": 35.1327586231226,
    "lng": 126.930072791792,
    "region": "광주광역시",
    "district": "동구"
  },
  {
    "name": "교촌치킨 두암1호",
    "address": "광주 북구 두암2동 826-50",
    "phone": "062-266-9997",
    "lat": 35.1749008023534,
    "lng": 126.933229048735,
    "region": "광주광역시",
    "district": "북구"
  },
  {
    "name": "교촌치킨 매곡",
    "address": "광주 북구 매곡동 334-5",
    "phone": "062-574-0207",
    "lat": 35.1889025992801,
    "lng": 126.890442681828,
    "region": "광주광역시",
    "district": "북구"
  },
  {
    "name": "교촌치킨 문흥1호",
    "address": "광주 북구 문흥동 980-15",
    "phone": "062-269-9990",
    "lat": 35.1887846499135,
    "lng": 126.925922849303,
    "region": "광주광역시",
    "district": "북구"
  },
  {
    "name": "교촌치킨 양산1호",
    "address": "광주 북구 양산동 877-1 1층",
    "phone": "062-576-9296",
    "lat": 35.2102210588863,
    "lng": 126.879364032923,
    "region": "광주광역시",
    "district": "북구"
  },
  {
    "name": "교촌치킨 연제",
    "address": "광주 북구 연제동 41-3",
    "phone": "062-571-8292",
    "lat": 35.19747765061,
    "lng": 126.870549953642,
    "region": "광주광역시",
    "district": "북구"
  },
  {
    "name": "교촌치킨 오치",
    "address": "광주 북구 오치동 785-4",
    "phone": "062-262-1991",
    "lat": 35.1868251173261,
    "lng": 126.898572918504,
    "region": "광주광역시",
    "district": "북구"
  },
  {
    "name": "교촌치킨 운암1호",
    "address": "광주 북구 운암3동 1051-5",
    "phone": "062-529-9993",
    "lat": 35.1827732131168,
    "lng": 126.872492364609,
    "region": "광주광역시",
    "district": "북구"
  },