[
  {
    "name": "스타벅스 역삼이마트",
    "address": "서울특별시 강남구 역삼로 310 (역삼동)",
    "phone": "1522-3232",
    "lat": 37.499367,
    "lng": 127.048425,
    "region": "서울특별시",
    "district": "강남구"
  },
  {
    "name": "스타벅스 강남세곡DT",
    "address": "서울특별시 강남구 헌릉로 727 (세곡동)",
    "phone": "1522-3232",
    "lat": 37.466993809277,
    "lng": 127.118330806807,
    "region": "서울특별시",
    "district": "강남구"
  },
  {
    "name": "스타벅스 케이스퀘어강남",
    "address": "서울특별시 강남구 강남대로94길 10 (역삼동)",
    "phone": "1522-3232",
    "lat": 37.4991914625768,
    "lng": 127.028204360257,
    "region": "서울특별시",
    "district": "강남구"
  },
  {
    "name": "스타벅스 강남청담빌딩",
    "address": "서울특별시 강남구 선릉로 704 (청담동)",
    "phone": "1522-3232",
    "lat": 37.517887,
    "lng": 127.041375,
    "region": "서울특별시",
    "district": "강남구"
  },
  {
    "name": "스타벅스 압구정현대아파트",
    "address": "서울특별시 강남구 논현로175길 38 (신사동)",
    "phone": "1522-3232",
    "lat": 37.52521971236768,
    "lng": 127.0256601858147,
    "region": "서울특별시",
    "district": "강남구"
  },
  {
    "name": "스타벅스 청담역",
    "address": "서울특별시 강남구 삼성로 709 (청담동)",
    "phone": "1522-3232",
    "lat": 37.5194407323478,
    "lng": 127.049552661542,
    "region": "서울특별시",
    "district": "강남구"
  },
  {
    "name": "스타벅스 압구정역사3번출구",
    "address": "서울특별시 강남구 논현로 854 (신사동)",
    "phone": "1522-3232",
    "lat": 37.52575281715033,
    "lng": 127.02886190444627,
    "region": "서울특별시",
    "district": "강남구"
  },
  {
    "name": "스타벅스 리저브도산",
    "address": "서울특별시 강남구 선릉로155길 23 (신사동)",
    "phone": "1522-3232",
    "lat": 37.525547584913184,
    "lng": 127.03775087135216,
    "region": "서울특별시",
    "district": "강남구"
  },
  {
    "name": "스타벅스 삼성동",
    "address": "서울특별시 강남구 영동대로96길 12 (삼성동)",
    "phone": "1522-3232",
    "lat": 37.510843366121534,
    "lng": 127.06363342044263,
    "region": "서울특별시",
    "district": "강남구"
  },
  {
    "name": "스타벅스 강남논현",
    "address": "서울특별시 강남구 강남대로 512 (논현동)",
    "phone": "1522-3232",
    "lat": 37.5078978596254,
    "lng": 127.023338614644,
    "region": "서울특별시",
    "district": "강남구"
  },
  {
    "name": "스타벅스 테헤란로아남타워",
    "address": "서울특별시 강남구 테헤란로 311 (역삼동)",
    "phone": "1522-3232",
    "lat": 37.50383,
    "lng": 127.04487,
    "region": "서울특별시",
    "district": "강남구"
  },
  {
    "name": "스타벅스 삼성역",
    "address": "서울특별시 강남구 테헤란로 620 (대치동)",
    "phone": "1522-3232",
    "lat": 37.509206962541256,
    "lng": 127.06560851480327,
    "region": "서울특별시",
    "district": "강남구"
  },
  {
    "name": "스타벅스 강남역신분당역사",
    "address": "서울특별시 강남구 강남대로 396 (역삼동)",
    "phone": "1522-3232",
    "lat": 37.4970572543978,
    "lng": 127.028180714381,
    "region": "서울특별시",
    "district": "강남구"
  },
  {
    "name": "스타벅스 강남파이낸스센터",
    "address": "서울특별시 강남구 테헤란로 152 (역삼동)",
    "phone": "1522-3232",
    "lat": 37.49993577,
    "lng": 127.03684778,
    "region": "서울특별시",
    "district": "강남구"
  },
  {
    "name": "스타벅스 신논현역3번출구",
    "address": "서울특별시 강남구 강남대로 488 (논현동)",
    "phone": "1522-3232",
    "lat": 37.5058769838995,
    "lng": 127.02428948306,
    "region": "서울특별시",
    "district": "강남구"
  },
  {
    "name": "스타벅스 한티역8번출구",
    "address": "서울특별시 강남구 도곡로 331 (역삼동)",
    "phone": "1522-3232",
    "lat": 37.4964928018315,
    "lng": 127.052199273657,
    "region": "서울특별시",
    "district": "강남구"
  },
  {
    "name": "스타벅스 언주역",
    "address": "서울특별시 강남구 봉은사로 222 (역삼동)",
    "phone": "1522-3232",
    "lat": 37.507975,
    "lng": 127.036478,
    "region": "서울특별시",
    "district": "강남구"
  },
  {
    "name": "스타벅스 대치삼성",
    "address": "서울특별시 강남구 영동대로 237 (대치동)",
    "phone": "1522-3232",
    "lat": 37.500313,
    "lng": 127.066961,
    "region": "서울특별시",
    "district": "강남구"
  },
  {
    "name": "스타벅스 강남세곡",
    "address": "서울특별시 강남구 헌릉로569길 18 (세곡동)",
    "phone": "1522-3232",
    "lat": 37.467274319644,
    "lng": 127.099929726,
    "region": "서울특별시",
    "district": "강남구"
  },
  {
    "name": "스타벅스 도산사거리",
    "address": "서울특별시 강남구 언주로 727 (논현동)",
    "phone": "1522-3232",
    "lat": 37.51966,
    "lng": 127.0341,
    "region": "서울특별시",
    "district": "강남구"
  },
  {
    "name": "스타벅스 센터필드R",
    "address": "서울특별시 강남구 테헤란로 231 (역삼동)",
    "phone": "1522-3232",
    "lat": 37.50369465391196,
    "lng": 127.04172081609173,
    "region": "서울특별시",
    "district": "강남구"
  },
  {
    "name": "스타벅스 강남차여성병원",
    "address": "서울특별시 강남구 봉은사로 156 (역삼동)",
    "phone": "1522-3232",
    "lat": 37.5064031867752,
    "lng": 127.031811320915,
    "region": "서울특별시",
    "district": "강남구"
  },
  {
    "name": "스타벅스 코엑스아셈타워",
    "address": "서울특별시 강남구 영동대로 517 (삼성동)",
    "phone": "1522-3232",
    "lat": 37.513019,
    "lng": 127.059838,
    "region": "서울특별시",
    "district": "강남구"
  },
  {
    "name": "스타벅스 수서역사거리",
    "address": "서울특별시 강남구 광평로 280 (수서동)",
    "phone": "1522-3232",
    "lat": 37.487400776036274,
    "lng": 127.10292252273776,
    "region": "서울특별시",
    "district": "강남구"
  },
  {
    "name": "스타벅스 개포동",
    "address": "서울특별시 강남구 선릉로 34 (개포동)",
    "phone": "1522-3232",
    "lat": 37.4828551359882,
    "lng": 127.0607152444621,
    "region": "서울특별시",
    "district": "강남구"
  },
  {
    "name": "스타벅스 대치한티",
    "address": "서울특별시 강남구 선릉로 324 (대치동)",
    "phone": "1522-3232",
    "lat": 37.4984818,
    "lng": 127.052066,
    "region": "서울특별시",
    "district": "강남구"
  },
  {
    "name": "스타벅스 강남자곡",
    "address": "서울특별시 강남구 자곡로 172 (자곡동) 107~109호",
    "phone": "1522-3232",
    "lat": 37.4730637068202,
    "lng": 127.10244727289,
    "region": "서울특별시",
    "district": "강남구"
  },
  {
    "name": "스타벅스 청담역6번출구",
    "address": "서울특별시 강남구 삼성로 634 (삼성동)",
    "phone": "1522-3232",
    "lat": 37.516602079007875,
    "lng": 127.0517527875551,
    "region": "서울특별시",
    "district": "강남구"
  },
  {
    "name": "스타벅스 호림아트센터",
    "address": "서울특별시 강남구 도산대로 317 (신사동)",
    "phone": "1522-3232",
    "lat": 37.522514,
    "lng": 127.035977,
    "region": "서울특별시",
    "district": "강남구"
  },
  {
    "name": "스타벅스 매봉역",
    "address": "서울특별시 강남구 남부순환로 2736 (도곡동)",
    "phone": "1522-3232",
    "lat": 37.4859095,
    "lng": 127.0452879,
    "region": "서울특별시",
    "district": "강남구"
  },
  {
    "name": "스타벅스 도산가로수길",
    "address": "서울특별시 강남구 도산대로 134, 2층 (논현동)",
    "phone": "1522-3232",
    "lat": 37.51736229999999,
    "lng": 127.02329570000006,
    "region": "서울특별시",
    "district": "강남구"
  },
  {
    "name": "스타벅스 논현힐탑",
    "address": "서울특별시 강남구 논현로 648 (논현동)",
    "phone": "1522-3232",
    "lat": 37.511685,
    "lng": 127.032187,
    "region": "서울특별시",
    "district": "강남구"
  },
  {
    "name": "스타벅스 선릉로",
    "address": "서울특별시 강남구 선릉로93길 22, 대흥빌딩 1층 (역삼동)",
    "phone": "1522-3232",
    "lat": 37.50498118534617,
    "lng": 127.0468080752464,
    "region": "서울특별시",
    "district": "강남구"
  },
  {
    "name": "스타벅스 포스코",
    "address": "서울특별시 강남구 삼성로86길 7, 1층 (대치동)",
    "phone": "1522-3232",
    "lat": 37.50576457783876,
    "lng": 127.05804488086115,
    "region": "서울특별시",
    "district": "강남구"
  },
  {
    "name": "스타벅스 르네상스사거리",
    "address": "서울특별시 강남구 테헤란로 306 (역삼동)",
    "phone": "1522-3232",
    "lat": 37.50268239475304,
    "lng": 127.04414328446828,
    "region": "서울특별시",
    "district": "강남구"
  },
  {
    "name": "스타벅스 압구정로데오역",
    "address": "서울특별시 강남구 선릉로 836, 삼원빌딩 1,2층 (청담동)",
    "phone": "1522-3232",
    "lat": 37.526549,
    "lng": 127.040437,
    "region": "서울특별시",
    "district": "강남구"
  },
  {
    "name": "스타벅스 강남비젼타워",
    "address": "서울특별시 강남구 테헤란로2길 27, 1층 101호 (역삼동)",
    "phone": "1522-3232",
    "lat": 37.4964557,
    "lng": 127.02968850000002,
    "region": "서울특별시",
    "district": "강남구"
  },
  {
    "name": "스타벅스 아크로힐스논현",
    "address": "서울특별시 강남구 봉은사로 304, 금강빌딩 1-2층 (역삼동)",
    "phone": "1522-3232",
    "lat": 37.509013311862645,
    "lng": 127.0403523996554,
    "region": "서울특별시",
    "district": "강남구"
  },
  {
    "name": "스타벅스 신압구정",
    "address": "서울특별시 강남구 언주로174길 29 (신사동)",
    "phone": "1522-3232",
    "lat": 37.528115,
    "lng": 127.036441,
    "region": "서울특별시",
    "district": "강남구"
  },
  {
    "name": "스타벅스 역삼럭키",
    "address": "서울특별시 강남구 도곡로 183 (역삼동)",
    "phone": "1522-3232",
    "lat": 37.492209,
    "lng": 127.039389,
    "region": "서울특별시",
    "district": "강남구"
  },
  {
    "name": "스타벅스 코엑스사거리",
    "address": "서울특별시 강남구 영동대로 616 (삼성동)",
    "phone": "1522-3232",
    "lat": 37.515351,
    "lng": 127.060109,
    "region": "서울특별시",
    "district": "강남구"
  },
  {
    "name": "스타벅스 선릉역",
    "address": "서울특별시 강남구 테헤란로 334, LG화재 빌딩 (역삼동)",
    "phone": "1522-3232",
    "lat": 37.50393894,
    "lng": 127.0485135,
    "region": "서울특별시",
    "district": "강남구"
  },
  {
    "name": "스타벅스 압구정미소",
    "address": "서울특별시 강남구 논현로 841 (신사동)",
    "phone": "1522-3232",
    "lat": 37.523912710310015,
    "lng": 127.02807214378778,
    "region": "서울특별시",
    "district": "강남구"
  },
  {
    "name": "스타벅스 GS타워",
    "address": "서울특별시 강남구 논현로 508 (역삼동)",
    "phone": "1522-3232",
    "lat": 37.5018592,
    "lng": 127.03727759999992,
    "region": "서울특별시",
    "district": "강남구"
  },
  {
    "name": "스타벅스 삼성현대힐",
    "address": "서울특별시 강남구 삼성로 605 (삼성동)",
    "phone": "1522-3232",
    "lat": 37.51350444312708,
    "lng": 127.05273753314826,
    "region": "서울특별시",
    "district": "강남구"
  },
  {
    "name": "스타벅스 선정릉역",
    "address": "서울특별시 강남구 봉은사로 407 (삼성동) 에프오빌딩",
    "phone": "1522-3232",
    "lat": 37.51075489999999,
    "lng": 127.04455970000004,
    "region": "서울특별시",
    "district": "강남구"
  },
  {
    "name": "스타벅스 학여울역",
    "address": "서울특별시 강남구 영동대로 215 (대치동)",
    "phone": "1522-3232",
    "lat": 37.49803646,
    "lng": 127.0684943,
    "region": "서울특별시",
    "district": "강남구"
  },
  {
    "name": "스타벅스 아크플레이스",
    "address": "서울특별시 강남구 테헤란로 142 (역삼동)",
    "phone": "1522-3232",
    "lat": 37.49971982,
    "lng": 127.0349084,
    "region": "서울특별시",
    "district": "강남구"
  },
  {
    "name": "스타벅스 포이",
    "address": "서울특별시 강남구 논현로 88 (개포동)",
    "phone": "1522-3232",
    "lat": 37.47781106,
    "lng": 127.0451411,
    "region": "서울특별시",
    "district": "강남구"
  },
  {
    "name": "스타벅스 대치역",
    "address": "서울특별시 강남구 남부순환로 2936 (대치동) 107호",
    "phone": "1522-3232",
    "lat": 37.493554,
    "lng": 127.061874,
    "region": "서울특별시",
    "district": "강남구"
  },
  {
    "name": "스타벅스 강남구청역",
    "address": "서울특별시 강남구 선릉로 669, 웰빙센터 1층 (논현동)",
    "phone": "1522-3232",
    "lat": 37.5165849,
    "lng": 127.04124330000002,
    "region": "서울특별시",
    "district": "강남구"
  },
  {
    "name": "스타벅스 큰길타워",
    "address": "서울특별시 강남구 테헤란로 223, 큰길타워빌딩 (역삼동)",
    "phone": "1522-3232",
    "lat": 37.50236693,
    "lng": 127.0407,
    "region": "서울특별시",
    "district": "강남구"
  },
  {
    "name": "스타벅스 구역삼사거리",
    "address": "서울특별시 강남구 논현로 401 (역삼동)",
    "phone": "1522-3232",
    "lat": 37.495890648099504,
    "lng": 127.03890917851653,
    "region": "서울특별시",
    "district": "강남구"
  },
  {
    "name": "스타벅스 압구정로",
    "address": "서울특별시 강남구 압구정로42길 32 (신사동)",
    "phone": "1522-3232",
    "lat": 37.52680046,
    "lng": 127.0347174,
    "region": "서울특별시",
    "district": "강남구"
  },
  {
    "name": "스타벅스 압구정역",
    "address": "서울특별시 강남구 압구정로 170, 관영빌딩 1층 지하1층 (신사동)",
    "phone": "1522-3232",
    "lat": 37.52674095,
    "lng": 127.0281105,
    "region": "서울특별시",
    "district": "강남구"
  },
  {
    "name": "스타벅스 선릉세화빌딩",
    "address": "서울특별시 강남구 테헤란로64길 18 (대치동) 1층",
    "phone": "1522-3232",
    "lat": 37.50377562,
    "lng": 127.051196,
    "region": "서울특별시",
    "district": "강남구"
  },
  {
    "name": "스타벅스 삼성",
    "address": "서울특별시 강남구 테헤란로 443, 애플트리타워 1층 (삼성동)",
    "phone": "1522-3232",
    "lat": 37.50689645929321,
    "lng": 127.05571872453659,
    "region": "서울특별시",
    "district": "강남구"
  },
  {
    "name": "스타벅스 신세계푸드마켓도곡",
    "address": "서울특별시 강남구 언주로30길 57, 타워팰리스Ⅱ F 지하1층 (도곡동)",
    "phone": "1522-3232",
    "lat": 37.490102006982106,
    "lng": 127.05507020231974,
    "region": "서울특별시",
    "district": "강남구"
  },
  {
    "name": "스타벅스 대치",
    "address": "서울특별시 강남구 도곡로 511 (대치동)",
    "phone": "1522-3232",
    "lat": 37.49966175,
    "lng": 127.0622171,
    "region": "서울특별시",
    "district": "강남구"
  },
  {
    "name": "스타벅스 학동역",
    "address": "서울특별시 강남구 논현로 704 (논현동)",
    "phone": "1522-3232",
    "lat": 37.51464884,
    "lng": 127.0307302,
    "region": "서울특별시",
    "district": "강남구"
  },
  {
    "name": "스타벅스 삼성교",
    "address": "서울특별시 강남구 영동대로86길 12, 동남유화빌딩 1층",
    "phone": "1522-3232",
    "lat": 37.507794,
    "lng": 127.06517,
    "region": "서울특별시",
    "district": "강남구"
  },
  {
    "name": "스타벅스 청담",
    "address": "서울특별시 강남구 도산대로 532, 인희빌딩 1층 (청담동)",
    "phone": "1522-3232",
    "lat": 37.5243631,
    "lng": 127.05155990000003,
    "region": "서울특별시",
    "district": "강남구"
  },
  {
    "name": "스타벅스 강남대로",
    "address": "서울특별시 강남구 강남대로 456, 한석타워 2층 1-2호 (역삼동)",
    "phone": "1522-3232",
    "lat": 37.50314,
    "lng": 127.025546,
    "region": "서울특별시",
    "district": "강남구"
  },
  {
    "name": "스타벅스 역삼포스코",
    "address": "서울특별시 강남구 테헤란로 134, P&S TOWER (역삼동)",
    "phone": "1522-3232",
    "lat": 37.499721,
    "lng": 127.033582,
    "region": "서울특별시",
    "district": "강남구"
  },
  {
    "name": "스타벅스 역삼대로",
    "address": "서울특별시 강남구 테헤란로 211, 한국고등교육재단빌딩 1층 (역삼동)",
    "phone": "1522-3232",
    "lat": 37.501623,
    "lng": 127.039375,
    "region": "서울특별시",
    "district": "강남구"
  },
  {
    "name": "스타벅스 가로수길",
    "address": "서울특별시 강남구 논현로175길 94, 1~2층 (신사동)",
    "phone": "1522-3232",
    "lat": 37.5231593,
    "lng": 127.02162499999997,
    "region": "서울특별시",
    "district": "강남구"
  },
  {
    "name": "스타벅스 코엑스몰",
    "address": "서울특별시 강남구 영동대로 513 (삼성동) O103호",
    "phone": "1522-3232",
    "lat": 37.513715,
    "lng": 127.059245,
    "region": "서울특별시",
    "district": "강남구"
  },
  {
    "name": "스타벅스 역삼초교사거리",
    "address": "서울특별시 강남구 역삼로 123 (역삼동)",
    "phone": "1522-3232",
    "lat": 37.49416922110828,
    "lng": 127.03317791475052,
    "region": "서울특별시",
    "district": "강남구"
  },
  {
    "name": "스타벅스 한티역",
    "address": "서울특별시 강남구 도곡로 408, 디마크빌딩 101호 (대치동)",
    "phone": "1522-3232",
    "lat": 37.496801,
    "lng": 127.055055,
    "region": "서울특별시",
    "district": "강남구"
  },
  {
    "name": "스타벅스 청담사거리",
    "address": "서울특별시 강남구 도산대로 458 (청담동) 리츠타워",
    "phone": "1522-3232",
    "lat": 37.5236351,
    "lng": 127.04686509999999,
    "region": "서울특별시",
    "district": "강남구"
  },
  {
    "name": "스타벅스 서울세관사거리",
    "address": "서울특별시 강남구 언주로 650 (논현동) 한국건설기술인협회",
    "phone": "1522-3232",
    "lat": 37.514887,
    "lng": 127.035653,
    "region": "서울특별시",
    "district": "강남구"
  },
  {
    "name": "스타벅스 도곡역",
    "address": "서울특별시 강남구 남부순환로 2909 (대치동)",
    "phone": "1522-3232",
    "lat": 37.492167,
    "lng": 127.057398,
    "region": "서울특별시",
    "district": "강남구"
  },
  {
    "name": "스타벅스 신사역",
    "address": "서울특별시 강남구 도산대로 108 (논현동) 렉스타워",
    "phone": "1522-3232",
    "lat": 37.5162021,
    "lng": 127.0207428,
    "region": "서울특별시",
    "district": "강남구"
  },
  {
    "name": "스타벅스 을지병원사거리",
    "address": "서울특별시 강남구 논현로 752 (논현동,구산빌딩)",
    "phone": "1522-3232",
    "lat": 37.5191632,
    "lng": 127.0286446,
    "region": "서울특별시",
    "district": "강남구"
  },
  {
    "name": "스타벅스 포스코사거리",
    "address": "서울특별시 강남구 테헤란로 505 (삼성동) 화진빌딩",
    "phone": "1522-3232",
    "lat": 37.5075307,
    "lng": 127.05742710000004,
    "region": "서울특별시",
    "district": "강남구"
  },
  {
    "name": "스타벅스 대치사거리",
    "address": "서울특별시 강남구 삼성로 402 (대치동)",
    "phone": "1522-3232",
    "lat": 37.503331,
    "lng": 127.058817,
    "region": "서울특별시",
    "district": "강남구"
  },
  {
    "name": "스타벅스 학동사거리",
    "address": "서울특별시 강남구 도산대로 328 (논현동)",
    "phone": "1522-3232",
    "lat": 37.52236449999999,
    "lng": 127.03795430000002,
    "region": "서울특별시",
    "district": "강남구"
  },
  {
    "name": "스타벅스 강남우성",
    "address": "서울특별시 강남구 강남대로 328 (역삼동)",
    "phone": "1522-3232",
    "lat": 37.492396,
    "lng": 127.03091,
    "region": "서울특별시",
    "district": "강남구"
  },
  {
    "name": "스타벅스 청담스타R",
    "address": "서울특별시 강남구 도산대로57길 24 (청담동)",
    "phone": "1522-3232",
    "lat": 37.525216,
    "lng": 127.041827,
    "region": "서울특별시",
    "district": "강남구"
  },
  {
    "name": "스타벅스 신사가로수",
    "address": "서울특별시 강남구 가로수길 59 ",
    "phone": "1522-3232",
    "lat": 37.521933,
    "lng": 127.022521,
    "region": "서울특별시",
    "district": "강남구"
  },
  {
    "name": "스타벅스 압구정",
    "address": "서울특별시 강남구 압구정로30길 17 (신사동)",
    "phone": "1522-3232",
    "lat": 37.526283,
    "lng": 127.02956,
    "region": "서울특별시",
    "district": "강남구"
  },
  {
    "name": "스타벅스 청담영동대로",
    "address": "서울특별시 강남구 영동대로 720 (청담동)",
    "phone": "1522-3232",
    "lat": 37.522156,
    "lng": 127.056449,
    "region": "서울특별시",
    "district": "강남구"
  },
  {
    "name": "스타벅스 대치은마사거리",
    "address": "서울특별시 강남구 도곡로 457 (대치동)",
    "phone": "1522-3232",
    "lat": 37.498973,
    "lng": 127.060172,
    "region": "서울특별시",
    "district": "강남구"
  },
  {
    "name": "스타벅스 강남R",
    "address": "서울특별시 강남구 강남대로 390 (역삼동)",
    "phone": "1522-3232",
    "lat": 37.497711,
    "lng": 127.028439,
    "region": "서울특별시",
    "district": "강남구"
  },
  {
    "name": "스타벅스 도곡공원",
    "address": "서울특별시 강남구 도곡로 205 (역삼동)",
    "phone": "1522-3232",
    "lat": 37.492805,
    "lng": 127.041309,
    "region": "서울특별시",
    "district": "강남구"
  },
  {
    "name": "스타벅스 강남구청정문",
    "address": "서울특별시 강남구 학동로 419 (청담동)",
    "phone": "1522-3232",
    "lat": 37.518181,
    "lng": 127.045995,
    "region": "서울특별시",
    "district": "강남구"
  },
  {
    "name": "스타벅스 스타필드코엑스몰R",
    "address": "서울특별시 강남구 영동대로 513 (삼성동) 코엑스 A106호",
    "phone": "1522-3232",
    "lat": 37.50999,
    "lng": 127.061455,
    "region": "서울특별시",
    "district": "강남구"
  },
  {
    "name": "스타벅스 강남오거리",
    "address": "서울특별시 강남구 봉은사로2길 39 (역삼동)",
    "phone": "1522-3232",
    "lat": 37.502117,
    "lng": 127.026672,
    "region": "서울특별시",
    "district": "강남구"
  },
  {
    "name": "스타벅스 봉은사로선정릉",
    "address": "서울특별시 강남구 봉은사로 446 (삼성동)",
    "phone": "1522-3232",
    "lat": 37.51131683405367,
    "lng": 127.04846338902249,
    "region": "서울특별시",
    "district": "강남구"
  },
  {
    "name": "스타벅스 선릉동신빌딩R",
    "address": "서울특별시 강남구 테헤란로 409 (삼성동)",
    "phone": "1522-3232",
    "lat": 37.505321,
    "lng": 127.050409,
    "region": "서울특별시",
    "district": "강남구"
  },
  {
    "name": "스타벅스 양재강남빌딩R",
    "address": "서울특별시 강남구 남부순환로 2621 (도곡동)",
    "phone": "1522-3232",
    "lat": 37.485192,
    "lng": 127.036685,
    "region": "서울특별시",
    "district": "강남구"
  },
  {
    "name": "스타벅스 수서역R",
    "address": "서울특별시 강남구 광평로 281 (수서동)",
    "phone": "1522-3232",
    "lat": 37.48802242128887,
    "lng": 127.10297991136235,
    "region": "서울특별시",
    "district": "강남구"
  },
  {
    "name": "스타벅스 압구정R",
    "address": "서울특별시 강남구 언주로 861 (신사동)",
    "phone": "1522-3232",
    "lat": 37.5273669,
    "lng": 127.033061,
    "region": "서울특별시",
    "district": "강남구"
  },
  {
    "name": "스타벅스 삼성역섬유센터R",
    "address": "서울특별시 강남구 테헤란로 518 (대치동)",
    "phone": "1522-3232",
    "lat": 37.50775,
    "lng": 127.060651,
    "region": "서울특별시",
    "district": "강남구"
  },
  {
    "name": "스타벅스 코엑스별마당",
    "address": "서울특별시 강남구 영동대로 513 (삼성동)",
    "phone": "1522-3232",
    "lat": 37.51015,
    "lng": 127.060275,
    "region": "서울특별시",
    "district": "강남구"
  },
  {
    "name": "스타벅스 압구정윤성빌딩",
    "address": "서울특별시 강남구 논현로 834 (신사동)",
    "phone": "1522-3232",
    "lat": 37.5227934,
    "lng": 127.0286009,
    "region": "서울특별시",
    "district": "강남구"
  },
  {
    "name": "스타벅스 봉은사역",
    "address": "서울특별시 강남구 봉은사로 619 (삼성동)",
    "phone": "1522-3232",
    "lat": 37.515,
    "lng": 127.063196,
    "region": "서울특별시",
    "district": "강남구"
  },
  {
    "name": "스타벅스 대치재경빌딩",
    "address": "서울특별시 강남구 남부순환로 2947 (대치동)",
    "phone": "1522-3232",
    "lat": 37.494668,
    "lng": 127.062583,
    "region": "서울특별시",
    "district": "강남구"
  },
  {
    "name": "스타벅스 국기원사거리",
    "address": "서울특별시 강남구 테헤란로 125 (역삼동)",
    "phone": "1522-3232",
    "lat": 37.499517,
    "lng": 127.031495,
    "region": "서울특별시",
    "district": "강남구"
  },
  {
    "name": "스타벅스 신사역성일빌딩",
    "address": "서울특별시 강남구 강남대로 584 (논현동)",
    "phone": "1522-3232",
    "lat": 37.5139309,
    "lng": 127.0206057,
    "region": "서울특별시",
    "district": "강남구"
  },
  {
    "name": "스타벅스 논현역사거리",
    "address": "서울특별시 강남구 강남대로 538 (논현동)",
    "phone": "1522-3232",
    "lat": 37.510178,
    "lng": 127.022223,
    "region": "서울특별시",
    "district": "강남구"
  },
  {
    "name": "스타벅스 역삼아레나빌딩",
    "address": "서울특별시 강남구 언주로 425 (역삼동)",
    "phone": "1522-3232",
    "lat": 37.501087,
    "lng": 127.043069,
    "region": "서울특별시",
    "district": "강남구"
  },
  {
    "name": "스타벅스 천호대로길동",
    "address": "서울특별시 강동구 천호대로 1131 거산 유팰리스",
    "phone": "1522-3232",
    "lat": 37.534651,
    "lng": 127.13721,
    "region": "서울특별시",
    "district": "강동구"
  },
  {
    "name": "스타벅스 강동강일",
    "address": "서울특별시 강동구 아리수로93나길 54 (강일동)",
    "phone": "1522-3232",
    "lat": 37.57219483916046,
    "lng": 127.17494002529294,
    "region": "서울특별시",
    "district": "강동구"
  },
  {
    "name": "스타벅스 이케아강동",
    "address": "서울특별시 강동구 고덕비즈밸리로 51 (고덕동)",
    "phone": "1522-3232",
    "lat": 37.5662615261099,
    "lng": 127.157531058814,
    "region": "서울특별시",
    "district": "강동구"
  },
  {
    "name": "스타벅스 암사역",
    "address": "서울특별시 강동구 올림픽로 786 (암사동)",
    "phone": "1522-3232",
    "lat": 37.55128201526835,
    "lng": 127.1281050846303,
    "region": "서울특별시",
    "district": "강동구"
  },
  {
    "name": "스타벅스 둔촌포레온스테이션5",
    "address": "서울특별시 강동구 양재대로 1360 (둔촌동) 포레온스테이션5 1063, 1064",
    "phone": "1522-3232",
    "lat": 37.52670891095929,
    "lng": 127.13667223334721,
    "region": "서울특별시",
    "district": "강동구"
  },
  {
    "name": "스타벅스 올림픽공원북2문",
    "address": "서울특별시 강동구 강동대로 199 (성내동)",
    "phone": "1522-3232",
    "lat": 37.5241832,
    "lng": 127.1286775,
    "region": "서울특별시",
    "district": "강동구"
  },
  {
    "name": "스타벅스 강일역",
    "address": "서울특별시 강동구 고덕로 429 (강일동), 1층",
    "phone": "1522-3232",
    "lat": 37.55747468801038,
    "lng": 127.17351070838723,
    "region": "서울특별시",
    "district": "강동구"
  },
  {
    "name": "스타벅스 강동그란츠",
    "address": "서울특별시 강동구 천호대로 1050 (성내동) 근생 1-6, 1-7",
    "phone": "1522-3232",
    "lat": 37.536825,
    "lng": 127.12861,
    "region": "서울특별시",
    "district": "강동구"
  },
  {
    "name": "스타벅스 천호사거리",
    "address": "서울특별시 강동구 올림픽로 651 (천호동)",
    "phone": "1522-3232",
    "lat": 37.539702,
    "lng": 127.123542,
    "region": "서울특별시",
    "district": "강동구"
  },
  {
    "name": "스타벅스 상일동역",
    "address": "서울특별시 강동구 고덕로 399 (고덕동, 고덕센트럴푸르지오)",
    "phone": "1522-3232",
    "lat": 37.55756654027894,
    "lng": 127.17076356349716,
    "region": "서울특별시",
    "district": "강동구"
  },
  {
    "name": "스타벅스 명일이마트",
    "address": "서울특별시 강동구 동남로75길 5 (명일동) 명일이마트별관주차장",
    "phone": "1522-3232",
    "lat": 37.55417877236837,
    "lng": 127.15613409848525,
    "region": "서울특별시",
    "district": "강동구"
  },
  {
    "name": "스타벅스 상일동",
    "address": "서울특별시 강동구 상일로10길 36, 1~2층 (상일동)",
    "phone": "1522-3232",
    "lat": 37.550948358388766,
    "lng": 127.17409536001483,
    "region": "서울특별시",
    "district": "강동구"
  },
  {
    "name": "스타벅스 길동역",
    "address": "서울특별시 강동구 양재대로 1487 (길동)",
    "phone": "1522-3232",
    "lat": 37.53870166831661,
    "lng": 127.14013947484787,
    "region": "서울특별시",
    "district": "강동구"
  },
  {
    "name": "스타벅스 천호이마트",
    "address": "서울특별시 강동구 천호대로 1015-14 (천호동) 이마트별관",
    "phone": "1522-3232",
    "lat": 37.538984278389535,
    "lng": 127.125179,
    "region": "서울특별시",
    "district": "강동구"
  },
  {
    "name": "스타벅스 둔촌동",
    "address": "서울특별시 강동구 양재대로 1303 (성내동) 평원빌딩",
    "phone": "1522-3232",
    "lat": 37.52264171306811,
    "lng": 127.13398661016132,
    "region": "서울특별시",
    "district": "강동구"
  },
  {
    "name": "스타벅스 강동역",
    "address": "서울특별시 강동구 천호대로 1089 (천호동, 강동 헤르셔)",
    "phone": "1522-3232",
    "lat": 37.536047,
    "lng": 127.133086,
    "region": "서울특별시",
    "district": "강동구"
  },
  {
    "name": "스타벅스 굽은다리역",
    "address": "서울특별시 강동구 양재대로 1568 (명일동, 원일타워)",
    "phone": "1522-3232",
    "lat": 37.54526203653031,
    "lng": 127.14298353027375,
    "region": "서울특별시",
    "district": "강동구"
  },
  {
    "name": "스타벅스 강동암사DT",
    "address": "서울특별시 강동구 고덕로 43 (암사동)",
    "phone": "1522-3232",
    "lat": 37.555073228709134,
    "lng": 127.12992233765308,
    "region": "서울특별시",
    "district": "강동구"
  },
  {
    "name": "스타벅스 강동구청DT",
    "address": "서울특별시 강동구 성내로 32 (성내동)",
    "phone": "1522-3232",
    "lat": 37.52938776679806,
    "lng": 127.12384773690836,
    "region": "서울특별시",
    "district": "강동구"
  },
  {
    "name": "스타벅스 명일역",
    "address": "서울특별시 강동구 양재대로 1647 (명일동)",
    "phone": "1522-3232",
    "lat": 37.55255451856903,
    "lng": 127.14388583677322,
    "region": "서울특별시",
    "district": "강동구"
  },
  {
    "name": "스타벅스 서울안토",
    "address": "서울특별시 강북구 삼양로 689 (우이동) 지하1층",
    "phone": "1522-3232",
    "lat": 37.66419549576315,
    "lng": 127.01040728594249,
    "region": "서울특별시",
    "district": "강북구"
  },
  {
    "name": "스타벅스 수유역5번출구",
    "address": "서울특별시 강북구 도봉로 315 (수유동, 에피소드 수유 838)",
    "phone": "1522-3232",
    "lat": 37.636722675028174,
    "lng": 127.02332208832509,
    "region": "서울특별시",
    "district": "강북구"
  },
  {
    "name": "스타벅스 미아역",
    "address": "서울특별시 강북구 도봉로 196 (미아동)",
    "phone": "1522-3232",
    "lat": 37.626148,
    "lng": 127.026578,
    "region": "서울특별시",
    "district": "강북구"
  },
  {
    "name": "스타벅스 수유역",
    "address": "서울특별시 강북구 도봉로 342 (번동)",
    "phone": "1522-3232",
    "lat": 37.6380167,
    "lng": 127.02613500000007,
    "region": "서울특별시",
    "district": "강북구"
  },
  {
    "name": "스타벅스 미아사거리역",
    "address": "서울특별시 강북구 도봉로 32 (미아동)",
    "phone": "1522-3232",
    "lat": 37.611831247629375,
    "lng": 127.03058552434908,
    "region": "서울특별시",
    "district": "강북구"
  },
  {
    "name": "스타벅스 강북구청사거리",
    "address": "서울특별시 강북구 도봉로 365 (수유동)",
    "phone": "1522-3232",
    "lat": 37.639987861152015,
    "lng": 127.0274331199793,
    "region": "서울특별시",
    "district": "강북구"
  },
  {
    "name": "스타벅스 미아뉴타운",
    "address": "서울특별시 강북구 삼양로 161 (미아동)",
    "phone": "1522-3232",
    "lat": 37.618319,
    "lng": 127.021072,
    "region": "서울특별시",
    "district": "강북구"
  },
  {
    "name": "스타벅스 강서구청사거리",
    "address": "서울특별시 강서구 화곡로 350 (화곡동)",
    "phone": "1522-3232",
    "lat": 37.5549266,
    "lng": 126.8523133,
    "region": "서울특별시",
    "district": "강서구"
  },
  {
    "name": "스타벅스 송정역",
    "address": "서울특별시 강서구 공항대로 38 (공항동), 1층 일부",
    "phone": "1522-3232",
    "lat": 37.56105570786667,
    "lng": 126.81150987871888,
    "region": "서울특별시",
    "district": "강서구"
  },
  {
    "name": "스타벅스 마곡나루공원",
    "address": "서울특별시 강서구 마곡중앙5로 47 (마곡동)",
    "phone": "1522-3232",
    "lat": 37.567007,
    "lng": 126.822246,
    "region": "서울특별시",
    "district": "강서구"
  },
  {
    "name": "스타벅스 마곡케이스퀘어",
    "address": "서울특별시 강서구 마곡중앙로 105-7 (마곡동), 1층 일부",
    "phone": "1522-3232",
    "lat": 37.562374500980084,
    "lng": 126.82693066365749,
    "region": "서울특별시",
    "district": "강서구"
  },
  {
    "name": "스타벅스 김포공항국제선",
    "address": "서울특별시 강서구 하늘길 38 (방화동)",
    "phone": "1522-3232",
    "lat": 37.56604490355177,
    "lng": 126.80050380500948,
    "region": "서울특별시",
    "district": "강서구"
  },
  {
    "name": "스타벅스 강서NC",
    "address": "서울특별시 강서구 강서로56길 17 (등촌동)",
    "phone": "1522-3232",
    "lat": 37.55978002533287,
    "lng": 126.83998346498424,
    "region": "서울특별시",
    "district": "강서구"
  },
  {
    "name": "스타벅스 김포공항DT",
    "address": "서울특별시 강서구 개화동로 517 (방화동)",
    "phone": "1522-3232",
    "lat": 37.56627942080141,
    "lng": 126.8060664470359,
    "region": "서울특별시",
    "district": "강서구"
  },
  {
    "name": "스타벅스 김포공항국내선",
    "address": "서울특별시 강서구 하늘길 112 (공항동)",
    "phone": "1522-3232",
    "lat": 37.55912618463173,
    "lng": 126.80239253168018,
    "region": "서울특별시",
    "district": "강서구"
  },
  {
    "name": "스타벅스 마곡웰튼",
    "address": "서울특별시 강서구 마곡중앙5로 22 (마곡동), 104/105/106호",
    "phone": "1522-3232",
    "lat": 37.5671428910102,
    "lng": 126.825315150636,
    "region": "서울특별시",
    "district": "강서구"
  },
  {
    "name": "스타벅스 내발산",
    "address": "서울특별시 강서구 강서로 323 (내발산동), 101/102호",
    "phone": "1522-3232",
    "lat": 37.55467,
    "lng": 126.83672,
    "region": "서울특별시",
    "district": "강서구"
  },
  {
    "name": "스타벅스 원그로브",
    "address": "서울특별시 강서구 공항대로 165 (마곡동)지하1층, WB115호",
    "phone": "1522-3232",
    "lat": 37.56124715192089,
    "lng": 126.82465548376591,
    "region": "서울특별시",
    "district": "강서구"
  },
  {
    "name": "스타벅스 가양역사거리",
    "address": "서울특별시 강서구 화곡로 416 (등촌동) 가양더스카이벨리5차 지식산업센터 101, 102, 114,~117호",
    "phone": "1522-3232",
    "lat": 37.56007,
    "lng": 126.855372,
    "region": "서울특별시",
    "district": "강서구"
  },
  {
    "name": "스타벅스 마곡보타닉게이트",
    "address": "서울특별시 강서구 마곡동로 166 (마곡동) 106호,107호,108호",
    "phone": "1522-3232",
    "lat": 37.56910032273387,
    "lng": 126.83633283391289,
    "region": "서울특별시",
    "district": "강서구"
  },
  {
    "name": "스타벅스 등촌대로",
    "address": "서울특별시 강서구 공항대로 543 (염창동, 센터스퀘어)",
    "phone": "1522-3232",
    "lat": 37.5504921817371,
    "lng": 126.8665095756118,
    "region": "서울특별시",
    "district": "강서구"
  },
  {
    "name": "스타벅스 강서우장산",
    "address": "서울특별시 강서구 강서로 231 (화곡동, 우장산역 해링턴 타워), 116/117/118/119/120호",
    "phone": "1522-3232",
    "lat": 37.54661114997271,
    "lng": 126.83611326062484,
    "region": "서울특별시",
    "district": "강서구"
  },
  {
    "name": "스타벅스 화곡역8번출구",
    "address": "서울특별시 강서구 강서로 179 (화곡동), 1층 일부",
    "phone": "1522-3232",
    "lat": 37.54227920628,
    "lng": 126.839299954553,
    "region": "서울특별시",
    "district": "강서구"
  },
  {
    "name": "스타벅스 양천향교역",
    "address": "서울특별시 강서구 양천로 344 (마곡동)",
    "phone": "1522-3232",
    "lat": 37.56785182406142,
    "lng": 126.84082079898185,
    "region": "서울특별시",
    "district": "강서구"
  },
  {
    "name": "스타벅스 발산역5번출구",
    "address": "서울특별시 강서구 강서로52길 43 (내발산동, DH647), 1층 일부",
    "phone": "1522-3232",
    "lat": 37.5579224739977,
    "lng": 126.84054030692,
    "region": "서울특별시",
    "district": "강서구"
  },
  {
    "name": "스타벅스 염창대로",
    "address": "서울특별시 강서구 양천로 744 (염창동), 101호",
    "phone": "1522-3232",
    "lat": 37.5485479128966,
    "lng": 126.878259347206,
    "region": "서울특별시",
    "district": "강서구"
  },
  {
    "name": "스타벅스 마곡코엑스",
    "address": "서울특별시 강서구 마곡중앙로 143 (마곡동)",
    "phone": "1522-3232",
    "lat": 37.5653031840314,
    "lng": 126.82570428625807,
    "region": "서울특별시",
    "district": "강서구"
  },
  {
    "name": "스타벅스 까치산역",
    "address": "서울특별시 강서구 강서로13길 3 (화곡동)",
    "phone": "1522-3232",
    "lat": 37.5323235082489,
    "lng": 126.84612332664443,
    "region": "서울특별시",
    "district": "강서구"
  },
  {
    "name": "스타벅스 발산역",
    "address": "서울특별시 강서구 강서로 388 (등촌동) 그랜드마트",
    "phone": "1522-3232",
    "lat": 37.56033524296544,
    "lng": 126.83913908184506,
    "region": "서울특별시",
    "district": "강서구"
  },
  {
    "name": "스타벅스 염창역",
    "address": "서울특별시 강서구 공항대로 627 (염창동)",
    "phone": "1522-3232",
    "lat": 37.547359,
    "lng": 126.874436,
    "region": "서울특별시",
    "district": "강서구"
  },
  {
    "name": "스타벅스 화곡동",
    "address": "서울특별시 강서구 화곡로 142(화곡동)",
    "phone": "1522-3232",
    "lat": 37.540619019726435,
    "lng": 126.83738800870792,
    "region": "서울특별시",
    "district": "강서구"
  },
  {
    "name": "스타벅스 화곡DT",
    "address": "서울특별시 강서구 등촌로 57 (화곡동)",
    "phone": "1522-3232",
    "lat": 37.5350107501795,
    "lng": 126.86318804786,
    "region": "서울특별시",
    "district": "강서구"
  },
  {
    "name": "스타벅스 가양역",
    "address": "서울특별시 강서구 양천로 476 (등촌동)",
    "phone": "1522-3232",
    "lat": 37.56164,
    "lng": 126.853327,
    "region": "서울특별시",
    "district": "강서구"
  },
  {
    "name": "스타벅스 마곡GMG",
    "address": "서울특별시 강서구 마곡중앙6로 16 (마곡동) 117,118,119,120호",
    "phone": "1522-3232",
    "lat": 37.560487,
    "lng": 126.829667,
    "region": "서울특별시",
    "district": "강서구"
  },
  {
    "name": "스타벅스 마곡나루역",
    "address": "서울특별시 강서구 마곡중앙로 161-17 (마곡동)",
    "phone": "1522-3232",
    "lat": 37.56813,
    "lng": 126.82614,
    "region": "서울특별시",
    "district": "강서구"
  },
  {
    "name": "스타벅스 방화DT",
    "address": "서울특별시 강서구 방화대로 375 (방화동)",
    "phone": "1522-3232",
    "lat": 37.574456834773024,
    "lng": 126.81648812379821,
    "region": "서울특별시",
    "district": "강서구"
  },
  {
    "name": "스타벅스 마곡사이언스타워R",
    "address": "서울특별시 강서구 마곡동로 62 (마곡동)",
    "phone": "1522-3232",
    "lat": 37.5605261,
    "lng": 126.833887,
    "region": "서울특별시",
    "district": "강서구"
  },
  {
    "name": "스타벅스 우장산역",
    "address": "서울특별시 강서구 강서로 267 (내발산동)",
    "phone": "1522-3232",
    "lat": 37.549510038803994,
    "lng": 126.83606164803061,
    "region": "서울특별시",
    "district": "강서구"
  },
  {
    "name": "스타벅스 마곡역",
    "address": "서울특별시 강서구 공항대로 168 (마곡동)",
    "phone": "1522-3232",
    "lat": 37.559611,
    "lng": 126.826298,
    "region": "서울특별시",
    "district": "강서구"
  },
  {
    "name": "스타벅스 발산역사거리",
    "address": "서울특별시 강서구 공항대로 248 (마곡동)",
    "phone": "1522-3232",
    "lat": 37.558509,
    "lng": 126.835096,
    "region": "서울특별시",
    "district": "강서구"
  },
  {
    "name": "스타벅스 봉천현대시장",
    "address": "서울특별시 관악구 은천로 118 (봉천동), 1층 101~104호",
    "phone": "1522-3232",
    "lat": 37.48665266827689,
    "lng": 126.94829614696478,
    "region": "서울특별시",
    "district": "관악구"
  },
  {
    "name": "스타벅스 봉천역",
    "address": "서울특별시 관악구 남부순환로 1730 (봉천동)",
    "phone": "1522-3232",
    "lat": 37.4820375340064,
    "lng": 126.942287792538,
    "region": "서울특별시",
    "district": "관악구"
  },
  {
    "name": "스타벅스 서울대입구역8번출구",
    "address": "서울특별시 관악구 남부순환로 1831 (봉천동)",
    "phone": "1522-3232",
    "lat": 37.4812061,
    "lng": 126.9536942,
    "region": "서울특별시",
    "district": "관악구"
  },
  {
    "name": "스타벅스 신림녹두거리",
    "address": "서울특별시 관악구 신림로 99 (신림동, 센터스퀘어 서울대점)",
    "phone": "1522-3232",
    "lat": 37.470488195804656,
    "lng": 126.93815865605839,
    "region": "서울특별시",
    "district": "관악구"
  },
  {
    "name": "스타벅스 서울대입구역",
    "address": "서울특별시 관악구 남부순환로 1812 (봉천동)",
    "phone": "1522-3232",
    "lat": 37.481207389699065,
    "lng": 126.95140060487287,
    "region": "서울특별시",
    "district": "관악구"
  },
  {
    "name": "스타벅스 신림타임스트림",
    "address": "서울특별시 관악구 신림로 330 타임스트림 1층",
    "phone": "1522-3232",
    "lat": 37.48407101920536,
    "lng": 126.93025831103377,
    "region": "서울특별시",
    "district": "관악구"
  },
  {
    "name": "스타벅스 신림",
    "address": "서울특별시 관악구 신림로 355-1 (신림동)",
    "phone": "1522-3232",
    "lat": 37.48609493,
    "lng": 126.9291602,
    "region": "서울특별시",
    "district": "관악구"
  },
  {
    "name": "스타벅스 보라매대교빌딩",
    "address": "서울특별시 관악구 보라매로3길 23 (봉천동) 1층",
    "phone": "1522-3232",
    "lat": 37.491449,
    "lng": 126.925432,
    "region": "서울특별시",
    "district": "관악구"
  },
  {
    "name": "스타벅스 사당",
    "address": "서울특별시 관악구 남부순환로 2082-25",
    "phone": "1522-3232",
    "lat": 37.4760559,
    "lng": 126.980928,
    "region": "서울특별시",
    "district": "관악구"
  },
  {
    "name": "스타벅스 낙성대DT",
    "address": "서울특별시 관악구 남부순환로 1948 (봉천동)",
    "phone": "1522-3232",
    "lat": 37.476243169019526,
    "lng": 126.96511724631266,
    "region": "서울특별시",
    "district": "관악구"
  },
  {
    "name": "스타벅스 서울대역",
    "address": "서울특별시 관악구 남부순환로 1817 (봉천동)",
    "phone": "1522-3232",
    "lat": 37.48166265091104,
    "lng": 126.9520164977362,
    "region": "서울특별시",
    "district": "관악구"
  },
  {
    "name": "스타벅스 신림DT",
    "address": "서울특별시 관악구 남부순환로 1419 (신림동)",
    "phone": "1522-3232",
    "lat": 37.480935,
    "lng": 126.908407,
    "region": "서울특별시",
    "district": "관악구"
  },
  {
    "name": "스타벅스 관악서울대입구R",
    "address": "서울특별시 관악구 관악로 158 (봉천동)",
    "phone": "1522-3232",
    "lat": 37.47932480888598,
    "lng": 126.95270199623683,
    "region": "서울특별시",
    "district": "관악구"
  },
  {
    "name": "스타벅스 낙성대역",
    "address": "서울특별시 관악구 남부순환로 1908 (봉천동)",
    "phone": "1522-3232",
    "lat": 37.477760129939064,
    "lng": 126.96114261955485,
    "region": "서울특별시",
    "district": "관악구"
  },
  {
    "name": "스타벅스 군자사거리",
    "address": "서울특별시 광진구 천호대로 549 (중곡동) 1층",
    "phone": "1522-3232",
    "lat": 37.55769507399991,
    "lng": 127.079087912222,
    "region": "서울특별시",
    "district": "광진구"
  },
  {
    "name": "스타벅스 화양삼거리",
    "address": "서울특별시 광진구 광나루로 374 (화양동)",
    "phone": "1522-3232",
    "lat": 37.54774853077512,
    "lng": 127.07126924540047,
    "region": "서울특별시",
    "district": "광진구"
  },
  {
    "name": "스타벅스 뚝섬한강공원",
    "address": "서울특별시 광진구 강변북로 2234 (자양동)",
    "phone": "1522-3232",
    "lat": 37.52833825339653,
    "lng": 127.06827256457497,
    "region": "서울특별시",
    "district": "광진구"
  },
  {
    "name": "스타벅스 세종대",
    "address": "서울특별시 광진구 능동로 209 (군자동)",
    "phone": "1522-3232",
    "lat": 37.54914275025103,
    "lng": 127.07502761108316,
    "region": "서울특별시",
    "district": "광진구"
  },
  {
    "name": "스타벅스 자양역",
    "address": "서울특별시 광진구 능동로 18 (자양동, 이튼타워리버3차)",
    "phone": "1522-3232",
    "lat": 37.532684640479,
    "lng": 127.067878503557,
    "region": "서울특별시",
    "district": "광진구"
  },
  {
    "name": "스타벅스 자양이마트",
    "address": "서울특별시 광진구 아차산로 272 (자양동) 지하1층",
    "phone": "1522-3232",
    "lat": 37.5386200465941,
    "lng": 127.07348956991508,
    "region": "서울특별시",
    "district": "광진구"
  },
  {
    "name": "스타벅스 중곡역",
    "address": "서울특별시 광진구 능동로 400 (중곡동) 1층 108,109,110,111,112,118 6개호실",
    "phone": "1522-3232",
    "lat": 37.565057005115804,
    "lng": 127.08445231025851,
    "region": "서울특별시",
    "district": "광진구"
  },
  {
    "name": "스타벅스 건대후문",
    "address": "서울특별시 광진구 능동로 172 (화양동)",
    "phone": "1522-3232",
    "lat": 37.54603056145237,
    "lng": 127.07381934747977,
    "region": "서울특별시",
    "district": "광진구"
  },
  {
    "name": "스타벅스 구의역이스트폴",
    "address": "서울특별시 광진구 아차산로 402 (자양동), 1층",
    "phone": "1522-3232",
    "lat": 37.53657397133724,
    "lng": 127.08785695168247,
    "region": "서울특별시",
    "district": "광진구"
  },
  {
    "name": "스타벅스 강변",
    "address": "서울특별시 광진구 구의강변로 46 (구의동)",
    "phone": "1522-3232",
    "lat": 37.53474180652488,
    "lng": 127.0919731720276,
    "region": "서울특별시",
    "district": "광진구"
  },
  {
    "name": "스타벅스 건대로데오",
    "address": "서울특별시 광진구 아차산로 212 (자양동, 더포디엄830)",
    "phone": "1522-3232",
    "lat": 37.5407966413791,
    "lng": 127.066728885927,
    "region": "서울특별시",
    "district": "광진구"
  },
  {
    "name": "스타벅스 건국클래식",
    "address": "서울특별시 광진구 능동로 90 (자양동) 더 클래식500",
    "phone": "1522-3232",
    "lat": 37.538466,
    "lng": 127.071271,
    "region": "서울특별시",
    "district": "광진구"
  },
  {
    "name": "스타벅스 광장",
    "address": "서울특별시 광진구 아차산로 537-17 (광장동)",
    "phone": "1522-3232",
    "lat": 37.54261257747251,
    "lng": 127.09964053100875,
    "region": "서울특별시",
    "district": "광진구"
  },
  {
    "name": "스타벅스 건대입구",
    "address": "서울특별시 광진구 능동로 107 (화양동)",
    "phone": "1522-3232",
    "lat": 37.5406604,
    "lng": 127.07072249999999,
    "region": "서울특별시",
    "district": "광진구"
  },
  {
    "name": "스타벅스 건대스타시티",
    "address": "서울특별시 광진구 아차산로 262 (자양동)",
    "phone": "1522-3232",
    "lat": 37.538544,
    "lng": 127.073009,
    "region": "서울특별시",
    "district": "광진구"
  },
  {
    "name": "스타벅스 광나루",
    "address": "서울특별시 광진구 아차산로 607, 1,2층 (광장동)",
    "phone": "1522-3232",
    "lat": 37.5473711178786,
    "lng": 127.106048727555,
    "region": "서울특별시",
    "district": "광진구"
  },
  {
    "name": "스타벅스 군자역",
    "address": "서울특별시 광진구 천호대로 548 (군자동) 중앙빌딩",
    "phone": "1522-3232",
    "lat": 37.557026068940765,
    "lng": 127.07910984029934,
    "region": "서울특별시",
    "district": "광진구"
  },
  {
    "name": "스타벅스 자양사거리",
    "address": "서울특별시 광진구 아차산로 355",
    "phone": "1522-3232",
    "lat": 37.5371158,
    "lng": 127.0825821,
    "region": "서울특별시",
    "district": "광진구"
  },
  {
    "name": "스타벅스 구의DT",
    "address": "서울특별시 광진구 광나루로 519 (구의동)",
    "phone": "1522-3232",
    "lat": 37.54529838924125,
    "lng": 127.0871967283424,
    "region": "서울특별시",
    "district": "광진구"
  },
  {
    "name": "스타벅스 올림픽대교북단",
    "address": "서울특별시 광진구 광나루로 608 (구의동)",
    "phone": "1522-3232",
    "lat": 37.541129,
    "lng": 127.09524,
    "region": "서울특별시",
    "district": "광진구"
  },
  {
    "name": "스타벅스 아차산역",
    "address": "서울특별시 광진구 천호대로 676 (구의동)",
    "phone": "1522-3232",
    "lat": 37.55062116262961,
    "lng": 127.09003207951665,
    "region": "서울특별시",
    "district": "광진구"
  },
  {
    "name": "스타벅스 어린이대공원역",
    "address": "서울특별시 광진구 능동로 243 (군자동)",
    "phone": "1522-3232",
    "lat": 37.551946,
    "lng": 127.076404,
    "region": "서울특별시",
    "district": "광진구"
  },
  {
    "name": "스타벅스 건국대",
    "address": "서울특별시 광진구 능동로 117 (화양동)",
    "phone": "1522-3232",
    "lat": 37.5415474727422,
    "lng": 127.07115584769804,
    "region": "서울특별시",
    "district": "광진구"
  },
  {
    "name": "스타벅스 신도림힐스테이트",
    "address": "서울특별시 구로구 경인로 625 (신도림동)",
    "phone": "1522-3232",
    "lat": 37.506860026202624,
    "lng": 126.88463805193277,
    "region": "서울특별시",
    "district": "구로구"
  },
  {
    "name": "스타벅스 고척아이파크",
    "address": "서울특별시 구로구 경인로43길 49 (고척동, 고척아이파크), 1층 D-101호",
    "phone": "1522-3232",
    "lat": 37.49930562934076,
    "lng": 126.8582208923581,
    "region": "서울특별시",
    "district": "구로구"
  },
  {
    "name": "스타벅스 구로구청",
    "address": "서울특별시 구로구 가마산로 232 (구로동, 스페스큐브), B101호",
    "phone": "1522-3232",
    "lat": 37.49395067031256,
    "lng": 126.88676120707717,
    "region": "서울특별시",
    "district": "구로구"
  },
  {
    "name": "스타벅스 구로오류DT",
    "address": "서울특별시 구로구 서해안로 2233 (오류동)",
    "phone": "1522-3232",
    "lat": 37.4881292318832,
    "lng": 126.834491889841,
    "region": "서울특별시",
    "district": "구로구"
  },
  {
    "name": "스타벅스 구로NC",
    "address": "서울특별시 구로구 구로중앙로 152 (구로동) 구로NC",
    "phone": "1522-3232",
    "lat": 37.501219,
    "lng": 126.882798,
    "region": "서울특별시",
    "district": "구로구"
  },
  {
    "name": "스타벅스 구로고척",
    "address": "서울특별시 구로구 경인로 387 (고척동)",
    "phone": "1522-3232",
    "lat": 37.49706,
    "lng": 126.86315,
    "region": "서울특별시",
    "district": "구로구"
  },
  {
    "name": "스타벅스 신도림센터포인트",
    "address": "서울특별시 구로구 새말로 97 (구로동)신도림센터포인트웨스트 지하1층 오01호, 오02호",
    "phone": "1522-3232",
    "lat": 37.5077416944406,
    "lng": 126.89035113542973,
    "region": "서울특별시",
    "district": "구로구"
  },
  {
    "name": "스타벅스 포포인츠구로",
    "address": "서울특별시 구로구 디지털로32길 72, 포포인츠바이쉐라톤 구로 1층 (구로동)",
    "phone": "1522-3232",
    "lat": 37.4831293,
    "lng": 126.89885909999998,
    "region": "서울특별시",
    "district": "구로구"
  },
  {
    "name": "스타벅스 구로하이엔드",
    "address": "서울특별시 구로구 디지털로26길 5, 에이스하이엔드타워1차 103호 (구로동)",
    "phone": "1522-3232",
    "lat": 37.481618,
    "lng": 126.893136,
    "region": "서울특별시",
    "district": "구로구"
  },
  {
    "name": "스타벅스 구로에이스",
    "address": "서울특별시 구로구 디지털로 285, 에이스트윈타워1차 103호 (구로동)",
    "phone": "1522-3232",
    "lat": 37.484233766,
    "lng": 126.894560454,
    "region": "서울특별시",
    "district": "구로구"
  },
  {
    "name": "스타벅스 구로디지털로",
    "address": "서울특별시 구로구 디지털로33길 11, 에이스테크노8차 1층 (구로동)",
    "phone": "1522-3232",
    "lat": 37.485699173,
    "lng": 126.895991532,
    "region": "서울특별시",
    "district": "구로구"
  },
  {
    "name": "스타벅스 오류동역",
    "address": "서울특별시 구로구 경인로 216 (오류동)",
    "phone": "1522-3232",
    "lat": 37.4962155,
    "lng": 126.8448614,
    "region": "서울특별시",
    "district": "구로구"
  },
  {
    "name": "스타벅스 구로디지털타워",
    "address": "서울특별시 구로구 디지털로32길 30 (구로동)",
    "phone": "1522-3232",
    "lat": 37.483472189,
    "lng": 126.896856737,
    "region": "서울특별시",
    "district": "구로구"
  },
  {
    "name": "스타벅스 가산어반워크",
    "address": "서울특별시 금천구 가산디지털2로 135 (가산동)",
    "phone": "1522-3232",
    "lat": 37.4800231711237,
    "lng": 126.878250987906,
    "region": "서울특별시",
    "district": "금천구"
  },
  {
    "name": "스타벅스 가산케이에스",
    "address": "서울특별시 금천구 벚꽃로36길 30 (가산동), 가산KS타워 1층",
    "phone": "1522-3232",
    "lat": 37.48089352069766,
    "lng": 126.88515566597013,
    "region": "서울특별시",
    "district": "금천구"
  },
  {
    "name": "스타벅스 가산현대아울렛",
    "address": "서울특별시 금천구 디지털로10길 9 (가산동), 1층 일부",
    "phone": "1522-3232",
    "lat": 37.477680443,
    "lng": 126.888840553,
    "region": "서울특별시",
    "district": "금천구"
  },
  {
    "name": "스타벅스 가산퍼블릭",
    "address": "서울특별시 금천구 디지털로 178 (가산동), B동 F Park 1층",
    "phone": "1522-3232",
    "lat": 37.47574363470601,
    "lng": 126.88684803652211,
    "region": "서울특별시",
    "district": "금천구"
  },
  {
    "name": "스타벅스 금천금나래",
    "address": "서울특별시 금천구 시흥대로79길 23 (시흥동) 1층",
    "phone": "1522-3232",
    "lat": 37.4586898489368,
    "lng": 126.896999968363,
    "region": "서울특별시",
    "district": "금천구"
  },
  {
    "name": "스타벅스 독산역",
    "address": "서울특별시 금천구 가산디지털1로 16 (가산동), 107-2, 1층",
    "phone": "1522-3232",
    "lat": 37.46770966619833,
    "lng": 126.88767404102677,
    "region": "서울특별시",
    "district": "금천구"
  },
  {
    "name": "스타벅스 가산브이타워",
    "address": "서울특별시 금천구 가산디지털1로 128 (가산동), V-TOWER 1층",
    "phone": "1522-3232",
    "lat": 37.47700409645337,
    "lng": 126.88355058577785,
    "region": "서울특별시",
    "district": "금천구"
  },
  {
    "name": "스타벅스 마리오아울렛",
    "address": "서울특별시 금천구 벚꽃로 266 마리오아울렛3관",
    "phone": "1522-3232",
    "lat": 37.47860691180926,
    "lng": 126.88484825777417,
    "region": "서울특별시",
    "district": "금천구"
  },
  {
    "name": "스타벅스 가산디지털",
    "address": "서울특별시 금천구 가산디지털1로 168 (가산동), 우림라이온스밸리 B동 1층",
    "phone": "1522-3232",
    "lat": 37.479970085901,
    "lng": 126.882507193785,
    "region": "서울특별시",
    "district": "금천구"
  },
  {
    "name": "스타벅스 금천독산",
    "address": "서울특별시 금천구 두산로 70 (독산동)",
    "phone": "1522-3232",
    "lat": 37.46957081,
    "lng": 126.89565779,
    "region": "서울특별시",
    "district": "금천구"
  },
  {
    "name": "스타벅스 가산디지털단지역",
    "address": "서울특별시 금천구 벚꽃로 298 (가산동), 대륭포스트타워 6차 1층",
    "phone": "1522-3232",
    "lat": 37.48135375445197,
    "lng": 126.88358906045958,
    "region": "서울특별시",
    "district": "금천구"
  },
  {
    "name": "스타벅스 금천시흥",
    "address": "서울특별시 금천구 시흥대로 164 (시흥동)",
    "phone": "1522-3232",
    "lat": 37.44875938266414,
    "lng": 126.90323875981919,
    "region": "서울특별시",
    "district": "금천구"
  },
  {
    "name": "스타벅스 독산사거리",
    "address": "서울특별시 금천구 시흥대로 426 (독산동)",
    "phone": "1522-3232",
    "lat": 37.47158263368701,
    "lng": 126.89860551804541,
    "region": "서울특별시",
    "district": "금천구"
  },
  {
    "name": "스타벅스 가산에스케이",
    "address": "서울특별시 금천구 가산디지털1로 171 (가산동), SK V1센터 1층",
    "phone": "1522-3232",
    "lat": 37.48082408602027,
    "lng": 126.88100079322535,
    "region": "서울특별시",
    "district": "금천구"
  },
  {
    "name": "스타벅스 금천구청역",
    "address": "서울특별시 금천구 시흥대로73길 67 (시흥동), 엠메디컬타워 1층",
    "phone": "1522-3232",
    "lat": 37.45588672536701,
    "lng": 126.89568245942294,
    "region": "서울특별시",
    "district": "금천구"
  },
  {
    "name": "스타벅스 노원구청",
    "address": "서울특별시 노원구 노해로 447 (상계동)",
    "phone": "1522-3232",
    "lat": 37.6539896,
    "lng": 127.057755,
    "region": "서울특별시",
    "district": "노원구"
  },
  {
    "name": "스타벅스 노원상계",
    "address": "서울특별시 노원구 동일로215길 2 (상계동)",
    "phone": "1522-3232",
    "lat": 37.651535,
    "lng": 127.061026,
    "region": "서울특별시",
    "district": "노원구"
  },
  {
    "name": "스타벅스 태릉입구역DT",
    "address": "서울특별시 노원구 화랑로 469 (공릉동)",
    "phone": "1522-3232",
    "lat": 37.61942,
    "lng": 127.07932,
    "region": "서울특별시",
    "district": "노원구"
  },
  {
    "name": "스타벅스 월계이마트",
    "address": "서울특별시 노원구 마들로3길 15 (월계동)",
    "phone": "1522-3232",
    "lat": 37.62715819011137,
    "lng": 127.06209552515209,
    "region": "서울특별시",
    "district": "노원구"
  },
  {
    "name": "스타벅스 노원역",
    "address": "서울특별시 노원구 동일로 1413 (상계동) 1층",
    "phone": "1522-3232",
    "lat": 37.654751,
    "lng": 127.060034,
    "region": "서울특별시",
    "district": "노원구"
  },
  {
    "name": "스타벅스 중계역",
    "address": "서울특별시 노원구 동일로 1339, 대한빌딩 (상계동)",
    "phone": "1522-3232",
    "lat": 37.64817,
    "lng": 127.062244,
    "region": "서울특별시",
    "district": "노원구"
  },
  {
    "name": "스타벅스 광운대",
    "address": "서울특별시 노원구 석계로 104 (월계동)",
    "phone": "1522-3232",
    "lat": 37.62317424708698,
    "lng": 127.06080652927419,
    "region": "서울특별시",
    "district": "노원구"
  },
  {
    "name": "스타벅스 노원KT",
    "address": "서울특별시 노원구 노해로 502, (주)KT 노원사옥 (상계동)",
    "phone": "1522-3232",
    "lat": 37.654562,
    "lng": 127.063617,
    "region": "서울특별시",
    "district": "노원구"
  },
  {
    "name": "스타벅스 은행사거리",
    "address": "서울특별시 노원구 중계로 217, 중흥빌딩 103,203호 (중계동)",
    "phone": "1522-3232",
    "lat": 37.650487822620036,
    "lng": 127.07597932939696,
    "region": "서울특별시",
    "district": "노원구"
  },
  {
    "name": "스타벅스 공릉역",
    "address": "서울특별시 노원구 동일로 1081 (공릉동)",
    "phone": "1522-3232",
    "lat": 37.626337,
    "lng": 127.072252,
    "region": "서울특별시",
    "district": "노원구"
  },
  {
    "name": "스타벅스 노원마들역",
    "address": "서울특별시 노원구 노원로 569 (상계동, 임광아파트)",
    "phone": "1522-3232",
    "lat": 37.6610890700127,
    "lng": 127.05801543641189,
    "region": "서울특별시",
    "district": "노원구"
  },
  {
    "name": "스타벅스 공릉DT",
    "address": "서울특별시 노원구 동일로 1015 (공릉동)",
    "phone": "1522-3232",
    "lat": 37.6206884,
    "lng": 127.0743116,
    "region": "서울특별시",
    "district": "노원구"
  },
  {
    "name": "스타벅스 상계초교사거리",
    "address": "서울특별시 노원구 노원로 449 (상계동)",
    "phone": "1522-3232",
    "lat": 37.656776,
    "lng": 127.066442,
    "region": "서울특별시",
    "district": "노원구"
  },
  {
    "name": "스타벅스 월계트레이더스",
    "address": "서울특별시 노원구 마들로3길 17 (월계동)",
    "phone": "1522-3232",
    "lat": 37.627595268077556,
    "lng": 127.06190614033677,
    "region": "서울특별시",
    "district": "노원구"
  },
  {
    "name": "스타벅스 월계역",
    "address": "서울특별시 노원구 초안산로2라길26 월계동(104,105,106호)",
    "phone": "1522-3232",
    "lat": 37.6295,
    "lng": 127.0574,
    "region": "서울특별시",
    "district": "노원구"
  },
  {
    "name": "스타벅스 창동역",
    "address": "서울특별시 도봉구 마들로13길 61 (창동)",
    "phone": "1522-3232",
    "lat": 37.654090067801164,
    "lng": 127.04950227479924,
    "region": "서울특별시",
    "district": "도봉구"
  },
  {
    "name": "스타벅스 방학역",
    "address": "서울특별시 도봉구 도봉로 684 (방학동)101,102,113,114,115호",
    "phone": "1522-3232",
    "lat": 37.6653125,
    "lng": 127.0433125,
    "region": "서울특별시",
    "district": "도봉구"
  },
  {
    "name": "스타벅스 도봉로DT",
    "address": "서울특별시 도봉구 도봉로 635 (쌍문동)",
    "phone": "1522-3232",
    "lat": 37.6611805929041,
    "lng": 127.041630065957,
    "region": "서울특별시",
    "district": "도봉구"
  },
  {
    "name": "스타벅스 쌍문도봉로",
    "address": "서울특별시 도봉구 도봉로 444 (창동)",
    "phone": "1522-3232",
    "lat": 37.6453516,
    "lng": 127.0331011,
    "region": "서울특별시",
    "district": "도봉구"
  },
  {
    "name": "스타벅스 쌍문",
    "address": "서울특별시 도봉구 도봉로 494 (창동)",
    "phone": "1522-3232",
    "lat": 37.649424,
    "lng": 127.035577,
    "region": "서울특별시",
    "district": "도봉구"
  },
  {
    "name": "스타벅스 도봉구청",
    "address": "서울특별시 도봉구 마들로 665 (도봉동)",
    "phone": "1522-3232",
    "lat": 37.6695034764443,
    "lng": 127.04603799266,
    "region": "서울특별시",
    "district": "도봉구"
  },
  {
    "name": "스타벅스 덕성여대",
    "address": "서울특별시 도봉구 삼양로 536 (쌍문동)",
    "phone": "1522-3232",
    "lat": 37.650906,
    "lng": 127.013279,
    "region": "서울특별시",
    "district": "도봉구"
  },
  {
    "name": "스타벅스 창동이마트",
    "address": "서울특별시 도봉구 노해로65길 4 (창동)",
    "phone": "1522-3232",
    "lat": 37.65167648631108,
    "lng": 127.0469283262733,
    "region": "서울특별시",
    "district": "도봉구"
  },
  {
    "name": "스타벅스 외대정문",
    "address": "서울특별시 동대문구 이문로 93 (이문동)",
    "phone": "1522-3232",
    "lat": 37.595323163693045,
    "lng": 127.0593372987461,
    "region": "서울특별시",
    "district": "동대문구"
  },
  {
    "name": "스타벅스 장안사거리",
    "address": "서울특별시 동대문구 답십리로 267 (장안동)",
    "phone": "1522-3232",
    "lat": 37.5727209002351,
    "lng": 127.070092668638,
    "region": "서울특별시",
    "district": "동대문구"
  },
  {
    "name": "스타벅스 답십리초교사거리",
    "address": "서울특별시 동대문구 전농로 38 (답십리동)",
    "phone": "1522-3232",
    "lat": 37.5682540295405,
    "lng": 127.057240883237,
    "region": "서울특별시",
    "district": "동대문구"
  },
  {
    "name": "스타벅스 청량리역사",
    "address": "서울특별시 동대문구 왕산로 214 (전농동) 청량리역사 Connect Place6층",
    "phone": "1522-3232",
    "lat": 37.580565324,
    "lng": 127.048564845,
    "region": "서울특별시",
    "district": "동대문구"
  },
  {
    "name": "스타벅스 사이버한국외대",
    "address": "서울특별시 동대문구 휘경로 6 (이문동)",
    "phone": "1522-3232",
    "lat": 37.5960508006499,
    "lng": 127.060761238087,
    "region": "서울특별시",
    "district": "동대문구"
  },
  {
    "name": "스타벅스 경동1960",
    "address": "서울특별시 동대문구 고산자로36길 3 (제기동)",
    "phone": "1522-3232",
    "lat": 37.5796141021494,
    "lng": 127.038684963773,
    "region": "서울특별시",
    "district": "동대문구"
  },
  {
    "name": "스타벅스 경희의료원",
    "address": "서울특별시 동대문구 경희대로 23 (회기동)",
    "phone": "1522-3232",
    "lat": 37.5935445,
    "lng": 127.052009,
    "region": "서울특별시",
    "district": "동대문구"
  },
  {
    "name": "스타벅스 청량리역롯데캐슬스카이",
    "address": "서울특별시 동대문구 답십리로 27 (전농동, 청량리역 롯데캐슬 SKY-L65)",
    "phone": "1522-3232",
    "lat": 37.579249267,
    "lng": 127.045331071,
    "region": "서울특별시",
    "district": "동대문구"
  },
  {
    "name": "스타벅스 경희대",
    "address": "서울특별시 동대문구 경희대로 16-1 (회기동)",
    "phone": "1522-3232",
    "lat": 37.5928812,
    "lng": 127.05280849999997,
    "region": "서울특별시",
    "district": "동대문구"
  },
  {
    "name": "스타벅스 장한평역",
    "address": "서울특별시 동대문구 장한로 10 (장안동)",
    "phone": "1522-3232",
    "lat": 37.562337,
    "lng": 127.065511,
    "region": "서울특별시",
    "district": "동대문구"
  },
  {
    "name": "스타벅스 회기역사거리",
    "address": "서울특별시 동대문구 이문로 37 (회기동)",
    "phone": "1522-3232",
    "lat": 37.590784,
    "lng": 127.056098,
    "region": "서울특별시",
    "district": "동대문구"
  },
  {
    "name": "스타벅스 신설동역",
    "address": "서울특별시 동대문구 왕산로 19 (신설동)",
    "phone": "1522-3232",
    "lat": 37.5767228,
    "lng": 127.0255446,
    "region": "서울특별시",
    "district": "동대문구"
  },
  {
    "name": "스타벅스 경희대삼거리",
    "address": "서울특별시 동대문구 회기로 141 (회기동)",
    "phone": "1522-3232",
    "lat": 37.591531,
    "lng": 127.052017,
    "region": "서울특별시",
    "district": "동대문구"
  },
  {
    "name": "스타벅스 답십리역",
    "address": "서울특별시 동대문구 천호대로 263 (답십리동)",
    "phone": "1522-3232",
    "lat": 37.568466,
    "lng": 127.051106,
    "region": "서울특별시",
    "district": "동대문구"
  },
  {
    "name": "스타벅스 이수역13번출구",
    "address": "서울특별시 동작구 동작대로27길 5 (사당동), 1층",
    "phone": "1522-3232",
    "lat": 37.4873371169464,
    "lng": 126.981493294163,
    "region": "서울특별시",
    "district": "동작구"
  },
  {
    "name": "스타벅스 상도대로",
    "address": "서울특별시 동작구 상도로 218 (상도동), 1층",
    "phone": "1522-3232",
    "lat": 37.5050479253333,
    "lng": 126.942893815432,
    "region": "서울특별시",
    "district": "동작구"
  },
  {
    "name": "스타벅스 사당역",
    "address": "서울특별시 동작구 동작대로 21, 양지빌딩 1-3층 (사당동)",
    "phone": "1522-3232",
    "lat": 37.47849216,
    "lng": 126.9813456,
    "region": "서울특별시",
    "district": "동작구"
  },
  {
    "name": "스타벅스 숭실대",
    "address": "서울특별시 동작구 사당로 4 (상도동)",
    "phone": "1522-3232",
    "lat": 37.49538073,
    "lng": 126.9548891,
    "region": "서울특별시",
    "district": "동작구"
  },
  {
    "name": "스타벅스 숭실대입구역",
    "address": "서울특별시 동작구 상도로 354 (상도동)",
    "phone": "1522-3232",
    "lat": 37.4968346,
    "lng": 126.95271230000003,
    "region": "서울특별시",
    "district": "동작구"
  },
  {
    "name": "스타벅스 중앙대",
    "address": "서울특별시 동작구 흑석로 75-1 (흑석동)",
    "phone": "1522-3232",
    "lat": 37.506933,
    "lng": 126.958125,
    "region": "서울특별시",
    "district": "동작구"
  },
  {
    "name": "스타벅스 신대방삼거리역",
    "address": "서울특별시 동작구 상도로 102 (상도동)",
    "phone": "1522-3232",
    "lat": 37.50034872148687,
    "lng": 126.93198758957686,
    "region": "서울특별시",
    "district": "동작구"
  },
  {
    "name": "스타벅스 노량진역",
    "address": "서울특별시 동작구 노량진로 134 (노량진동)",
    "phone": "1522-3232",
    "lat": 37.51339,
    "lng": 126.940879,
    "region": "서울특별시",
    "district": "동작구"
  },
  {
    "name": "스타벅스 이수자이",
    "address": "서울특별시 동작구 사당로 300 (사당동 이수자이)",
    "phone": "1522-3232",
    "lat": 37.484414,
    "lng": 126.980047,
    "region": "서울특별시",
    "district": "동작구"
  },
  {
    "name": "스타벅스 보라매공원R",
    "address": "서울특별시 동작구 보라매로5길 35 (신대방동, 파크스퀘어,보라매현대APT)",
    "phone": "1522-3232",
    "lat": 37.49191014040362,
    "lng": 126.92354836012281,
    "region": "서울특별시",
    "district": "동작구"
  },
  {
    "name": "스타벅스 상도역",
    "address": "서울특별시 동작구 상도로37길 1 (상도1동)",
    "phone": "1522-3232",
    "lat": 37.5031936,
    "lng": 126.9484581,
    "region": "서울특별시",
    "district": "동작구"
  },
  {
    "name": "스타벅스 남성역",
    "address": "서울특별시 동작구 사당로 219 (사당동)",
    "phone": "1522-3232",
    "lat": 37.4841198,
    "lng": 126.9725739,
    "region": "서울특별시",
    "district": "동작구"
  },
  {
    "name": "스타벅스 노량진동",
    "address": "서울특별시 동작구 노량진로 190 (노량진동, 고려교육타워-어바니엘한강) 101호~105호",
    "phone": "1522-3232",
    "lat": 37.513068,
    "lng": 126.946537,
    "region": "서울특별시",
    "district": "동작구"
  },
  {
    "name": "스타벅스 마포구청역",
    "address": "서울특별시 마포구 월드컵로 200 (성산동) 1층 일부",
    "phone": "1522-3232",
    "lat": 37.5649569864623,
    "lng": 126.902554646241,
    "region": "서울특별시",
    "district": "마포구"
  },
  {
    "name": "스타벅스 망원한강공원",
    "address": "서울특별시 마포구 마포나루길 435 (망원동)",
    "phone": "1522-3232",
    "lat": 37.55397484916793,
    "lng": 126.89592784171349,
    "region": "서울특별시",
    "district": "마포구"
  },
  {
    "name": "스타벅스 홍대동교",
    "address": "서울특별시 마포구 양화로 192 (동교동)",
    "phone": "1522-3232",
    "lat": 37.5583280533329,
    "lng": 126.926246501876,
    "region": "서울특별시",
    "district": "마포구"
  },
  {
    "name": "스타벅스 합정푸르지오",
    "address": "서울특별시 마포구 월드컵로3길 14 (합정동, 마포 한강 2차 푸르지오)",
    "phone": "1522-3232",
    "lat": 37.55094290761422,
    "lng": 126.9124826592047,
    "region": "서울특별시",
    "district": "마포구"
  },
  {
    "name": "스타벅스 마포역뉴매드",
    "address": "서울특별시 마포구 마포대로 26 (마포동)",
    "phone": "1522-3232",
    "lat": 37.538988480523095,
    "lng": 126.94549072264988,
    "region": "서울특별시",
    "district": "마포구"
  },
  {
    "name": "스타벅스 홍대역8번출구",
    "address": "서울특별시 마포구 양화로 166 (동교동)",
    "phone": "1522-3232",
    "lat": 37.556743503599,
    "lng": 126.924166543608,
    "region": "서울특별시",
    "district": "마포구"
  },
  {
    "name": "스타벅스 디지털미디어시티역",
    "address": "서울특별시 마포구 성암로 179 (상암동)",
    "phone": "1522-3232",
    "lat": 37.57614872684475,
    "lng": 126.89894785452836,
    "region": "서울특별시",
    "district": "마포구"
  },
  {
    "name": "스타벅스 아현역대로",
    "address": "서울특별시 마포구 신촌로 262 (아현동)",
    "phone": "1522-3232",
    "lat": 37.55717010065948,
    "lng": 126.95490786760611,
    "region": "서울특별시",
    "district": "마포구"
  },
  {
    "name": "스타벅스 합정메세나몰",
    "address": "서울특별시 마포구 양화로 45 (서교동, 메세나폴리스)",
    "phone": "1522-3232",
    "lat": 37.55005846963587,
    "lng": 126.91355876250871,
    "region": "서울특별시",
    "district": "마포구"
  },
  {
    "name": "스타벅스 마포이마트",
    "address": "서울특별시 마포구 백범로 212 (신공덕동) 마포이마트",
    "phone": "1522-3232",
    "lat": 37.542421,
    "lng": 126.953341,
    "region": "서울특별시",
    "district": "마포구"
  },
  {
    "name": "스타벅스 망원역",
    "address": "서울특별시 마포구 월드컵로 74 (서교동)",
    "phone": "1522-3232",
    "lat": 37.555829,
    "lng": 126.910637,
    "region": "서울특별시",
    "district": "마포구"
  },
  {
    "name": "스타벅스 홍대삼거리",
    "address": "서울특별시 마포구 와우산로 64 (상수동)",
    "phone": "1522-3232",
    "lat": 37.55026561183446,
    "lng": 126.9232087107694,
    "region": "서울특별시",
    "district": "마포구"
  },
  {
    "name": "스타벅스 마포아크로",
    "address": "서울특별시 마포구 마포대로 68 (도화동) 마포아크로타워",
    "phone": "1522-3232",
    "lat": 37.5413348427548,
    "lng": 126.948866602054,
    "region": "서울특별시",
    "district": "마포구"
  },
  {
    "name": "스타벅스 마포일진빌딩",
    "address": "서울특별시 마포구 마포대로 45, 일진빌딩 1층 (도화동)",
    "phone": "1522-3232",
    "lat": 37.54043451,
    "lng": 126.9463168,
    "region": "서울특별시",
    "district": "마포구"
  },
  {
    "name": "스타벅스 상암DMC",
    "address": "서울특별시 마포구 월드컵북로 375, DMC이안오피스텔1단지 102호,202호 (상암동)",
    "phone": "1522-3232",
    "lat": 37.57770031657981,
    "lng": 126.8909363638002,
    "region": "서울특별시",
    "district": "마포구"
  },
  {
    "name": "스타벅스 애오개역",
    "address": "서울특별시 마포구 마포대로 201, 마포트라팰리스II (아현동)",
    "phone": "1522-3232",
    "lat": 37.55229378560504,
    "lng": 126.95579352059178,
    "region": "서울특별시",
    "district": "마포구"
  },
  {
    "name": "스타벅스 동교",
    "address": "서울특별시 마포구 월드컵북로 22, 영준빌딩 1층 (동교동)",
    "phone": "1522-3232",
    "lat": 37.556928,
    "lng": 126.919819,
    "region": "서울특별시",
    "district": "마포구"
  },
  {
    "name": "스타벅스 홍대역",
    "address": "서울특별시 마포구 양화로 165, 상진빌딩 1층 (동교동)",
    "phone": "1522-3232",
    "lat": 37.557175,
    "lng": 126.923654,
    "region": "서울특별시",
    "district": "마포구"
  },
  {
    "name": "스타벅스 상암MBC",
    "address": "서울특별시 마포구 성암로 267 (상암동)",
    "phone": "1522-3232",
    "lat": 37.58094223885055,
    "lng": 126.89158543354138,
    "region": "서울특별시",
    "district": "마포구"
  },
  {
    "name": "스타벅스 서강대",
    "address": "서울특별시 마포구 백범로 23 (신수동)",
    "phone": "1522-3232",
    "lat": 37.5524584,
    "lng": 126.9378262,
    "region": "서울특별시",
    "district": "마포구"
  },
  {
    "name": "스타벅스 공덕오거리",
    "address": "서울특별시 마포구 마포대로 86 (도화동) 창강빌딩",
    "phone": "1522-3232",
    "lat": 37.5424641,
    "lng": 126.95057730000008,
    "region": "서울특별시",
    "district": "마포구"
  },
  {
    "name": "스타벅스 상수역",
    "address": "서울특별시 마포구 독막로 88 (상수동)",
    "phone": "1522-3232",
    "lat": 37.5474817,
    "lng": 126.92321579999998,
    "region": "서울특별시",
    "district": "마포구"
  },
  {
    "name": "스타벅스 상암디지털큐브",
    "address": "서울특별시 마포구 상암산로 34",
    "phone": "1522-3232",
    "lat": 37.57613521806125,
    "lng": 126.88892643460335,
    "region": "서울특별시",
    "district": "마포구"
  },
  {
    "name": "스타벅스 신촌오거리",
    "address": "서울특별시 마포구 신촌로16길 10 (노고산동)",
    "phone": "1522-3232",
    "lat": 37.555137,
    "lng": 126.934694,
    "region": "서울특별시",
    "district": "마포구"
  },
  {
    "name": "스타벅스 상암사보이시티",
    "address": "서울특별시 마포구 월드컵북로54길 17 (상암동)",
    "phone": "1522-3232",
    "lat": 37.581462210224295,
    "lng": 126.88878549621795,
    "region": "서울특별시",
    "district": "마포구"
  },
  {
    "name": "스타벅스 서교동사거리",
    "address": "서울특별시 마포구 양화로 105 (서교동)",
    "phone": "1522-3232",
    "lat": 37.553376,
    "lng": 126.918564,
    "region": "서울특별시",
    "district": "마포구"
  },
  {
    "name": "스타벅스 서강대흥역",
    "address": "서울특별시 마포구 백범로 89-5 (대흥동)",
    "phone": "1522-3232",
    "lat": 37.548178,
    "lng": 126.941576,
    "region": "서울특별시",
    "district": "마포구"
  },
  {
    "name": "스타벅스 합정",
    "address": "서울특별시 마포구 월드컵로1길 14 (합정동) 마포한강푸르지오 110, 111, 112-2",
    "phone": "1522-3232",
    "lat": 37.54997888236882,
    "lng": 126.91254036891405,
    "region": "서울특별시",
    "district": "마포구"
  },
  {
    "name": "스타벅스 서강광흥창역",
    "address": "서울특별시 마포구 서강로 69 (창전동)",
    "phone": "1522-3232",
    "lat": 37.549377,
    "lng": 126.931661,
    "region": "서울특별시",
    "district": "마포구"
  },
  {
    "name": "스타벅스 마포염리",
    "address": "서울특별시 마포구 독막로 311 (염리동)",
    "phone": "1522-3232",
    "lat": 37.543876,
    "lng": 126.94768,
    "region": "서울특별시",
    "district": "마포구"
  },
  {
    "name": "스타벅스 홍대공항철도역",
    "address": "서울특별시 마포구 양화로 178 (동교동)",
    "phone": "1522-3232",
    "lat": 37.557491,
    "lng": 126.925146,
    "region": "서울특별시",
    "district": "마포구"
  },
  {
    "name": "스타벅스 합정폴리스R",
    "address": "서울특별시 마포구 양화로 45 (서교동, 메세나폴리스)",
    "phone": "1522-3232",
    "lat": 37.5509,
    "lng": 126.9134,
    "region": "서울특별시",
    "district": "마포구"
  },
  {
    "name": "스타벅스 공덕",
    "address": "서울특별시 마포구 마포대로 130 (공덕동)",
    "phone": "1522-3232",
    "lat": 37.545913,
    "lng": 126.952956,
    "region": "서울특별시",
    "district": "마포구"
  },
  {
    "name": "스타벅스 마포경찰서후문",
    "address": "서울특별시 마포구 마포대로 173-14 (아현동)",
    "phone": "1522-3232",
    "lat": 37.5508,
    "lng": 126.953432,
    "region": "서울특별시",
    "district": "마포구"
  },
  {
    "name": "스타벅스 홍대입구역사거리R",
    "address": "서울특별시 마포구 양화로 125 (서교동)",
    "phone": "1522-3232",
    "lat": 37.554636,
    "lng": 126.92036,
    "region": "서울특별시",
    "district": "마포구"
  },
  {
    "name": "스타벅스 마포용강동",
    "address": "서울특별시 마포구 토정로 295 (용강동)",
    "phone": "1522-3232",
    "lat": 37.541186,
    "lng": 126.942209,
    "region": "서울특별시",
    "district": "마포구"
  },
  {
    "name": "스타벅스 상암YTN",
    "address": "서울특별시 마포구 상암산로 76 (상암동)",
    "phone": "1522-3232",
    "lat": 37.579314265546294,
    "lng": 126.89221044590168,
    "region": "서울특별시",
    "district": "마포구"
  },
  {
    "name": "스타벅스 서강대프라자",
    "address": "서울특별시 마포구 백범로 35 (신수동)",
    "phone": "1522-3232",
    "lat": 37.55102696988243,
    "lng": 126.94313374835716,
    "region": "서울특별시",
    "district": "마포구"
  },
  {
    "name": "스타벅스 현대신촌",
    "address": "서울특별시 서대문구 신촌로 83 (창천동)",
    "phone": "1522-3232",
    "lat": 37.55592458080376,
    "lng": 126.93569449086847,
    "region": "서울특별시",
    "district": "서대문구"
  },
  {
    "name": "스타벅스 연희동",
    "address": "서울특별시 서대문구 연희로 79 (연희동)",
    "phone": "1522-3232",
    "lat": 37.5654550624029,
    "lng": 126.929552728948,
    "region": "서울특별시",
    "district": "서대문구"
  },
  {
    "name": "스타벅스 연세암병원",
    "address": "서울특별시 서대문구 연세로 50-1 (신촌동)",
    "phone": "1522-3232",
    "lat": 37.56046655095749,
    "lng": 126.93745338050667,
    "region": "서울특별시",
    "district": "서대문구"
  },
  {
    "name": "스타벅스 북가좌DT",
    "address": "서울특별시 서대문구 응암로 85 (북가좌동)",
    "phone": "1522-3232",
    "lat": 37.580758,
    "lng": 126.911478,
    "region": "서울특별시",
    "district": "서대문구"
  },
  {
    "name": "스타벅스 신촌로",
    "address": "서울특별시 서대문구 신촌로 109 (창천동)",
    "phone": "1522-3232",
    "lat": 37.55580883425132,
    "lng": 126.93828627236182,
    "region": "서울특별시",
    "district": "서대문구"
  },
  {
    "name": "스타벅스 이대역",
    "address": "서울특별시 서대문구 신촌로 183 (대현동)",
    "phone": "1522-3232",
    "lat": 37.55702459539767,
    "lng": 126.94630659955033,
    "region": "서울특별시",
    "district": "서대문구"
  },
  {
    "name": "스타벅스 명지대",
    "address": "서울특별시 서대문구 거북골로 34 (남가좌동)",
    "phone": "1522-3232",
    "lat": 37.579040898408955,
    "lng": 126.92278859674575,
    "region": "서울특별시",
    "district": "서대문구"
  },
  {
    "name": "스타벅스 충정타워",
    "address": "서울특별시 서대문구 서소문로 21, 충정타워빌딩 1층 (충정로3가)",
    "phone": "1522-3232",
    "lat": 37.559869,
    "lng": 126.96411,
    "region": "서울특별시",
    "district": "서대문구"
  },
  {
    "name": "스타벅스 신촌명물거리",
    "address": "서울특별시 서대문구 명물길 24, 1-5층 (창천동)",
    "phone": "1522-3232",
    "lat": 37.557768434,
    "lng": 126.938154503,
    "region": "서울특별시",
    "district": "서대문구"
  },
  {
    "name": "스타벅스 연대동문",
    "address": "서울특별시 서대문구 성산로 565 (대신동)",
    "phone": "1522-3232",
    "lat": 37.56648507,
    "lng": 126.9463253,
    "region": "서울특별시",
    "district": "서대문구"
  },
  {
    "name": "스타벅스 충정로역",
    "address": "서울특별시 서대문구 충정로 23",
    "phone": "1522-3232",
    "lat": 37.56137,
    "lng": 126.963219,
    "region": "서울특별시",
    "district": "서대문구"
  },
  {
    "name": "스타벅스 연대",
    "address": "서울특별시 서대문구 연세로 35 (창천동)",
    "phone": "1522-3232",
    "lat": 37.558706,
    "lng": 126.936727,
    "region": "서울특별시",
    "district": "서대문구"
  },
  {
    "name": "스타벅스 이대ECC",
    "address": "서울특별시 서대문구 이화여대길 52 (대현동) 이화여자대학교 B415호",
    "phone": "1522-3232",
    "lat": 37.561631,
    "lng": 126.94735,
    "region": "서울특별시",
    "district": "서대문구"
  },
  {
    "name": "스타벅스 연세종합관",
    "address": "서울특별시 서대문구 연세로 50, 연세세브란스 종합관 (신촌동)",
    "phone": "1522-3232",
    "lat": 37.561468543,
    "lng": 126.941119654,
    "region": "서울특별시",
    "district": "서대문구"
  },
  {
    "name": "스타벅스 이대",
    "address": "서울특별시 서대문구 이화여대길 34 (대현동)",
    "phone": "1522-3232",
    "lat": 37.55848315,
    "lng": 126.9459643,
    "region": "서울특별시",
    "district": "서대문구"
  },
  {
    "name": "스타벅스 신촌",
    "address": "서울특별시 서대문구 연세로 10-1 (창천동)",
    "phone": "1522-3232",
    "lat": 37.556501906944405,
    "lng": 126.93697004216074,
    "region": "서울특별시",
    "district": "서대문구"
  },
  {
    "name": "스타벅스 경기대",
    "address": "서울특별시 서대문구 충정로 53 (충정로2가)",
    "phone": "1522-3232",
    "lat": 37.56367995,
    "lng": 126.9646045,
    "region": "서울특별시",
    "district": "서대문구"
  },
  {
    "name": "스타벅스 연희DT",
    "address": "서울특별시 서대문구 연희로 144 (연희동)",
    "phone": "1522-3232",
    "lat": 37.5702143,
    "lng": 126.9339777,
    "region": "서울특별시",
    "district": "서대문구"
  },
  {
    "name": "스타벅스 연세백양로",
    "address": "서울특별시 서대문구 연세로 50 (신촌동) 연세대학교",
    "phone": "1522-3232",
    "lat": 37.562874457,
    "lng": 126.937440049,
    "region": "서울특별시",
    "district": "서대문구"
  },
  {
    "name": "스타벅스 홍제역",
    "address": "서울특별시 서대문구 통일로 451 (홍제동)",
    "phone": "1522-3232",
    "lat": 37.588658,
    "lng": 126.943864,
    "region": "서울특별시",
    "district": "서대문구"
  },
  {
    "name": "스타벅스 아현역",
    "address": "서울특별시 서대문구 신촌로35길 10 (북아현동, e편한세상신촌 4단지)",
    "phone": "1522-3232",
    "lat": 37.558245014814666,
    "lng": 126.95616914989029,
    "region": "서울특별시",
    "district": "서대문구"
  },
  {
    "name": "스타벅스 신촌역",
    "address": "서울특별시 서대문구 신촌로 73 (창천동)",
    "phone": "1522-3232",
    "lat": 37.55625738,
    "lng": 126.934653,
    "region": "서울특별시",
    "district": "서대문구"
  },
  {
    "name": "스타벅스 남가좌사거리",
    "address": "서울특별시 서대문구 거북골로 84 (남가좌동, DMC에코자이104동)",
    "phone": "1522-3232",
    "lat": 37.577386,
    "lng": 126.920815,
    "region": "서울특별시",
    "district": "서대문구"
  },
  {
    "name": "스타벅스 가재울뉴타운",
    "address": "서울특별시 서대문구 가재울미래로 2 (남가좌동, DMC파크뷰자이2단지별동상가1층)",
    "phone": "1522-3232",
    "lat": 37.57507214454173,
    "lng": 126.91635993282007,
    "region": "서울특별시",
    "district": "서대문구"
  },
  {
    "name": "스타벅스 서울웨이브아트센터",
    "address": "서울특별시 서초구 잠원로 145-35 (잠원동)",
    "phone": "1522-3232",
    "lat": 37.518807,
    "lng": 127.00704,
    "region": "서울특별시",
    "district": "서초구"
  },
  {
    "name": "스타벅스 대륭서초타워",
    "address": "서울특별시 서초구 강남대로 327 (서초동)",
    "phone": "1522-3232",
    "lat": 37.492079729366196,
    "lng": 127.03001929643271,
    "region": "서울특별시",
    "district": "서초구"
  },
  {
    "name": "스타벅스 강남르피에드",
    "address": "서울특별시 서초구 서운로 136 (서초동), 1층 1호,2호,3호,4호",
    "phone": "1522-3232",
    "lat": 37.4956746205474,
    "lng": 127.025161328523,
    "region": "서울특별시",
    "district": "서초구"
  },
  {
    "name": "스타벅스 동작대로",
    "address": "서울특별시 서초구 동작대로 72 (방배동)",
    "phone": "1522-3232",
    "lat": 37.4829997962039,
    "lng": 126.982366878842,
    "region": "서울특별시",
    "district": "서초구"
  },
  {
    "name": "스타벅스 서이초교사거리",
    "address": "서울특별시 서초구 사임당로 143 (서초동)",
    "phone": "1522-3232",
    "lat": 37.4918146,
    "lng": 127.0252252,
    "region": "서울특별시",
    "district": "서초구"
  },
  {
    "name": "스타벅스 강남역5번출구호정빌딩",
    "address": "서울특별시 서초구 서초대로78길 38 (서초동)",
    "phone": "1522-3232",
    "lat": 37.49454215600861,
    "lng": 127.0282986178732,
    "region": "서울특별시",
    "district": "서초구"
  },
  {
    "name": "스타벅스 신논현역",
    "address": "서울특별시 서초구 사평대로 367 (반포동), 1층",
    "phone": "1522-3232",
    "lat": 37.5043755164343,
    "lng": 127.023102504191,
    "region": "서울특별시",
    "district": "서초구"
  },
  {
    "name": "스타벅스 양재하나로마트",
    "address": "서울특별시 서초구 청계산로 10 (양재동)",
    "phone": "1522-3232",
    "lat": 37.462361,
    "lng": 127.043181,
    "region": "서울특별시",
    "district": "서초구"
  },
  {
    "name": "스타벅스 남부순환로방배DT",
    "address": "서울특별시 서초구 남부순환로 2230 (방배동)",
    "phone": "1522-3232",
    "lat": 37.47325689751075,
    "lng": 126.99600935915565,
    "region": "서울특별시",
    "district": "서초구"
  },
  {
    "name": "스타벅스 강남역우송빌딩",
    "address": "서울특별시 서초구 서초대로73길 7 (서초동)",
    "phone": "1522-3232",
    "lat": 37.4981314601413,
    "lng": 127.02527908458,
    "region": "서울특별시",
    "district": "서초구"
  },
  {
    "name": "스타벅스 양재역신분당역사",
    "address": "서울특별시 서초구 남부순환로 2585 신분당선 양재역 지하1층 12호(7번출구쪽)",
    "phone": "1522-3232",
    "lat": 37.4839347328908,
    "lng": 127.034544193436,
    "region": "서울특별시",
    "district": "서초구"
  },
  {
    "name": "스타벅스 반포원베일리",
    "address": "서울특별시 서초구 반포대로 291 (반포동)",
    "phone": "1522-3232",
    "lat": 37.504657083267006,
    "lng": 126.99903302367885,
    "region": "서울특별시",
    "district": "서초구"
  },
  {
    "name": "스타벅스 교대역3번출구",
    "address": "서울특별시 서초구 서초중앙로24길 10 (서초동)",
    "phone": "1522-3232",
    "lat": 37.4943456632732,
    "lng": 127.014900469688,
    "region": "서울특별시",
    "district": "서초구"
  },
  {
    "name": "스타벅스 서초태우빌딩",
    "address": "서울특별시 서초구 강남대로 285 (서초동)",
    "phone": "1522-3232",
    "lat": 37.48870504886586,
    "lng": 127.03158117446388,
    "region": "서울특별시",
    "district": "서초구"
  },
  {
    "name": "스타벅스 반포자이",
    "address": "서울특별시 서초구 잠원로 24 (반포동)",
    "phone": "1522-3232",
    "lat": 37.507170475349405,
    "lng": 127.0099189083483,
    "region": "서울특별시",
    "district": "서초구"
  },
  {
    "name": "스타벅스 강남역7번출구",
    "address": "서울특별시 서초구 강남대로 385 (서초동)",
    "phone": "1522-3232",
    "lat": 37.4970606789351,
    "lng": 127.02741184949288,
    "region": "서울특별시",
    "district": "서초구"
  },
  {
    "name": "스타벅스 서초우면",
    "address": "서울특별시 서초구 태봉로 62 (우면동)",
    "phone": "1522-3232",
    "lat": 37.4640476055239,
    "lng": 127.02502435253,
    "region": "서울특별시",
    "district": "서초구"
  },
  {
    "name": "스타벅스 강남에비뉴",
    "address": "서울특별시 서초구 서초대로77길 62, 강남역아이파크 B102~B105 (서초동)",
    "phone": "1522-3232",
    "lat": 37.5025778098288,
    "lng": 127.024105881331,
    "region": "서울특별시",
    "district": "서초구"
  },
  {
    "name": "스타벅스 서울교대",
    "address": "서울특별시 서초구 서초중앙로 64, 1층 (서초동)",
    "phone": "1522-3232",
    "lat": 37.4874556,
    "lng": 127.0152554,
    "region": "서울특별시",
    "district": "서초구"
  },
  {
    "name": "스타벅스 서초동",
    "address": "서울특별시 서초구 남부순환로339길 64, 현우빌딩 1층 (서초동)",
    "phone": "1522-3232",
    "lat": 37.485941,
    "lng": 127.021525,
    "region": "서울특별시",
    "district": "서초구"
  },
  {
    "name": "스타벅스 강남GT타워",
    "address": "서울특별시 서초구 서초대로 411, GT타워 (서초동)",
    "phone": "1522-3232",
    "lat": 37.4979079083082,
    "lng": 127.026162553761,
    "region": "서울특별시",
    "district": "서초구"
  },
  {
    "name": "스타벅스 교대법원",
    "address": "서울특별시 서초구 서초중앙로 164 (서초동)",
    "phone": "1522-3232",
    "lat": 37.496329,
    "lng": 127.013336,
    "region": "서울특별시",
    "district": "서초구"
  },
  {
    "name": "스타벅스 서초역",
    "address": "서울특별시 서초구 반포대로 118 (서초동)",
    "phone": "1522-3232",
    "lat": 37.49067495,
    "lng": 127.0086118,
    "region": "서울특별시",
    "district": "서초구"
  },
  {
    "name": "스타벅스 몬테소리",
    "address": "서울특별시 서초구 강남대로 399 (서초동)",
    "phone": "1522-3232",
    "lat": 37.4982695,
    "lng": 127.026865,
    "region": "서울특별시",
    "district": "서초구"
  },
  {
    "name": "스타벅스 서래마을입구",
    "address": "서울특별시 서초구 서래로 48 (반포동)",
    "phone": "1522-3232",
    "lat": 37.49925284,
    "lng": 126.9984801,
    "region": "서울특별시",
    "district": "서초구"
  },
  {
    "name": "스타벅스 남부터미널역5번출구",
    "address": "서울특별시 서초구 효령로 274 (서초동)",
    "phone": "1522-3232",
    "lat": 37.48436736,
    "lng": 127.0142192,
    "region": "서울특별시",
    "district": "서초구"
  },
  {
    "name": "스타벅스 영동2교",
    "address": "서울특별시 서초구 논현로 139, 대흥빌딩 (양재동)",
    "phone": "1522-3232",
    "lat": 37.48203954,
    "lng": 127.0425748,
    "region": "서울특별시",
    "district": "서초구"
  },
  {
    "name": "스타벅스 하이브랜드",
    "address": "서울특별시 서초구 매헌로 16, 리빙관 101호 (양재동)",
    "phone": "1522-3232",
    "lat": 37.46252023465575,
    "lng": 127.03666795290289,
    "region": "서울특별시",
    "district": "서초구"
  },
  {
    "name": "스타벅스 교대",
    "address": "서울특별시 서초구 서초중앙로 118 (서초동)",
    "phone": "1522-3232",
    "lat": 37.4923611,
    "lng": 127.0142207,
    "region": "서울특별시",
    "district": "서초구"
  },
  {
    "name": "스타벅스 강남서초초교",
    "address": "서울특별시 서초구 서초대로77길 27, 유빌딩 1,2층 (서초동)",
    "phone": "1522-3232",
    "lat": 37.5000875,
    "lng": 127.02549090000002,
    "region": "서울특별시",
    "district": "서초구"
  },
  {
    "name": "스타벅스 뉴코아강남",
    "address": "서울특별시 서초구 잠원로 69 (잠원동) 킴스클럽",
    "phone": "1522-3232",
    "lat": 37.51031339,
    "lng": 127.0069582,
    "region": "서울특별시",
    "district": "서초구"
  },
  {
    "name": "스타벅스 남부터미널",
    "address": "서울특별시 서초구 서초중앙로 26, 래미안서초유니빌 1층 101호 (서초동)",
    "phone": "1522-3232",
    "lat": 37.48467334,
    "lng": 127.0169464,
    "region": "서울특별시",
    "district": "서초구"
  },
  {
    "name": "스타벅스 반포역",
    "address": "서울특별시 서초구 신반포로 257 (잠원동) 신반포11차상가",
    "phone": "1522-3232",
    "lat": 37.508589,
    "lng": 127.011959,
    "region": "서울특별시",
    "district": "서초구"
  },
  {
    "name": "스타벅스 방배역",
    "address": "서울특별시 서초구 방배로 84 (방배동)",
    "phone": "1522-3232",
    "lat": 37.48200755,
    "lng": 126.9976438,
    "region": "서울특별시",
    "district": "서초구"
  },
  {
    "name": "스타벅스 센트럴시티",
    "address": "서울특별시 서초구 신반포로 176 (반포동)",
    "phone": "1522-3232",
    "lat": 37.504707,
    "lng": 127.004459,
    "region": "서울특별시",
    "district": "서초구"
  },
  {
    "name": "스타벅스 서초중앙로",
    "address": "서울특별시 서초구 서초중앙로 225",
    "phone": "1522-3232",
    "lat": 37.501691,
    "lng": 127.01152,
    "region": "서울특별시",
    "district": "서초구"
  },
  {
    "name": "스타벅스 서울아트센터",
    "address": "서울특별시 서초구 남부순환로 2395 (서초동) 호경빌딩",
    "phone": "1522-3232",
    "lat": 37.480866,
    "lng": 127.012368,
    "region": "서울특별시",
    "district": "서초구"
  },
  {
    "name": "스타벅스 서초파라곤",
    "address": "서울특별시 서초구 서초대로74길 29 (서초동) 서초파라곤",
    "phone": "1522-3232",
    "lat": 37.49494258899,
    "lng": 127.027426341397,
    "region": "서울특별시",
    "district": "서초구"
  },
  {
    "name": "스타벅스 내방역",
    "address": "서울특별시 서초구 방배로 184 (방배동) 대풍빌딩",
    "phone": "1522-3232",
    "lat": 37.490004,
    "lng": 126.992455,
    "region": "서울특별시",
    "district": "서초구"
  },
  {
    "name": "스타벅스 이수역",
    "address": "서울특별시 서초구 동작대로 112 (방배동)",
    "phone": "1522-3232",
    "lat": 37.4864664,
    "lng": 126.98274029999993,
    "region": "서울특별시",
    "district": "서초구"
  },
  {
    "name": "스타벅스 논현역",
    "address": "서울특별시 서초구 강남대로 557 (잠원동) 1~2층",
    "phone": "1522-3232",
    "lat": 37.5114376142061,
    "lng": 127.020548691552,
    "region": "서울특별시",
    "district": "서초구"
  },
  {
    "name": "스타벅스 양재역",
    "address": "서울특별시 서초구 강남대로 202 (양재동) 모산빌딩",
    "phone": "1522-3232",
    "lat": 37.482379525,
    "lng": 127.036853356,
    "region": "서울특별시",
    "district": "서초구"
  },
  {
    "name": "스타벅스 파미에파크R",
    "address": "서울특별시 서초구 사평대로 205 (반포동) CENTRALCITY",
    "phone": "1522-3232",
    "lat": 37.5030521,
    "lng": 127.004362,
    "region": "서울특별시",
    "district": "서초구"
  },
  {
    "name": "스타벅스 사당로데오",
    "address": "서울특별시 서초구 방배천로 5-4(방배동)",
    "phone": "1522-3232",
    "lat": 37.4772752,
    "lng": 126.98216049999996,
    "region": "서울특별시",
    "district": "서초구"
  },
  {
    "name": "스타벅스 청계산입구역",
    "address": "서울특별시 서초구 청계산로 203 (신원동)",
    "phone": "1522-3232",
    "lat": 37.447323,
    "lng": 127.05625,
    "region": "서울특별시",
    "district": "서초구"
  },
  {
    "name": "스타벅스 서초법원",
    "address": "서울특별시 서초구 서초대로 274 (서초동)",
    "phone": "1522-3232",
    "lat": 37.492881,
    "lng": 127.01208,
    "region": "서울특별시",
    "district": "서초구"
  },
  {
    "name": "스타벅스 방배카페거리",
    "address": "서울특별시 서초구 방배중앙로 162 (방배동)",
    "phone": "1522-3232",
    "lat": 37.4934767,
    "lng": 126.9865297,
    "region": "서울특별시",
    "district": "서초구"
  },
  {
    "name": "스타벅스 방배",
    "address": "서울특별시 서초구 방배로 211",
    "phone": "1522-3232",
    "lat": 37.491914,
    "lng": 126.99049739999998,
    "region": "서울특별시",
    "district": "서초구"
  },
  {
    "name": "스타벅스 서울고속터미널",
    "address": "서울특별시 서초구 신반포로 194 (반포동)",
    "phone": "1522-3232",
    "lat": 37.5045697,
    "lng": 127.0061603,
    "region": "서울특별시",
    "district": "서초구"
  },
  {
    "name": "스타벅스 강남대로신사",
    "address": "서울특별시 서초구 강남대로 595 (잠원동)",
    "phone": "1522-3232",
    "lat": 37.51489,
    "lng": 127.019469,
    "region": "서울특별시",
    "district": "서초구"
  },
  {
    "name": "스타벅스 이수역사거리",
    "address": "서울특별시 서초구 서초대로 3-4 (방배동, 방배디오슈페리움1)",
    "phone": "1522-3232",
    "lat": 37.48585,
    "lng": 126.983027,
    "region": "서울특별시",
    "district": "서초구"
  },
  {
    "name": "스타벅스 서초우성사거리",
    "address": "서울특별시 서초구 강남대로 343 (서초동)",
    "phone": "1522-3232",
    "lat": 37.493545,
    "lng": 127.02943,
    "region": "서울특별시",
    "district": "서초구"
  },
  {
    "name": "스타벅스 서초구청",
    "address": "서울특별시 서초구 남부순환로 2557 (서초동)",
    "phone": "1522-3232",
    "lat": 37.484353839,
    "lng": 127.030090489,
    "region": "서울특별시",
    "district": "서초구"
  },
  {
    "name": "스타벅스 서초역이화빌딩",
    "address": "서울특별시 서초구 반포대로21길 3 (서초동)",
    "phone": "1522-3232",
    "lat": 37.488356,
    "lng": 127.009058,
    "region": "서울특별시",
    "district": "서초구"
  },
  {
    "name": "스타벅스 센트럴F1",
    "address": "서울특별시 서초구 신반포로 176 (반포동)",
    "phone": "1522-3232",
    "lat": 37.505148,
    "lng": 127.004395,
    "region": "서울특별시",
    "district": "서초구"
  },
  {
    "name": "스타벅스 방배다이치빌딩",
    "address": "서울특별시 서초구 방배로 114 (방배동)",
    "phone": "1522-3232",
    "lat": 37.48431,
    "lng": 126.996075,
    "region": "서울특별시",
    "district": "서초구"
  },
  {
    "name": "스타벅스 강남교보타워R",
    "address": "서울특별시 서초구 강남대로 465 (서초동)",
    "phone": "1522-3232",
    "lat": 37.5037107773698,
    "lng": 127.024335263404,
    "region": "서울특별시",
    "district": "서초구"
  },
  {
    "name": "스타벅스 방배로",
    "address": "서울특별시 서초구 방배로 52 (방배동)",
    "phone": "1522-3232",
    "lat": 37.4793434,
    "lng": 126.9994968,
    "region": "서울특별시",
    "district": "서초구"
  },
  {
    "name": "스타벅스 성수낙낙",
    "address": "서울특별시 성동구 광나루로8길 31 (성수동2가) 성수낙낙 1층 101~107호",
    "phone": "1522-3232",
    "lat": 37.547326,
    "lng": 127.066367,
    "region": "서울특별시",
    "district": "성동구"
  },
  {
    "name": "스타벅스 옥수",
    "address": "서울특별시 성동구 독서당로 202 (옥수동)",
    "phone": "1522-3232",
    "lat": 37.5430298,
    "lng": 127.0133661,
    "region": "서울특별시",
    "district": "성동구"
  },
  {
    "name": "스타벅스 성수",
    "address": "서울특별시 성동구 아차산로 104 (성수동2가)",
    "phone": "1522-3232",
    "lat": 37.5444620830457,
    "lng": 127.055413311106,
    "region": "서울특별시",
    "district": "성동구"
  },
  {
    "name": "스타벅스 왕십리역9번출구",
    "address": "서울특별시 성동구 고산자로 234 (행당동)",
    "phone": "1522-3232",
    "lat": 37.5605427226347,
    "lng": 127.035267332652,
    "region": "서울특별시",
    "district": "성동구"
  },
  {
    "name": "스타벅스 한양대복지관",
    "address": "서울특별시 성동구 왕십리로 222 (사근동) 한양대학교 복지관",
    "phone": "1522-3232",
    "lat": 37.556350643189596,
    "lng": 127.0438976453535,
    "region": "서울특별시",
    "district": "성동구"
  },
  {
    "name": "스타벅스 뚝섬역교차로",
    "address": "서울특별시 성동구 아차산로 6 (성수동1가)",
    "phone": "1522-3232",
    "lat": 37.547754922352,
    "lng": 127.045142362137,
    "region": "서울특별시",
    "district": "성동구"
  },
  {
    "name": "스타벅스 신금호역",
    "address": "서울특별시 성동구 금호로 158-1 (금호동1가) 1~5층 전체",
    "phone": "1522-3232",
    "lat": 37.55495378704588,
    "lng": 127.02011077314177,
    "region": "서울특별시",
    "district": "성동구"
  },
  {
    "name": "스타벅스 엔터식스",
    "address": "서울특별시 성동구 왕십리광장로 17 (행당동)",
    "phone": "1522-3232",
    "lat": 37.561863,
    "lng": 127.037852,
    "region": "서울특별시",
    "district": "성동구"
  },
  {
    "name": "스타벅스 한양대",
    "address": "서울특별시 성동구 왕십리로 225 (행당동) 1,2층",
    "phone": "1522-3232",
    "lat": 37.55726984,
    "lng": 127.0421649,
    "region": "서울특별시",
    "district": "성동구"
  },
  {
    "name": "스타벅스 왕십리역",
    "address": "서울특별시 성동구 왕십리로 326 (도선동)",
    "phone": "1522-3232",
    "lat": 37.5627541,
    "lng": 127.0339072,
    "region": "서울특별시",
    "district": "성동구"
  },
  {
    "name": "스타벅스 상왕십리역",
    "address": "서울특별시 성동구 왕십리로 382 (하왕십리동)",
    "phone": "1522-3232",
    "lat": 37.564975755144424,
    "lng": 127.0280649078034,
    "region": "서울특별시",
    "district": "성동구"
  },
  {
    "name": "스타벅스 성수역",
    "address": "서울특별시 성동구 성수이로 94 (성수동2가)",
    "phone": "1522-3232",
    "lat": 37.543193,
    "lng": 127.056943,
    "region": "서울특별시",
    "district": "성동구"
  },
  {
    "name": "스타벅스 황학사거리",
    "address": "서울특별시 성동구 왕십리로 410 (하왕십리동, 센트라스)",
    "phone": "1522-3232",
    "lat": 37.567598,
    "lng": 127.023713,
    "region": "서울특별시",
    "district": "성동구"
  },
  {
    "name": "스타벅스 뚝섬역",
    "address": "서울특별시 성동구 아차산로 42 (성수동1가)",
    "phone": "1522-3232",
    "lat": 37.546432,
    "lng": 127.049042,
    "region": "서울특별시",
    "district": "성동구"
  },
  {
    "name": "스타벅스 금호역",
    "address": "서울특별시 성동구 동호로 99 (금호동4가)",
    "phone": "1522-3232",
    "lat": 37.54795819607987,
    "lng": 127.01576347145759,
    "region": "서울특별시",
    "district": "성동구"
  },
  {
    "name": "스타벅스 서울숲역",
    "address": "서울특별시 성동구 왕십리로 50 (성수동1가) 1층",
    "phone": "1522-3232",
    "lat": 37.541868967552624,
    "lng": 127.04489904228213,
    "region": "서울특별시",
    "district": "성동구"
  },
  {
    "name": "스타벅스 성신여대입구역",
    "address": "서울특별시 성북구 동소문로 105 (동선동4가)",
    "phone": "1522-3232",
    "lat": 37.593036,
    "lng": 127.01665,
    "region": "서울특별시",
    "district": "성북구"
  },
  {
    "name": "스타벅스 장위뉴타운",
    "address": "서울특별시 성북구 장월로38길 4 (장위동)",
    "phone": "1522-3232",
    "lat": 37.618072316295915,
    "lng": 127.05152854027804,
    "region": "서울특별시",
    "district": "성북구"
  },
  {
    "name": "스타벅스 고대안암병원",
    "address": "서울특별시 성북구 고려대로 73 (안암동5가)",
    "phone": "1522-3232",
    "lat": 37.586874,
    "lng": 127.02811,
    "region": "서울특별시",
    "district": "성북구"
  },
  {
    "name": "스타벅스 길음뉴타운",
    "address": "서울특별시 성북구 길음로 11 (길음동, 길음역롯데캐슬트윈골드아파트)",
    "phone": "1522-3232",
    "lat": 37.603633,
    "lng": 127.023459,
    "region": "서울특별시",
    "district": "성북구"
  },
  {
    "name": "스타벅스 한성대입구역",
    "address": "서울특별시 성북구 성북로 11 (성북동1가)",
    "phone": "1522-3232",
    "lat": 37.5890412145186,
    "lng": 127.004897965888,
    "region": "서울특별시",
    "district": "성북구"
  },
  {
    "name": "스타벅스 안암역",
    "address": "서울특별시 성북구 고려대로 102-2 (안암동5가)",
    "phone": "1522-3232",
    "lat": 37.586319,
    "lng": 127.030556,
    "region": "서울특별시",
    "district": "성북구"
  },
  {
    "name": "스타벅스 성신여대",
    "address": "서울특별시 성북구 동소문로24길 12 (동선동1가)",
    "phone": "1522-3232",
    "lat": 37.593135,
    "lng": 127.018379,
    "region": "서울특별시",
    "district": "성북구"
  },
  {
    "name": "스타벅스 현대미아",
    "address": "서울특별시 성북구 동소문로 315 (길음동) 지하1층",
    "phone": "1522-3232",
    "lat": 37.608513711399176,
    "lng": 127.02917698842086,
    "region": "서울특별시",
    "district": "성북구"
  },
  {
    "name": "스타벅스 고대",
    "address": "서울특별시 성북구 고려대로24길 51 (안암동5가)",
    "phone": "1522-3232",
    "lat": 37.583925,
    "lng": 127.029594,
    "region": "서울특별시",
    "district": "성북구"
  },
  {
    "name": "스타벅스 월곡역",
    "address": "서울특별시 성북구 화랑로 76, 101-1호 (하월곡동)",
    "phone": "1522-3232",
    "lat": 37.60203,
    "lng": 127.040643,
    "region": "서울특별시",
    "district": "성북구"
  },
  {
    "name": "스타벅스 삼선교",
    "address": "서울특별시 성북구 동소문로 10 (동소문동2가)",
    "phone": "1522-3232",
    "lat": 37.588696,
    "lng": 127.00732070000004,
    "region": "서울특별시",
    "district": "성북구"
  },
  {
    "name": "스타벅스 종암",
    "address": "서울특별시 성북구 종암로 122 (종암동)",
    "phone": "1522-3232",
    "lat": 37.601095,
    "lng": 127.033847,
    "region": "서울특별시",
    "district": "성북구"
  },
  {
    "name": "스타벅스 성신여대정문",
    "address": "서울특별시 성북구 보문로34길 62 (동선동2가)",
    "phone": "1522-3232",
    "lat": 37.59091,
    "lng": 127.0188,
    "region": "서울특별시",
    "district": "성북구"
  },
  {
    "name": "스타벅스 미아",
    "address": "서울특별시 성북구 동소문로 314 (하월곡동)",
    "phone": "1522-3232",
    "lat": 37.607581,
    "lng": 127.029303,
    "region": "서울특별시",
    "district": "성북구"
  },
  {
    "name": "스타벅스 종암DT",
    "address": "서울특별시 성북구 종암로 17 (종암동)",
    "phone": "1522-3232",
    "lat": 37.5919525,
    "lng": 127.0360401,
    "region": "서울특별시",
    "district": "성북구"
  },
  {
    "name": "스타벅스 미아이마트",
    "address": "서울특별시 성북구 도봉로 17 (길음동)",
    "phone": "1522-3232",
    "lat": 37.61054298669914,
    "lng": 127.02998756720751,
    "region": "서울특별시",
    "district": "성북구"
  },
  {
    "name": "스타벅스 길음역",
    "address": "서울특별시 성북구 정릉로 376 (돈암동)",
    "phone": "1522-3232",
    "lat": 37.602139,
    "lng": 127.025271,
    "region": "서울특별시",
    "district": "성북구"
  },
  {
    "name": "스타벅스 송파마천사거리DT",
    "address": "서울특별시 송파구 거마로 78 (마천동)",
    "phone": "1522-3232",
    "lat": 37.499829,
    "lng": 127.147672,
    "region": "서울특별시",
    "district": "송파구"
  },
  {
    "name": "스타벅스 문정법조타운 한양타워",
    "address": "서울특별시 송파구 법원로11길 12 (문정동)",
    "phone": "1522-3232",
    "lat": 37.485796586165364,
    "lng": 127.11781422446037,
    "region": "서울특별시",
    "district": "송파구"
  },
  {
    "name": "스타벅스 송파KT",
    "address": "서울특별시 송파구 잠실로 209 (신천동), 오피스빌딩 1층 2~4호",
    "phone": "1522-3232",
    "lat": 37.51394208,
    "lng": 127.10699228,
    "region": "서울특별시",
    "district": "송파구"
  },
  {
    "name": "스타벅스 잠실학원사거리",
    "address": "서울특별시 송파구 삼전로 102 (삼전동)",
    "phone": "1522-3232",
    "lat": 37.5073157,
    "lng": 127.0909887,
    "region": "서울특별시",
    "district": "송파구"
  },
  {
    "name": "스타벅스 몽촌토성역",
    "address": "서울특별시 송파구 위례성대로 6 (방이동)",
    "phone": "1522-3232",
    "lat": 37.516913,
    "lng": 127.113127,
    "region": "서울특별시",
    "district": "송파구"
  },
  {
    "name": "스타벅스 송파거여역",
    "address": "서울특별시 송파구 오금로 493 (거여동)",
    "phone": "1522-3232",
    "lat": 37.49360000716603,
    "lng": 127.14364544756283,
    "region": "서울특별시",
    "district": "송파구"
  },
  {
    "name": "스타벅스 잠실트리지움",
    "address": "서울특별시 송파구 석촌호수로 61 (잠실동)",
    "phone": "1522-3232",
    "lat": 37.5109647,
    "lng": 127.0861225,
    "region": "서울특별시",
    "district": "송파구"
  },
  {
    "name": "스타벅스 송파NC",
    "address": "서울특별시 송파구 충민로 66 (문정동)  가든파이브라이프 패션관1층",
    "phone": "1522-3232",
    "lat": 37.47804418570353,
    "lng": 127.12580079741947,
    "region": "서울특별시",
    "district": "송파구"
  },
  {
    "name": "스타벅스 잠실본동",
    "address": "서울특별시 송파구 백제고분로 91 (잠실동), 1층",
    "phone": "1522-3232",
    "lat": 37.5086445885442,
    "lng": 127.07949103207,
    "region": "서울특별시",
    "district": "송파구"
  },
  {
    "name": "스타벅스 문정역2번출구",
    "address": "서울특별시 송파구 문정로 1 (문정동)",
    "phone": "1522-3232",
    "lat": 37.48629340180307,
    "lng": 127.12320273731552,
    "region": "서울특별시",
    "district": "송파구"
  },
  {
    "name": "스타벅스 가든파이브",
    "address": "서울특별시 송파구 충민로 10 (문정동) 가든파이브툴",
    "phone": "1522-3232",
    "lat": 37.477974676564614,
    "lng": 127.12118515527476,
    "region": "서울특별시",
    "district": "송파구"
  },
  {
    "name": "스타벅스 가락시장역",
    "address": "서울특별시 송파구 중대로 121, 롯데캐슬 파인힐 1층 (가락동)",
    "phone": "1522-3232",
    "lat": 37.49442875605291,
    "lng": 127.1217432178345,
    "region": "서울특별시",
    "district": "송파구"
  },
  {
    "name": "스타벅스 석촌역",
    "address": "서울특별시 송파구 백제고분로 358, 1층 (석촌동)",
    "phone": "1522-3232",
    "lat": 37.50442905864979,
    "lng": 127.1062991981057,
    "region": "서울특별시",
    "district": "송파구"
  },
  {
    "name": "스타벅스 가락본동",
    "address": "서울특별시 송파구 송파대로30길 13 (가락동)",
    "phone": "1522-3232",
    "lat": 37.494812392616524,
    "lng": 127.11883481297143,
    "region": "서울특별시",
    "district": "송파구"
  },
  {
    "name": "스타벅스 올림픽아파트",
    "address": "서울특별시 송파구 양재대로 1220 (방이동)",
    "phone": "1522-3232",
    "lat": 37.515315,
    "lng": 127.133237,
    "region": "서울특별시",
    "district": "송파구"
  },
  {
    "name": "스타벅스 아시아선수촌",
    "address": "서울특별시 송파구 백제고분로 69 (잠실동)",
    "phone": "1522-3232",
    "lat": 37.51059,
    "lng": 127.079047,
    "region": "서울특별시",
    "district": "송파구"
  },
  {
    "name": "스타벅스 갤러리아팰리스",
    "address": "서울특별시 송파구 올림픽로 212, 갤러리아 팰리스 (잠실동)",
    "phone": "1522-3232",
    "lat": 37.511561,
    "lng": 127.093616,
    "region": "서울특별시",
    "district": "송파구"
  },
  {
    "name": "스타벅스 잠실역",
    "address": "서울특별시 송파구 송파대로 562 (신천동, 웰리스타워,삼성웰리스아파트) 1층,2층",
    "phone": "1522-3232",
    "lat": 37.515272,
    "lng": 127.099231,
    "region": "서울특별시",
    "district": "송파구"
  },
  {
    "name": "스타벅스 잠실새내역",
    "address": "서울특별시 송파구 올림픽로 96 (잠실동)",
    "phone": "1522-3232",
    "lat": 37.511679,
    "lng": 127.081062,
    "region": "서울특별시",
    "district": "송파구"
  },
  {
    "name": "스타벅스 잠실푸르지오월드",
    "address": "서울특별시 송파구 올림픽로35가길 9, 잠실푸르지오월드마크 1층 (신천동)",
    "phone": "1522-3232",
    "lat": 37.517287,
    "lng": 127.103247,
    "region": "서울특별시",
    "district": "송파구"
  },
  {
    "name": "스타벅스 석촌호수",
    "address": "서울특별시 송파구 석촌호수로 262 (송파동)",
    "phone": "1522-3232",
    "lat": 37.50957859,
    "lng": 127.10532641,
    "region": "서울특별시",
    "district": "송파구"
  },
  {
    "name": "스타벅스 방이역",
    "address": "서울특별시 송파구 마천로 53, 1~2층 (오금동)",
    "phone": "1522-3232",
    "lat": 37.5084904076542,
    "lng": 127.126776485458,
    "region": "서울특별시",
    "district": "송파구"
  },
  {
    "name": "스타벅스 올림픽공원남문",
    "address": "서울특별시 송파구 위례성대로 102 (방이동)",
    "phone": "1522-3232",
    "lat": 37.5133,
    "lng": 127.123113,
    "region": "서울특별시",
    "district": "송파구"
  },
  {
    "name": "스타벅스 올림픽훼미리",
    "address": "서울특별시 송파구 중대로 68 (문정동)",
    "phone": "1522-3232",
    "lat": 37.491616375205915,
    "lng": 127.11626573028454,
    "region": "서울특별시",
    "district": "송파구"
  },
  {
    "name": "스타벅스 문정로데오",
    "address": "서울특별시 송파구 동남로 141 (가락동)",
    "phone": "1522-3232",
    "lat": 37.491858429761606,
    "lng": 127.12623104068281,
    "region": "서울특별시",
    "district": "송파구"
  },
  {
    "name": "스타벅스 석촌서호",
    "address": "서울특별시 송파구 석촌호수로 176 (삼전동)",
    "phone": "1522-3232",
    "lat": 37.5063929,
    "lng": 127.0964684,
    "region": "서울특별시",
    "district": "송파구"
  },
  {
    "name": "스타벅스 송파사거리",
    "address": "서울특별시 송파구 송파대로 386 (송파동)",
    "phone": "1522-3232",
    "lat": 37.5022788,
    "lng": 127.1103904,
    "region": "서울특별시",
    "district": "송파구"
  },
  {
    "name": "스타벅스 송파아이파크",
    "address": "서울특별시 송파구 법원로 55 (문정동)",
    "phone": "1522-3232",
    "lat": 37.47979344097158,
    "lng": 127.12242043651425,
    "region": "서울특별시",
    "district": "송파구"
  },
  {
    "name": "스타벅스 올림픽평화의문",
    "address": "서울특별시 송파구 위례성대로 38 (방이동) 해태그린피아빌라트",
    "phone": "1522-3232",
    "lat": 37.5156426,
    "lng": 127.11648190000005,
    "region": "서울특별시",
    "district": "송파구"
  },
  {
    "name": "스타벅스 송파방이DT",
    "address": "서울특별시 송파구 오금로 241 (방이동)",
    "phone": "1522-3232",
    "lat": 37.506564,
    "lng": 127.120495,
    "region": "서울특별시",
    "district": "송파구"
  },
  {
    "name": "스타벅스 송파위례",
    "address": "서울특별시 송파구 위례광장로 230 (장지동, 위례2차아이파크)",
    "phone": "1522-3232",
    "lat": 37.478416,
    "lng": 127.143161,
    "region": "서울특별시",
    "district": "송파구"
  },
  {
    "name": "스타벅스 잠실대교남단R",
    "address": "서울특별시 송파구 송파대로 570 타워 730 1층",
    "phone": "1522-3232",
    "lat": 37.515511,
    "lng": 127.099006,
    "region": "서울특별시",
    "district": "송파구"
  },
  {
    "name": "스타벅스 문정역",
    "address": "서울특별시 송파구 송파대로 167 (문정동)테라타워 B동 137호~139호,204호",
    "phone": "1522-3232",
    "lat": 37.48529649766194,
    "lng": 127.12227677436003,
    "region": "서울특별시",
    "district": "송파구"
  },
  {
    "name": "스타벅스 문정하비오",
    "address": "서울특별시 송파구 송파대로 111 (문정동, 파크하비오) 204동 104호~107호",
    "phone": "1522-3232",
    "lat": 37.48211912934925,
    "lng": 127.12354072397868,
    "region": "서울특별시",
    "district": "송파구"
  },
  {
    "name": "스타벅스 송파개롱역",
    "address": "서울특별시 송파구 오금로 420 (가락동)",
    "phone": "1522-3232",
    "lat": 37.49713613426668,
    "lng": 127.13631299009975,
    "region": "서울특별시",
    "district": "송파구"
  },
  {
    "name": "스타벅스 문정법원로R",
    "address": "서울특별시 송파구 송파대로 201 (문정동)",
    "phone": "1522-3232",
    "lat": 37.487356272840366,
    "lng": 127.11911981125742,
    "region": "서울특별시",
    "district": "송파구"
  },
  {
    "name": "스타벅스 잠실시그마타워",
    "address": "서울특별시 송파구 올림픽로 289 (신천동)",
    "phone": "1522-3232",
    "lat": 37.51461,
    "lng": 127.102774,
    "region": "서울특별시",
    "district": "송파구"
  },
  {
    "name": "스타벅스 송파헬리오시티",
    "address": "서울특별시 송파구 송파대로 345 (가락동, 헬리오시티)",
    "phone": "1522-3232",
    "lat": 37.4977826892486,
    "lng": 127.102851954992,
    "region": "서울특별시",
    "district": "송파구"
  },
  {
    "name": "스타벅스 송파나루역DT",
    "address": "서울특별시 송파구 오금로 142 (송파동)",
    "phone": "1522-3232",
    "lat": 37.510976,
    "lng": 127.110358,
    "region": "서울특별시",
    "district": "송파구"
  },
  {
    "name": "스타벅스 신월동DT",
    "address": "서울특별시 양천구 남부순환로 319 (신월동)",
    "phone": "1522-3232",
    "lat": 37.5382923530559,
    "lng": 126.827101409243,
    "region": "서울특별시",
    "district": "양천구"
  },
  {
    "name": "스타벅스 목동10단지",
    "address": "서울특별시 양천구 목동서로 401 (신정동, 대림아크로빌), 상가A동 101,101-1호",
    "phone": "1522-3232",
    "lat": 37.515425616177,
    "lng": 126.859603067999,
    "region": "서울특별시",
    "district": "양천구"
  },
  {
    "name": "스타벅스 목동트라팰리스",
    "address": "서울특별시 양천구 오목로 299 (목동)",
    "phone": "1522-3232",
    "lat": 37.5255,
    "lng": 126.8702,
    "region": "서울특별시",
    "district": "양천구"
  },
  {
    "name": "스타벅스 목동SBS",
    "address": "서울특별시 양천구 목동서로 161 (목동), 101호, 201호",
    "phone": "1522-3232",
    "lat": 37.52896162444895,
    "lng": 126.87363009594164,
    "region": "서울특별시",
    "district": "양천구"
  },
  {
    "name": "스타벅스 현대목동",
    "address": "서울특별시 양천구 목동동로 257 (목동, 현대하이페리온) 지하2층",
    "phone": "1522-3232",
    "lat": 37.526627173612354,
    "lng": 126.87494068240842,
    "region": "서울특별시",
    "district": "양천구"
  },
  {
    "name": "스타벅스 목동",
    "address": "서울특별시 양천구 목동서로 67 (목동) 우성에펠타운",
    "phone": "1522-3232",
    "lat": 37.53638383,
    "lng": 126.8785597,
    "region": "서울특별시",
    "district": "양천구"
  },
  {
    "name": "스타벅스 목동5단지",
    "address": "서울특별시 양천구 목동동로 411, 1동 116호(목동, 부영그린타운3차)",
    "phone": "1522-3232",
    "lat": 37.5363856363692,
    "lng": 126.88211754815595,
    "region": "서울특별시",
    "district": "양천구"
  },
  {
    "name": "스타벅스 목동7단지",
    "address": "서울특별시 양천구 목동서로 213 (목동) 세신비젼프라자",
    "phone": "1522-3232",
    "lat": 37.528012,
    "lng": 126.87053,
    "region": "서울특별시",
    "district": "양천구"
  },
  {
    "name": "스타벅스 신월IC DT",
    "address": "서울특별시 양천구 남부순환로 430 (신월동)",
    "phone": "1522-3232",
    "lat": 37.529502437956104,
    "lng": 126.83220232277918,
    "region": "서울특별시",
    "district": "양천구"
  },
  {
    "name": "스타벅스 오목교역",
    "address": "서울특별시 양천구 오목로 354 (목동)",
    "phone": "1522-3232",
    "lat": 37.523855929257174,
    "lng": 126.87644987818643,
    "region": "서울특별시",
    "district": "양천구"
  },
  {
    "name": "스타벅스 목동8단지",
    "address": "서울특별시 양천구 목동서로 299 (신정동)",
    "phone": "1522-3232",
    "lat": 37.520518,
    "lng": 126.868841,
    "region": "서울특별시",
    "district": "양천구"
  },
  {
    "name": "스타벅스 목동오목로",
    "address": "서울특별시 양천구 오목로 279 (목동) 102,103,104,105호",
    "phone": "1522-3232",
    "lat": 37.525923,
    "lng": 126.868438,
    "region": "서울특별시",
    "district": "양천구"
  },
  {
    "name": "스타벅스 목동역",
    "address": "서울특별시 양천구 목동로 203 (신정동) 1층일부",
    "phone": "1522-3232",
    "lat": 37.526684,
    "lng": 126.863986,
    "region": "서울특별시",
    "district": "양천구"
  },
  {
    "name": "스타벅스 신정DT",
    "address": "서울특별시 양천구 신월로 341 (신정동)",
    "phone": "1522-3232",
    "lat": 37.521993,
    "lng": 126.858865,
    "region": "서울특별시",
    "district": "양천구"
  },
  {
    "name": "스타벅스 목동행복한",
    "address": "서울특별시 양천구 목동동로 309 (목동)",
    "phone": "1522-3232",
    "lat": 37.52972767740793,
    "lng": 126.8759452307731,
    "region": "서울특별시",
    "district": "양천구"
  },
  {
    "name": "스타벅스 등촌역",
    "address": "서울특별시 양천구 공항대로 566 (목동) 1층 2층",
    "phone": "1522-3232",
    "lat": 37.548884,
    "lng": 126.86807,
    "region": "서울특별시",
    "district": "양천구"
  },
  {
    "name": "스타벅스 목동파리공원",
    "address": "서울특별시 양천구 목동동로 377 (목동)",
    "phone": "1522-3232",
    "lat": 37.535336,
    "lng": 126.878852,
    "region": "서울특별시",
    "district": "양천구"
  },